25,000,00,14,18,000,00,05,17,000,00*77
$GPGSV,3,3,12,25,08,000,00,24,05,000,00,20,00,000,35,09,-01,000,*57
$GPRMC,235956.000,V,0000.0000,N,00000.0000,E,0.00,0.00,091102,,*11
$GPGGA,235956.999,0000.0000,N,00000.0000,E,0,00,50.0,0.0,M,0.0,M,0.0,0000*71
$GPGSA,A,1,,,,,,,,,,,,,50.0,50.0,50.0*05
$GPGSV,3,1,12,11,54,000,00,26,46,000,00,04,46,000,00,18,42,000,00*76
$GPGSV,3,2,12,03,30,000,00,15,25,000,00,14,18,000,00,05,17,000,00*77
$GPGSV,3,3,12,25,08,000,00,24,05,000,00,20,00,000,35,09,-01,000,*57
$GPRMC,235956.999,V,0000.0000,N,00000.0000,E,0.00,0.00,091102,,*18
$GPGGA,080424.494,0000.0000,N,00000.0000,E,0,00,50.0,0.0,M,0.0,M,0.0,0000*75
$GPGSA,A,1,,,,,,,,,,,,,50.0,50.0,50.0*05
$GPGSV,3,1,12,11,54,000,00,26,46,000,00,04,46,000,00,18,42,000,00*76
$GPGSV,3,2,12,03,30,000,00,15,25,000,00,14,18,000,00,05,17,000,00*77
$GPGSV,3,3,12,25,08,000,00,24,05,000,00,20,00,000,35,09,-01,000,*57
$GPRMC,080424.494,V,0000.0000,N,00000.0000,E,0.00,0.00,151102,,*11
$GPGGA,080425.494,0000.0000,N,00000.0000,E,0,00,50.0,0.0,M,0.0,M,0.0,0000*74
$GPGSA,A,1,,,,,,,,,,,,,50.0,50.0,50.0*05
$GPGSV,3,1,12,11,54,000,00,26,46,000,00,04,46,000,00,18,42,000,00*76
$GPGSV,3,2,12,03,30,000,00,15,25,000,00,14,18,000,00,05,17,000,00*77
$GPGSV,3,3,12,25,08,000,00,24,05,000,00,20,00,000,35,09,-01,000,*57
$GPRMC,080425.494,V,0000.0000,N,00000.0000,E,0.00,0.00,151102,,*10
$GPGGA,080426.494,0000.0000,N,00000.0000,E,0,00,50.0,0.0,M,0.0,M,0.0,0000*77
$GPGSA,A,1,,,,,,,,,,,,,50.0,50.0,50.0*05
$GPGSV,3,1,12,11,54,000,00,26,46,000,00,04,46,000,00,18,42,000,00*76
$GPGSV,3,2,12,03,30,000,00,15,25,000,00,14,18,000,00,05,17,000,00*77
$GPGSV,3,3,12,25,08,000,00,24,05,000,00,20,00,000,34,09,-01,000,*56
$GPRMC,080426.494,V,0000.0000,N,00000.0000,E,0.00,0.00,151102,,*13
$GPGGA,080427.494,0000.0000,N,00000.0000,E,0,00,50.0,0.0,M,0.0,M,0.0,0000*76
$GPGSA,A,1,,,,,,,,,,,,,50.0,50.0,50.0*05
$GPGSV,3,1,12,11,54,000,37,26,46,000,00,04,46,000,00,18,42,000,00*72
$GPGSV,3,2,12,03,30,000,00,15,25,000,00,14,18,000,00,05,17,000,00*77
$GPGSV,3,3,12,25,08,000,35,24,05,000,00,20,00,000,35,09,-01,000,*51
$GPRMC,080427.494,V,0000.0000,N,00000.0000,E,0.00,0.00,151102,,*12
$GPGGA,080428.493,0000.0000,N,00000.0000,E,0,00,50.0,0.0,M,0.0,M,0.0,0000*7E
$GPGSA,A,1,,,,,,,,,,,,,50.0,50.0,50.0*05
$GPGSV,3,1,12,11,54,000,36,26,46,000,00,04,46,000,00,18,42,000,00*73
$GPGSV,3,2,12,03,30,000,00,15,25,000,00,14,18,000,00,05,17,000,00*77
$GPGSV,3,3,12,25,08,000,34,24,05,000,00,20,00,000,35,09,-01,000,*50
$GPRMC,080428.493,V,0000.0000,N,00000.0000,E,0.00,0.00,151102,,*1A
$GPGGA,080429.493,0000.0000,N,00000.0000,E,0,00,50.0,0.0,M,0.0,M,0.0,0000*7F
$GPGSA,A,1,,,,,,,,,,,,,50.0,50.0,50.0*05
$GPGSV,3,1,12,11,54,000,36,26,46,000,00,04,46,000,00,18,42,000,00*73
$GPGSV,3,2,12,03,30,000,00,15,25,000,00,14,18,000,00,05,17,000,00*77
$GPGSV,3,3,12,25,08,000,33,24,05,000,00,20,00,000,34,09,-01,000,*56
$GPRMC,080429.493,V,0000.0000,N,00000.0000,E,0.00,0.00,151102,,*1B
$GPGGA,080430.493,0000.0000,N,00000.0000,E,0,00,50.0,0.0,M,0.0,M,0.0,0000*77
$GPGSA,A,1,,,,,,,,,,,,,50.0,50.0,50.0*05
$GPGSV,3,1,12,11,54,000,36,26,46,000,00,04,46,000,00,18,42,000,00*73
$GPGSV,3,2,12,03,30,000,00,15,25,000,00,14,18,000,00,05,17,000,00*77
$GPGSV,3,3,12,25,08,000,34,24,05,000,00,20,00,000,34,09,-01,000,*51
$GPRMC,080430.493,V,0000.0000,N,00000.0000,E,0.00,0.00,151102,,*13
$GPGGA,080431.493,0000.0000,N,00000.0000,E,0,00,50.0,0.0,M,0.0,M,0.0,0000*76
$GPGSA,A,1,,,,,,,,,,,,,50.0,50.0,50.0*05
$GPGSV,3,1,12,11,54,000,34,26,46,000,00,04,46,000,00,18,42,000,00*71
$GPGSV,3,2,12,03,30,000,00,15,25,000,00,14,18,000,00,05,17,000,00*77
$GPGSV,3,3,12,25,08,000,35,24,05,000,00,20,00,000,37,09,-01,000,*53
$GPRMC,080431.493,V,0000.0000,N,00000.0000,E,0.00,0.00,151102,,*12
$GPGGA,080432.493,0000.0000,N,00000.0000,E,0,00,50.0,0.0,M,0.0,M,0.0,0000*75
$GPGSA,A,1,,,,,,,,,,,,,50.0,50.0,50.0*05
$GPGSV,3,1,12,11,54,000,34,26,46,000,00,04,46,000,00,18,42,000,00*71
$GPGSV,3,2,12,03,30,000,00,15,25,000,00,14,18,000,00,05,17,000,00*77
$GPGSV,3,3,12,25,08,000,36,24,05,000,00,20,00,000,36,09,-01,000,*51
$GPRMC,080432.493,V,0000.0000,N,00000.0000,E,0.00,0.00,151102,,*11
$GPGGA,080433.493,0000.0000,N,00000.0000,E,0,00,50.0,0.0,M,0.0,M,0.0,0000*74
$GPGSA,A,1,,,,,,,,,,,,,50.0,50.0,50.0*05
$GPGSV,3,1,12,11,54,000,32,26,46,000,00,04,46,000,00,18,42,000,00*77
$GPGSV,3,2,12,03,30,000,00,15,25,000,00,14,18,000,00,05,17,000,00*77
$GPGSV,3,3,12,25,08,000,35,24,05,000,00,20,00,000,33,09,-01,000,*57
$GPRMC,080433.493,V,0000.0000,N,00000.0000,E,0.00,0.00,151102,,*10
$GPGGA,080434.493,0000.0000,N,00000.0000,E,0,00,50.0,0.0,M,0.0,M,0.0,0000*73
$GPGSA,A,1,,,,,,,,,,,,,50.0,50.0,50.0*05
$GPGSV,3,1,12,11,54,000,34,26,46,000,00,04,46,000,00,18,42,000,00*71
$GPGSV,3,2,12,03,30,000,00,15,25,000,00,14,18,000,00,05,17,000,00*77
$GPGSV,3,3,12,25,08,000,34,24,05,000,00,20,00,000,35,09,-01,000,*50
$GPRMC,080434.493,V,0000.0000,N,00000.0000,E,0.00,0.00,151102,,*17
$GPGGA,080435.493,0000.0000,N,00000.0000,E,0,00,50.0,0.0,M,0.0,M,0.0,0000*72
$GPGSA,A,1,,,,,,,,,,,,,50.0,50.0,50.0*05
$GPGSV,3,1,12,11,54,000,37,26,46,000,00,04,46,000,00,18,42,000,00*72
$GPGSV,3,2,12,03,30,000,00,15,25,000,00,14,18,000,00,05,17,000,00*77
$GPGSV,3,3,12,25,08,000,35,24,05,000,00,20,00,000,36,09,-01,000,*52
$GPRMC,080435.493,V,0000.0000,N,00000.0000,E,0.00,0.00,151102,,*16
$GPGGA,080436.493,0000.0000,N,00000.0000,E,0,00,50.0,0.0,M,0.0,M,0.0,0000*71
$GPGSA,A,1,,,,,,,,,,,,,50.0,50.0,50.0*05
$GPGSV,3,1,12,11,54,000,35,26,46,000,00,04,46,000,00,18,42,000,00*70
$GPGSV,3,2,12,03,30,000,00,15,25,000,00,14,18,000,00,05,17,000,00*77
$GPGSV,3,3,12,25,08,000,35,24,05,000,00,20,00,000,35,09,-01,000,*51
$GPRMC,080436.493,V,0000.0000,N,00000.0000,E,0.00,0.00,151102,,*15
$GPGGA,080437.493,0000.0000,N,00000.0000,E,0,00,50.0,0.0,M,0.0,M,0.0,0000*70
$GPGSA,A,1,,,,,,,,,,,,,50.0,50.0,50.0*05
$GPGSV,3,1,12,11,54,000,37,26,46,000,00,04,46,000,00,18,42,000,00*72
$GPGSV,3,2,12,03,30,000,00,15,25,000,00,14,18,000,00,05,17,000,00*77
$GPGSV,3,3,12,25,08,000,34,24,05,000,00,20,00,000,34,09,-01,000,*51
$GPRMC,080437.493,V,0000.0000,N,00000.0000,E,0.00,0.00,151102,,*14
$GPGGA,080438.493,0000.0000,N,00000.0000,E,0,00,50.0,0.0,M,0.0,M,0.0,0000*7F
$GPGSA,A,1,,,,,,,,,,,,,50.0,50.0,50.0*05
$GPGSV,3,1,12,11,54,000,39,26,46,000,00,04,46,000,00,18,42,000,00*7C
$GPGSV,3,2,12,03,30,000,00,15,25,000,00,14,18,000,00,05,17,000,00*77
$GPGSV,3,3,12,25,08,000,35,24,05,000,00,20,00,000,34,09,-01,000,*50
$GPRMC,080438.493,V,0000.0000,N,00000.0000,E,0.00,0.00,151102,,*1B
$GPGGA,080439.493,0000.0000,N,00000.0000,E,0,00,50.0,0.0,M,0.0,M,0.0,0000*7E
$GPGSA,A,1,,,,,,,,,,,,,50.0,50.0,50.0*05
$GPGSV,3,1,12,11,54,000,35,26,46,000,00,04,46,000,00,18,42,000,00*70
$GPGSV,3,2,12,03,30,000,00,15,25,000,00,14,18,000,00,05,17,000,00*77
$GPGSV,3,3,12,25,08,000,33,24,05,000,00,20,00,000,33,09,-01,000,*51
$GPRMC,080439.493,V,0000.0000,N,00000.0000,E,0.00,0.00,151102,,*1A
$GPGGA,080440.493,0000.0000,N,00000.0000,E,0,00,50.0,0.0,M,0.0,M,0.0,0000*70
$GPGSA,A,1,,,,,,,,,,,,,50.0,50.0,50.0*05
$GPGSV,3,1,12,11,54,000,36,26,46,000,00,04,46,000,00,18,42,000,00*73
$GPGSV,3,2,12,03,30,000,00,15,25,000,00,14,18,000,00,05,17,000,00*77
$GPGSV,3,3,12,25,08,000,33,24,05,000,00,20,00,000,36,09,-01,000,*54
$GPRMC,080440.493,V,0000.0000,N,00000.0000,E,0.00,0.00,151102,,*14
$GPGGA,080441.493,0000.0000,N,00000.0000,E,0,00,50.0,0.0,M,0.0,M,0.0,0000*71
$GPGSA,A,1,,,,,,,,,,,,,50.0,50.0,50.0*05
$GPGSV,3,1,12,11,54,000,38,26,46,000,00,04,46,000,00,18,42,000,00*7D
$GPGSV,3,2,12,03,30,000,00,15,25,000,00,14,18,000,00,05,17,000,00*77
$GPGSV,3,3,12,25,08,000,33,24,05,000,00,20,00,000,35,09,-01,000,*57
$GPRMC,080441.493,V,0000.0000,N,00000.0000,E,0.00,0.00,151102,,*15
$GPGGA,080442.493,0000.0000,N,00000.0000,E,0,00,50.0,0.0,M,0.0,M,0.0,0000*72
$GPGSA,A,1,,,,,,,,,,,,,50.0,50.0,50.0*05
$GPGSV,3,1,12,11,54,000,37,26,46,000,00,04,46,000,00,18,42,000,00*72
$GPGSV,3,2,12,03,30,000,00,15,25,000,00,14,18,000,00,05,17,000,00*77
$GPGSV,3,3,12,25,08,000,33,24,05,000,00,20,00,000,36,09,-01,000,*54
$GPRMC,080442.493,V,0000.0000,N,00000.0000,E,0.00,0.00,151102,,*16
$GPGGA,080443.493,0000.0000,N,00000.0000,E,0,00,50.0,0.0,M,0.0,M,0.0,0000*73
$GPGSA,A,1,,,,,,,,,,,,,50.0,50.0,50.0*05
$GPGSV,3,1,12,11,54,000,36,26,46,000,00,04,46,000,00,18,42,000,00*73
$GPGSV,3,2,12,03,30,000,00,15,25,000,00,14,18,000,00,05,17,000,00*77
$GPGSV,3,3,12,25,08,000,32,24,05,000,00,20,00,000,36,09,-01,000,*55
$GPRMC,080443.493,V,0000.0000,N,00000.0000,E,0.00,0.00,151102,,*17
$GPGGA,080444.493,0000.0000,N,00000.0000,E,0,00,50.0,0.0,M,0.0,M,0.0,0000*74
$GPGSA,A,1,,,,,,,,,,,,,50.0,50.0,50.0*05
$GPGSV,3,1,12,11,54,000,37,26,46,000,00,04,46,000,00,18,42,000,00*72
$GPGSV,3,2,12,03,30,000,00,15,25,000,00,14,18,000,00,05,17,000,00*77
$GPGSV,3,3,12,25,08,000,32,24,05,000,00,20,00,000,36,09,-01,000,*55
$GPRMC,080444.493,V,0000.0000,N,00000.0000,E,0.00,0.00,151102,,*10
$GPGGA,080445.492,0000.0000,N,00000.0000,E,0,00,50.0,0.0,M,0.0,M,0.0,0000*74
$GPGSA,A,1,,,,,,,,,,,,,50.0,50.0,50.0*05
$GPGSV,3,1,12,11,54,000,37,26,46,000,00,04,46,000,00,18,42,000,00*72
$GPGSV,3,2,12,03,30,000,00,15,25,000,00,14,18,000,00,05,17,000,00*77
$GPGSV,3,3,12,25,08,000,32,24,05,000,00,20,00,000,36,09,-01,000,*55
$GPRMC,080445.492,V,0000.0000,N,00000.0000,E,0.00,0.00,151102,,*10
$GPGGA,080446.492,0000.0000,N,00000.0000,E,0,00,50.0,0.0,M,0.0,M,0.0,0000*77
$GPGSA,A,1,,,,,,,,,,,,,50.0,50.0,50.0*05
$GPGSV,3,1,12,11,54,000,37,26,46,000,00,04,46,000,00,18,42,000,00*72
$GPGSV,3,2,12,03,30,000,00,15,25,000,00,14,18,000,00,05,17,000,00*77
$GPGSV,3,3,12,25,08,000,32,24,05,000,00,20,00,000,36,09,-01,000,*55
$GPRMC,080446.492,V,0000.0000,N,00000.0000,E,0.00,0.00,151102,,*13
$GPGGA,080447.492,0000.0000,N,00000.0000,E,0,00,50.0,0.0,M,0.0,M,0.0,0000*76
$GPGSA,A,1,,,,,,,,,,,,,50.0,50.0,50.0*05
$GPGSV,3,1,12,11,54,000,37,26,46,000,00,04,46,000,00,18,42,000,00*72
$GPGSV,3,2,12,03,30,000,00,15,25,000,00,14,18,000,00,05,17,000,00*77
$GPGSV,3,3,12,25,08,000,32,24,05,000,00,20,00,000,36,09,-01,000,*55
$GPRMC,080447.492,V,0000.0000,N,00000.0000,E,0.00,0.00,151102,,*12
$GPGGA,080448.492,0000.0000,N,00000.0000,E,0,00,50.0,0.0,M,0.0,M,0.0,0000*79
$GPGSA,A,1,,,,,,,,,,,,,50.0,50.0,50.0*05
$GPGSV,3,1,12,11,54,000,38,26,46,000,00,04,46,000,00,18,42,000,00*7D
$GPGSV,3,2,12,03,30,000,00,15,25,000,00,14,18,000,00,05,17,000,00*77
$GPGSV,3,3,12,25,08,000,33,24,05,000,00,20,00,000,35,09,-01,000,*57
$GPRMC,080448.492,V,0000.0000,N,00000.0000,E,0.00,0.00,151102,,*1D
$GPGGA,080449.492,0000.0000,N,00000.0000,E,0,00,50.0,0.0,M,0.0,M,0.0,0000*78
$GPGSA,A,1,,,,,,,,,,,,,50.0,50.0,50.0*05
$GPGSV,3,1,12,11,54,000,37,26,46,000,00,04,46,000,00,18,42,000,00*72
$GPGSV,3,2,12,03,30,000,00,15,25,000,00,14,18,000,00,05,17,000,00*77
$GPGSV,3,3,12,25,08,000,32,24,05,000,00,20,00,000,35,09,-01,000,*56
$GPRMC,080449.492,V,0000.0000,N,00000.0000,E,0.00,0.00,151102,,*1C
$GPGGA,080450.492,0000.0000,N,00000.0000,E,0,00,50.0,0.0,M,0.0,M,0.0,0000*70
$GPGSA,A,1,,,,,,,,,,,,,50.0,50.0,50.0*05
$GPGSV,3,1,12,11,54,000,38,26,46,000,00,04,46,000,00,18,42,000,00*7D
$GPGSV,3,2,12,03,30,000,00,15,25,000,00,14,18,000,00,05,17,000,00*77
$GPGSV,3,3,12,25,08,000,32,24,05,000,00,20,00,000,36,09,-01,000,*55
$GPRMC,080450.492,V,0000.0000,N,00000.0000,E,0.00,0.00,151102,,*14
$GPGGA,080451.492,0000.0000,N,00000.0000,E,0,00,50.0,0.0,M,0.0,M,0.0,0000*71
$GPGSA,A,1,,,,,,,,,,,,,50.0,50.0,50.0*05
$GPGSV,3,1,12,11,54,000,37,26,46,000,00,04,46,000,00,18,42,000,00*72
$GPGSV,3,2,12,03,30,000,00,15,25,000,00,14,18,000,00,05,17,000,00*77
$GPGSV,3,3,12,25,08,000,32,24,05,000,00,20,00,000,35,09,-01,000,*56
$GPRMC,080451.492,V,0000.0000,N,00000.0000,E,0.00,0.00,151102,,*15
$GPGGA,080452.492,0000.0000,N,00000.0000,E,0,00,50.0,0.0,M,0.0,M,0.0,0000*72
$GPGSA,A,1,,,,,,,,,,,,,50.0,50.0,50.0*05
$GPGSV,3,1,12,11,54,000,37,26,46,000,00,04,46,000,00,18,42,000,00*72
$GPGSV,3,2,12,03,30,000,00,15,25,000,00,14,18,000,00,05,17,000,00*77
$GPGSV,3,3,12,25,08,000,33,24,05,000,00,20,00,000,35,09,-01,000,*57
$GPRMC,080452.492,V,0000.0000,N,00000.0000,E,0.00,0.00,151102,,*16
$GPGGA,080453.492,0000.0000,N,00000.0000,E,0,00,50.0,0.0,M,0.0,M,0.0,0000*73
$GPGSA,A,1,,,,,,,,,,,,,50.0,50.0,50.0*05
$GPGSV,3,1,12,11,54,000,37,26,46,000,00,04,46,000,00,18,42,000,00*72
$GPGSV,3,2,12,03,30,000,00,15,25,000,00,14,18,000,00,05,17,000,00*77
$GPGSV,3,3,12,25,08,000,33,24,05,000,00,20,00,000,36,09,-01,000,*54
$GPRMC,080453.492,V,0000.0000,N,00000.0000,E,0.00,0.00,121104,,*16
$GPGGA,080454.492,0000.0000,N,00000.0000,E,0,00,50.0,0.0,M,0.0,M,0.0,0000*74
$GPGSA,A,1,,,,,,,,,,,,,50.0,50.0,50.0*05
$GPGSV,3,1,12,20,79,000,35,16,48,000,,23,44,000,,01,28,000,*73
$GPGSV,3,2,12,25,24,000,33,11,21,000,38,13,17,000,,27,03,000,*70
$GPGSV,3,3,12,03,01,000,00,04,00,000,00,19,-04,000,,14,-07,000,00*72
$GPRMC,080454.492,V,0000.0000,N,00000.0000,E,0.00,0.00,121104,,*11
$GPGGA,080455.492,0000.0000,N,00000.0000,E,0,00,50.0,0.0,M,0.0,M,0.0,0000*75
$GPGSA,A,1,,,,,,,,,,,,,50.0,50.0,50.0*05
$GPGSV,3,1,12,20,79,000,36,16,48,000,00,23,44,000,00,01,28,000,00*70
$GPGSV,3,2,12,25,24,000,33,11,21,000,38,13,17,000,00,27,03,000,*70
$GPGSV,3,3,12,03,01,000,00,04,00,000,00,19,-04,000,,14,-07,000,00*72
$GPRMC,080455.492,V,0000.0000,N,00000.0000,E,0.00,0.00,121104,,*10
$GPGGA,080456.492,0000.0000,N,00000.0000,E,0,00,50.0,0.0,M,0.0,M,0.0,0000*76
$GPGSA,A,1,,,,,,,,,,,,,50.0,50.0,50.0*05
$GPGSV,3,1,12,20,79,000,36,16,48,000,00,23,44,000,00,01,28,000,00*70
$GPGSV,3,2,12,25,24,000,33,11,21,000,37,13,17,000,00,27,03,000,*7F
$GPGSV,3,3,12,03,01,000,00,04,00,000,00,19,-04,000,,14,-07,000,00*72
$GPRMC,080456.492,V,0000.0000,N,00000.0000,E,0.00,0.00,121104,,*13
$GPGGA,080457.492,0000.0000,N,00000.0000,E,0,00,50.0,0.0,M,0.0,M,0.0,0000*77
$GPGSA,A,1,,,,,,,,,,,,,50.0,50.0,50.0*05
$GPGSV,3,1,12,20,79,000,36,16,48,000,00,23,44,000,00,01,28,000,00*70
$GPGSV,3,2,12,25,24,000,33,11,21,000,37,13,17,000,00,27,03,000,*7F
$GPGSV,3,3,12,03,01,000,00,04,00,000,00,19,-04,000,,14,-07,000,00*72
$GPRMC,080457.492,V,0000.0000,N,00000.0000,E,0.00,0.00,121104,,*12
$GPGGA,080458.492,0000.0000,N,00000.0000,E,0,00,50.0,0.0,M,0.0,M,0.0,0000*78
$GPGSA,A,1,,,,,,,,,,,,,50.0,50.0,50.0*05
$GPGSV,3,1,12,20,79,000,35,16,48,000,00,23,44,000,00,01,28,000,00*73
$GPGSV,3,2,12,25,24,000,32,11,21,000,36,13,17,000,00,27,03,000,*7F
$GPGSV,3,3,12,03,01,000,00,04,00,000,00,19,-04,000,,14,-07,000,00*72
$GPRMC,080458.492,V,0000.0000,N,00000.0000,E,0.00,0.00,121104,,*1D
$GPGGA,080459.492,0000.0000,N,00000.0000,E,0,00,50.0,0.0,M,0.0,M,0.0,0000*79
$GPGSA,A,1,,,,,,,,,,,,,50.0,50.0,50.0*05
$GPGSV,3,1,12,20,79,000,36,16,48,000,00,23,44,000,00,01,28,000,00*70
$GPGSV,3,2,12,25,24,000,33,11,21,000,36,13,17,000,00,27,03,000,*7E
$GPGSV,3,3,12,03,01,000,00,04,00,000,00,19,-04,000,,14,-07,000,00*72
$GPRMC,080459.492,V,0000.0000,N,00000.0000,E,0.00,0.00,121104,,*1C
$GPGGA,080500.489,3527.5974,S,14904.1268,E,1,03,50.0,0.0,M,12.7,M,0.0,0000*5C
$GPGSA,A,2,20,11,25,,,,,,,,,,50.0,50.0,20.0*04
$GPGSV,3,1,12,20,79,000,35,16,48,000,00,23,44,000,00,01,28,000,00*73
$GPGSV,3,2,12,25,24,000,32,11,21,000,36,13,17,000,00,27,03,000,*7F
$GPGSV,3,3,12,03,01,000,00,04,00,000,00,19,-04,000,,14,-07,000,00*72
$GPRMC,080500.489,A,3527.5974,S,14904.1268,E,0.00,0.00,121104,,*18
$GPGGA,080501.489,3527.6061,S,14904.1099,E,1,03,50.0,0.0,M,12.7,M,0.0,0000*5F
$GPGSA,A,2,20,11,25,,,,,,,,,,50.0,50.0,20.0*04
$GPGSV,2,1,08,20,84,323,36,23,55,219,00,16,43,074,00,01,28,104,00*7D
$GPGSV,2,2,08,25,28,132,32,13,25,247,00,11,14,333,36,04,09,223,00*74
$GPRMC,080501.489,A,3527.6061,S,14904.1099,E,0.00,0.00,121104,,*1B
$GPGGA,080502.489,3527.6019,S,14904.1152,E,1,03,50.0,0.0,M,12.7,M,0.0,0000*55
$GPGSA,A,2,20,11,25,,,,,,,,,,50.0,50.0,20.0*04
$GPGSV,2,1,08,20,84,323,36,23,55,219,00,16,43,074,45,01,28,104,00*7C
$GPGSV,2,2,08,25,28,132,32,13,25,247,00,11,14,333,36,04,09,223,00*74
$GPRMC,080502.489,A,3527.6019,S,14904.1152,E,0.00,0.00,121104,,*11
$GPGGA,080503.489,3527.5979,S,14904.1227,E,1,03,50.0,0.0,M,12.7,M,0.0,0000*59
$GPGSA,A,2,20,11,25,,,,,,,,,,50.0,50.0,20.0*04
$GPGSV,2,1,08,20,84,323,35,23,55,219,44,16,43,074,45,01,28,104,41*7A
$GPGSV,2,2,08,25,28,132,32,13,25,247,00,11,14,333,36,04,09,223,00*74
$GPRMC,080503.489,A,3527.5979,S,14904.1227,E,0.00,0.00,121104,,*1D
$GPGGA,080504.489,3527.6056,S,14904.1081,E,1,03,50.0,0.0,M,12.7,M,0.0,0000*57
$GPGSA,A,2,20,11,25,,,,,,,,,,50.0,50.0,20.0*04
$GPGSV,2,1,08,20,84,323,36,23,55,219,43,16,43,074,45,01,28,104,40*7F
$GPGSV,2,2,08,25,28,132,32,13,25,247,00,11,14,333,36,04,09,223,00*74
$GPRMC,080504.489,A,3527.6056,S,14904.1081,E,0.00,0.00,121104,,*13
$GPGGA,080505.489,3527.6023,S,14904.1136,E,1,03,50.0,0.0,M,12.7,M,0.0,0000*59
$GPGSA,A,2,20,11,25,,,,,,,,,,50.0,50.0,20.0*04
$GPGSV,2,1,08,20,84,323,36,23,55,219,44,16,43,074,45,01,28,104,41*79
$GPGSV,2,2,08,25,28,132,32,13,25,247,00,11,14,333,36,04,09,223,00*74
$GPRMC,080505.489,A,3527.6023,S,14904.1136,E,0.00,0.00,121104,,*1D
$GPGGA,080506.489,3527.5994,S,14904.1211,E,1,03,50.0,0.0,M,12.7,M,0.0,0000*5A
$GPGSA,A,2,20,11,25,,,,,,,,,,50.0,50.0,20.0*04
$GPGSV,2,1,08,20,84,323,35,23,55,219,44,16,43,074,44,01,28,104,41*7B
$GPGSV,2,2,08,25,28,132,32,13,25,247,00,11,14,333,36,04,09,223,00*74
$GPRMC,080506.489,A,3527.5994,S,14904.1211,E,0.00,0.00,121104,,*1E
$GPGGA,080507.489,3527.5972,S,14904.1251,E,1,03,50.0,0.0,M,12.7,M,0.0,0000*57
$GPGSA,A,2,20,11,25,,,,,,,,,,50.0,50.0,20.0*04
$GPGSV,2,1,08,20,84,323,35,23,55,219,44,16,43,074,44,01,28,104,41*7B
$GPGSV,2,2,08,25,28,132,32,13,25,247,00,11,14,333,36,04,09,223,00*74
$GPRMC,080507.489,A,3527.5972,S,14904.1251,E,0.00,0.00,121104,,*13
$GPGGA,080508.489,3527.6002,S,14904.1222,E,1,03,50.0,0.0,M,12.7,M,0.0,0000*51
$GPGSA,A,2,20,11,25,,,,,,,,,,50.0,50.0,20.0*04
$GPGSV,2,1,08,20,84,323,35,23,55,219,44,16,43,074,44,01,28,104,40*7A
$GPGSV,2,2,08,25,28,132,31,13,25,247,00,11,14,333,36,04,09,223,00*77
$GPRMC,080508.489,A,3527.6002,S,14904.1222,E,0.00,0.00,121104,,*15
$GPGGA,080509.488,3527.5983,S,14904.1224,E,1,03,50.0,0.0,M,12.7,M,0.0,0000*54
$GPGSA,A,2,20,11,25,,,,,,,,,,50.0,50.0,20.0*04
$GPGSV,2,1,08,20,84,323,35,23,55,219,44,16,43,074,44,01,28,104,40*7A
$GPGSV,2,2,08,25,28,132,32,13,25,247,40,11,14,333,37,04,09,223,00*71
$GPRMC,080509.488,A,3527.5983,S,14904.1224,E,0.00,0.00,121104,,*10
$GPGGA,080510.488,3527.5987,S,14904.1222,E,1,03,50.0,0.0,M,12.7,M,0.0,0000*5E
$GPGSA,A,2,20,11,25,,,,,,,,,,50.0,50.0,20.0*04
$GPGSV,2,1,08,20,84,323,34,23,55,219,45,16,43,074,44,01,28,104,40*7A
$GPGSV,2,2,08,25,28,132,32,13,25,247,40,11,14,333,36,04,09,223,00*70
$GPRMC,080510.488,A,3527.5987,S,14904.1222,E,0.00,0.00,121104,,*1A
$GPGGA,080511.488,3527.6040,S,14904.1119,E,1,03,50.0,0.0,M,12.7,M,0.0,0000*55
$GPGSA,A,2,20,11,25,,,,,,,,,,50.0,50.0,20.0*04
$GPGSV,2,1,08,20,84,323,35,23,55,219,44,16,43,074,44,01,28,104,40*7A
$GPGSV,2,2,08,25,28,132,32,13,25,247,40,11,14,333,36,04,09,223,00*70
$GPRMC,080511.488,A,3527.6040,S,14904.1119,E,0.00,0.00,121104,,*11
$GPGGA,080512.488,3527.6082,S,14904.1064,E,1,03,50.0,0.0,M,12.7,M,0.0,0000*53
$GPGSA,A,2,20,11,25,,,,,,,,,,50.0,50.0,20.0*04
$GPGSV,2,1,08,20,84,323,35,23,55,219,44,16,43,074,44,01,28,104,41*7B
$GPGSV,2,2,08,25,28,132,33,13,25,247,39,11,14,333,36,04,09,223,00*7F
$GPRMC,080512.488,A,3527.6082,S,14904.1064,E,0.00,0.00,121104,,*17
$GPGGA,080513.488,3527.6044,S,14904.1100,E,1,03,50.0,0.0,M,12.7,M,0.0,0000*5B
$GPGSA,A,2,20,11,25,,,,,,,,,,50.0,50.0,20.0*04
$GPGSV,2,1,08,20,84,323,35,23,55,219,44,16,43,074,45,01,28,104,41*7A
$GPGSV,2,2,08,25,28,132,33,13,25,247,39,11,14,333,36,04,09,223,00*7F
$GPRMC,080513.488,A,3527.6044,S,14904.1100,E,0.00,0.00,121104,,*1F
$GPGGA,080514.488,3527.6051,S,14904.1112,E,1,03,50.0,0.0,M,12.7,M,0.0,0000*5B
$GPGSA,A,2,20,11,25,,,,,,,,,,50.0,50.0,20.0*04
$GPGSV,2,1,08,20,84,323,35,23,55,219,44,16,43,074,45,01,28,104,41*7A
$GPGSV,2,2,08,25,28,132,31,13,25,247,40,11,14,333,36,04,09,223,00*73
$GPRMC,080514.488,A,3527.6051,S,14904.1112,E,0.00,0.00,121104,,*1F
$GPGGA,080515.488,3527.6000,S,14904.1183,E,1,03,50.0,0.0,M,12.7,M,0.0,0000*56
$GPGSA,A,2,20,11,25,,,,,,,,,,50.0,50.0,20.0*04
$GPGSV,2,1,08,20,84,323,35,23,55,219,44,16,43,074,45,01,28,104,41*7A
$GPGSV,2,2,08,25,28,132,32,13,25,247,40,11,14,333,36,04,09,223,00*70
$GPRMC,080515.488,A,3527.6000,S,14904.1183,E,0.00,0.00,121104,,*12
$GPGGA,080516.488,3527.6029,S,14904.1131,E,1,03,50.0,0.0,M,12.7,M,0.0,0000*57
$GPGSA,A,2,20,11,25,,,,,,,,,,50.0,50.0,20.0*04
$GPGSV,2,1,08,20,84,323,35,23,55,219,44,16,43,074,44,01,28,104,41*7B
$GPGSV,2,2,08,25,28,132,31,13,25,247,39,11,14,333,36,04,09,223,00*7D
$GPRMC,080516.488,A,3527.6029,S,14904.1131,E,0.00,0.00,121104,,*13
$GPGGA,080517.488,3527.5998,S,14904.1197,E,1,03,50.0,0.0,M,12.7,M,0.0,0000*5A
$GPGSA,A,2,20,11,25,,,,,,,,,,50.0,50.0,20.0*04
$GPGSV,2,1,08,20,84,323,35,23,55,219,45,16,43,074,45,01,28,104,41*7B
$GPGSV,2,2,08,25,28,132,30,13,25,247,40,11,14,333,37,04,09,223,00*73
$GPRMC,080517.488,A,3527.5998,S,14904.1197,E,0.00,0.00,121104,,*1E
$GPGGA,080518.488,3527.6067,S,14904.1092,E,1,03,50.0,0.0,M,12.7,M,0.0,0000*5B
$GPGSA,A,2,20,11,25,,,,,,,,,,50.0,50.0,20.0*04
$GPGSV,2,1,08,20,84,324,35,23,55,219,45,16,43,074,45,01,28,104,41*7C
$GPGSV,2,2,08,25,28,132,31,13,25,247,40,11,14,333,35,04,09,223,00*70
$GPRMC,080518.488,A,3527.6067,S,14904.1092,E,0.00,0.00,121104,,*1F
$GPGGA,080519.488,3527.6038,S,14904.1124,E,1,03,50.0,0.0,M,12.7,M,0.0,0000*5C
$GPGSA,A,2,20,11,25,,,,,,,,,,50.0,50.0,20.0*04
$GPGSV,2,1,08,20,84,324,36,23,55,219,45,16,43,074,45,01,28,104,41*7F
$GPGSV,2,2,08,25,28,132,32,13,25,247,40,11,14,333,35,04,09,223,00*73
$GPRMC,080519.488,A,3527.6038,S,14904.1124,E,0.00,0.00,121104,,*18
$GPGGA,080520.488,3527.6095,S,14904.1018,E,1,03,50.0,0.0,M,12.7,M,0.0,0000*5F
$GPGSA,A,2,20,11,25,,,,,,,,,,50.0,50.0,20.0*04
$GPGSV,2,1,08,20,84,324,36,23,55,219,44,16,43,074,45,01,28,104,41*7E
$GPGSV,2,2,08,25,28,132,33,13,25,247,40,11,14,333,36,04,09,223,00*71
$GPRMC,080520.488,A,3527.6095,S,14904.1018,E,0.00,0.00,121104,,*1B
$GPGGA,080521.488,3527.6034,S,14904.1109,E,1,03,50.0,0.0,M,12.7,M,0.0,0000*54
$GPGSA,A,2,20,11,25,,,,,,,,,,50.0,50.0,20.0*04
$GPGSV,2,1,08,20,84,324,36,23,55,219,44,16,43,074,45,01,28,104,40*7F
$GPGSV,2,2,08,25,28,132,33,13,25,247,40,11,14,333,36,04,09,223,00*71
$GPRMC,080521.488,A,3527.6034,S,14904.1109,E,0.00,0.00,121104,,*10
$GPGGA,080522.488,3527.6010,S,14904.1158,E,1,03,50.0,0.0,M,12.7,M,0.0,0000*55
$GPGSA,A,2,20,11,25,,,,,,,,,,50.0,50.0,20.0*04
$GPGSV,2,1,08,20,84,324,36,23,55,219,44,16,43,074,45,01,28,104,40*7F
$GPGSV,2,2,08,25,28,132,33,13,25,247,40,11,14,333,35,04,09,223,00*72
$GPRMC,080522.488,A,3527.6010,S,14904.1158,E,0.00,0.00,121104,,*11
$GPGGA,080523.488,3527.5996,S,14904.1161,E,1,03,50.0,0.0,M,12.7,M,0.0,0000*5A
$GPGSA,A,2,20,11,25,,,,,,,,,,50.0,50.0,20.0*04
$GPGSV,2,1,08,20,84,324,35,23,55,219,45,16,43,074,44,01,28,104,40*7C
$GPGSV,2,2,08,25,28,132,32,13,25,247,39,11,14,333,35,04,09,223,00*7D
$GPRMC,080523.488,A,3527.5996,S,14904.1161,E,0.00,0.00,121104,,*1E
$GPGGA,080524.487,3527.5992,S,14904.1187,E,1,03,50.0,0.0,M,12.7,M,0.0,0000*5E
$GPGSA,A,2,20,11,25,,,,,,,,,,50.0,50.0,20.0*04
$GPGSV,2,1,08,20,84,324,35,23,55,219,44,16,43,074,44,01,28,104,40*7D
$GPGSV,2,2,08,25,28,132,32,13,25,247,40,11,14,333,35,04,09,223,00*73
$GPRMC,080524.487,A,3527.5992,S,14904.1187,E,0.00,0.00,121104,,*1A
$GPGGA,080525.487,3527.6012,S,14904.1134,E,1,03,50.0,0.0,M,12.7,M,0.0,0000*55
$GPGSA,A,2,20,11,25,,,,,,,,,,50.0,50.0,20.0*04
$GPGSV,2,1,08,20,84,324,36,23,55,219,45,16,43,074,44,01,28,104,40*7F
$GPGSV,2,2,08,25,28,132,32,13,25,247,40,11,14,333,36,04,09,223,00*70
$GPRMC,080525.487,A,3527.6012,S,14904.1134,E,0.00,0.00,121104,,*11
$GPGGA,080526.487,3527.5990,S,14904.1171,E,1,03,50.0,0.0,M,12.7,M,0.0,0000*57
$GPGSA,A,2,20,11,25,,,,,,,,,,50.0,50.0,20.0*04
$GPGSV,2,1,08,20,84,324,35,23,55,219,45,16,43,074,44,01,28,104,40*7C
$GPGSV,2,2,08,25,28,132,33,13,25,247,40,11,14,333,36,04,09,223,00*71
$GPRMC,080526.487,A,3527.5990,S,14904.1171,E,0.00,0.00,121104,,*13
$GPGGA,080527.487,3527.5987,S,14904.1197,E,1,03,50.0,0.0,M,12.7,M,0.0,0000*58
$GPGSA,A,2,20,11,25,,,,,,,,,,50.0,50.0,20.0*04
$GPGSV,2,1,08,20,84,324,35,23,55,219,44,16,43,074,45,01,28,104,40*7C
$GPGSV,2,2,08,25,28,132,32,13,25,247,40,11,14,333,35,04,09,223,00*73
$GPRMC,080527.487,A,3527.5987,S,14904.1197,E,0.00,0.00,121104,,*1C
$GPGGA,080528.487,3527.6096,S,14904.1043,E,1,03,50.0,0.0,M,12.7,M,0.0,0000*55
$GPGSA,A,2,20,11,25,,,,,,,,,,50.0,50.0,20.0*04
$GPGSV,2,1,08,20,84,324,35,23,55,219,44,16,43,074,44,01,28,104,40*7D
$GPGSV,2,2,08,25,28,132,32,13,25,247,40,11,14,333,35,04,09,223,00*73
$GPRMC,080528.487,A,3527.6096,S,14904.1043,E,0.00,0.00,121104,,*11
$GPGGA,080529.487,3527.6160,S,14904.0909,E,1,03,50.0,0.0,M,12.7,M,0.0,0000*5A
$GPGSA,A,2,20,11,25,,,,,,,,,,50.0,50.0,20.0*04
$GPGSV,2,1,08,20,84,324,35,23,55,219,45,16,43,074,45,01,28,104,40*7D
$GPGSV,2,2,08,25,28,132,32,13,25,247,40,11,14,333,35,04,09,223,00*73
$GPRMC,080529.487,A,3527.6160,S,14904.0909,E,0.00,0.00,121104,,*1E
$GPGGA,080530.487,3527.6079,S,14904.1009,E,1,03,50.0,0.0,M,12.7,M,0.0,0000*53
$GPGSA,A,2,20,11,25,,,,,,,,,,50.0,50.0,20.0*04
$GPGSV,2,1,08,20,84,324,35,23,55,219,45,16,43,074,45,01,28,104,41*7C
$GPGSV,2,2,08,25,28,132,32,13,25,247,40,11,14,333,35,04,09,223,00*73
$GPRMC,080530.487,A,3527.6079,S,14904.1009,E,0.00,0.00,121104,,*17
$GPGGA,080531.487,3527.6043,S,14904.1078,E,1,03,50.0,0.0,M,12.7,M,0.0,0000*5D
$GPGSA,A,2,20,11,25,,,,,,,,,,50.0,50.0,20.0*04
$GPGSV,2,1,08,20,84,324,35,23,55,219,44,16,43,074,45,01,28,104,41*7D
$GPGSV,2,2,08,25,28,132,33,13,25,247,41,11,14,333,35,04,09,223,00*73
$GPRMC,080531.487,A,3527.6043,S,14904.1078,E,0.00,0.00,121104,,*19
$GPGGA,080532.487,3527.5979,S,14904.1187,E,1,03,50.0,0.0,M,12.7,M,0.0,0000*5C
$GPGSA,A,2,20,11,25,,,,,,,,,,50.0,50.0,20.0*04
$GPGSV,2,1,08,20,84,324,35,23,55,219,44,16,43,074,45,01,28,104,40*7C
$GPGSV,2,2,08,25,28,132,33,13,25,247,41,11,14,333,35,04,09,223,00*73
$GPRMC,080532.487,A,3527.5979,S,14904.1187,E,0.00,0.00,121104,,*18
$GPGGA,080533.487,3527.6021,S,14904.1135,E,1,03,50.0,0.0,M,12.7,M,0.0,0000*53
$GPGSA,A,2,20,11,25,,,,,,,,,,50.0,50.0,20.0*04
$GPGSV,2,1,08,20,84,324,35,23,55,219,44,16,43,074,45,01,28,104,41*7D
$GPGSV,2,2,08,25,28,132,32,13,25,247,41,11,14,333,35,04,09,223,00*72
$GPRMC,080533.487,A,3527.6021,S,14904.1135,E,0.00,0.00,121104,,*17
$GPGGA,080534.487,3527.6101,S,14904.1008,E,1,03,50.0,0.0,M,12.7,M,0.0,0000*58
$GPGSA,A,2,20,11,25,,,,,,,,,,50.0,50.0,20.0*04
$GPGSV,2,1,08,20,84,324,35,23,55,219,43,16,43,074,45,01,28,104,41*7A
$GPGSV,2,2,08,25,28,132,32,13,25,247,40,11,14,333,36,04,09,223,00*70
$GPRMC,080534.487,A,3527.6101,S,14904.1008,E,0.00,0.00,121104,,*1C
$GPGGA,080535.487,3527.6095,S,14904.0991,E,1,03,50.0,0.0,M,12.7,M,0.0,0000*5D
$GPGSA,A,2,20,11,25,,,,,,,,,,50.0,50.0,20.0*04
$GPGSV,2,1,08,20,84,324,35,23,55,219,43,16,43,074,45,01,28,104,40*7B
$GPGSV,2,2,08,25,28,132,32,13,25,247,40,11,14,333,35,04,09,223,00*73
$GPRMC,080535.487,A,3527.6095,S,14904.0991,E,0.00,0.00,121104,,*19
$GPGGA,080536.487,3526.8554,S,14905.2663,E,1,07,1.1,614.2,M,12.7,M,0.0,0000*68
$GPGSA,A,3,20,11,16,23,01,13,25,,,,,,2.0,1.1,1.7*36
$GPGSV,2,1,08,20,84,326,35,23,55,219,44,16,43,074,45,01,28,104,40*7E
$GPGSV,2,2,08,25,28,132,33,13,25,247,41,11,14,333,35,04,09,223,00*73
$GPRMC,080536.487,A,3526.8554,S,14905.2663,E,0.00,0.00,121104,,*1C
$GPGGA,080537.487,3526.8563,S,14905.2660,E,1,07,1.1,613.1,M,12.7,M,0.0,0000*6A
$GPGSA,A,3,20,11,16,23,01,13,25,,,,,,2.0,1.1,1.7*36
$GPGSV,2,1,08,20,84,326,35,23,55,219,44,16,43,074,45,01,28,104,40*7E
$GPGSV,2,2,08,25,28,132,32,13,25,247,40,11,14,333,35,04,09,223,00*73
$GPRMC,080537.487,A,3526.8563,S,14905.2660,E,0.00,0.00,121104,,*1A
$GPGGA,080538.487,3526.8556,S,14905.2656,E,1,07,1.1,614.4,M,12.7,M,0.0,0000*64
$GPGSA,A,3,20,11,16,23,01,13,25,,,,,,2.0,1.1,1.7*36
$GPGSV,2,1,08,20,84,326,35,23,55,219,44,16,43,074,44,01,28,104,40*7F
$GPGSV,2,2,08,25,28,132,32,13,25,247,40,11,14,333,36,04,09,223,00*70
$GPRMC,080538.487,A,3526.8556,S,14905.2656,E,0.00,0.00,121104,,*16
$GPGGA,080539.487,3526.8556,S,14905.2660,E,1,07,1.1,613.8,M,12.7,M,0.0,0000*6B
$GPGSA,A,3,20,11,16,23,01,13,25,,,,,,2.0,1.1,1.7*36
$GPGSV,2,1,08,20,84,326,35,23,55,219,44,16,43,074,44,01,28,104,40*7F
$GPGSV,2,2,08,25,28,132,32,13,25,247,40,11,14,333,36,04,09,223,00*70
$GPRMC,080539.487,A,3526.8556,S,14905.2660,E,0.00,0.00,121104,,*12
$GPGGA,080540.486,3526.8554,S,14905.2663,E,1,07,1.1,613.3,M,12.7,M,0.0,0000*6E
$GPGSA,A,3,20,11,16,23,01,13,25,,,,,,2.0,1.1,1.7*36
$GPGSV,2,1,08,20,84,326,35,23,55,219,44,16,43,074,44,01,28,104,40*7F
$GPGSV,2,2,08,25,28,132,32,13,25,247,40,11,14,333,36,04,09,223,00*70
$GPRMC,080540.486,A,3526.8554,S,14905.2663,E,0.00,0.00,121104,,*1C
$GPGGA,080541.486,3526.8554,S,14905.2664,E,1,07,1.1,612.8,M,12.7,M,0.0,0000*62
$GPGSA,A,3,20,11,16,23,01,13,25,,,,,,2.0,1.1,1.7*36
$GPGSV,2,1,08,20,84,326,34,23,55,219,44,16,43,074,45,01,28,104,40*7F
$GPGSV,2,2,08,25,28,132,32,13,25,247,40,11,14,333,36,04,09,223,00*70
$GPRMC,080541.486,A,3526.8554,S,14905.2664,E,0.00,0.00,121104,,*1A
$GPGGA,080542.486,3526.8555,S,14905.2664,E,1,07,1.1,612.7,M,12.7,M,0.0,0000*6F
$GPGSA,A,3,20,11,16,23,01,13,25,,,,,,2.0,1.1,1.7*36
$GPGSV,2,1,08,20,84,326,35,23,55,219,43,16,43,074,45,01,28,104,40*79
$GPGSV,2,2,08,25,28,132,32,13,25,247,40,11,14,333,36,04,09,223,00*70
$GPRMC,080542.486,A,3526.8555,S,14905.2664,E,0.00,0.00,121104,,*18
$GPGGA,080543.486,3526.8557,S,14905.2664,E,1,07,1.1,612.4,M,12.7,M,0.0,0000*6F
$GPGSA,A,3,20,11,16,23,01,13,25,,,,,,2.0,1.1,1.7*36
$GPGSV,2,1,08,20,84,326,35,23,55,219,43,16,43,074,45,01,28,104,40*79
$GPGSV,2,2,08,25,28,132,32,13,25,247,41,11,14,333,36,04,09,223,00*71
$GPRMC,080543.486,A,3526.8557,S,14905.2664,E,0.00,0.00,121104,,*1B
$GPGGA,080544.486,3526.8557,S,14905.2664,E,1,07,1.1,612.1,M,12.7,M,0.0,0000*6D
$GPGSA,A,3,20,11,16,23,01,13,25,,,,,,2.0,1.1,1.7*36
$GPGSV,2,1,08,20,84,326,35,23,55,219,44,16,43,074,45,01,28,104,40*7E
$GPGSV,2,2,08,25,28,132,33,13,25,247,41,11,14,333,36,04,09,223,00*70
$GPRMC,080544.486,A,3526.8557,S,14905.2664,E,0.00,0.00,121104,,*1C
$GPGGA,080545.486,3526.8558,S,14905.2665,E,1,07,1.1,611.8,M,12.7,M,0.0,0000*68
$GPGSA,A,3,20,11,16,23,01,13,25,,,,,,2.0,1.1,1.7*36
$GPGSV,2,1,08,20,84,326,34,23,55,219,43,16,43,074,45,01,28,104,40*78
$GPGSV,2,2,08,25,28,132,32,13,25,247,41,11,14,333,36,04,09,223,00*71
$GPRMC,080545.486,A,3526.8558,S,14905.2665,E,0.00,0.00,121104,,*13
$GPGGA,080546.486,3526.8559,S,14905.2665,E,1,07,1.1,611.6,M,12.7,M,0.0,0000*64
$GPGSA,A,3,20,11,16,23,01,13,25,,,,,,2.0,1.1,1.7*36
$GPGSV,2,1,08,20,84,326,34,23,55,219,43,16,43,074,45,01,28,104,39*76
$GPGSV,2,2,08,25,28,132,32,13,25,247,41,11,14,333,36,04,09,223,00*71
$GPRMC,080546.486,A,3526.8559,S,14905.2665,E,0.00,0.00,121104,,*11
$GPGGA,080547.486,3526.8560,S,14905.2665,E,1,07,1.1,611.3,M,12.7,M,0.0,0000*6A
$GPGSA,A,3,20,11,16,23,01,13,25,,,,,,2.0,1.1,1.7*36
$GPGSV,2,1,08,20,84,326,34,23,55,219,44,16,43,074,44,01,28,104,39*70
$GPGSV,2,2,08,25,28,132,32,13,25,247,40,11,14,333,36,04,09,223,00*70
$GPRMC,080547.486,A,3526.8560,S,14905.2665,E,0.00,0.00,121104,,*1A
$GPGGA,080548.486,3526.8560,S,14905.2665,E,1,07,1.1,610.9,M,12.7,M,0.0,0000*6E
$GPGSA,A,3,20,11,16,23,01,13,25,,,,,,2.0,1.1,1.7*36
$GPGSV,2,1,08,20,84,326,34,23,55,219,43,16,43,074,45,01,28,104,40*78
$GPGSV,2,2,08,25,28,132,33,13,25,247,41,11,14,333,36,04,09,223,00*70
$GPRMC,080548.486,A,3526.8560,S,14905.2665,E,0.00,0.00,121104,,*15
$GPGGA,080549.486,3526.8560,S,14905.2665,E,1,07,1.1,610.6,M,12.7,M,0.0,0000*60
$GPGSA,A,3,20,11,16,23,01,13,25,,,,,,2.0,1.1,1.7*36
$GPGSV,2,1,08,20,84,326,34,23,55,219,42,16,43,074,45,01,28,104,40*79
$GPGSV,2,2,08,25,28,132,33,13,25,247,41,11,14,333,36,04,09,223,00*70
$GPRMC,080549.486,A,3526.8560,S,14905.2665,E,0.00,0.00,121104,,*14
$GPGGA,080550.486,3526.8560,S,14905.2665,E,1,07,1.1,610.7,M,12.7,M,0.0,0000*69
$GPGSA,A,3,20,11,16,23,01,13,25,,,,,,2.0,1.1,1.7*36
$GPGSV,2,1,08,20,84,326,34,23,55,219,43,16,43,074,46,01,28,104,40*7B
$GPGSV,2,2,08,25,28,132,33,13,25,247,41,11,14,333,36,04,09,223,00*70
$GPRMC,080550.486,A,3526.8560,S,14905.2665,E,0.00,0.00,121104,,*1C
$GPGGA,080551.486,3526.8560,S,14905.2665,E,1,07,1.1,610.9,M,12.7,M,0.0,0000*66
$GPGSA,A,3,20,11,16,23,01,13,25,,,,,,2.0,1.1,1.7*36
$GPGSV,2,1,08,20,84,326,35,23,55,219,43,16,43,074,46,01,28,104,40*7A
$GPGSV,2,2,08,25,28,132,33,13,25,247,41,11,14,333,37,04,09,223,00*71
$GPRMC,080551.486,A,3526.8560,S,14905.2665,E,0.00,0.00,121104,,*1D
$GPGGA,080552.486,3526.8559,S,14905.2665,E,1,07,1.1,611.3,M,12.7,M,0.0,0000*64
$GPGSA,A,3,20,11,16,23,01,13,25,,,,,,2.0,1.1,1.7*36
$GPGSV,2,1,08,20,84,326,35,23,55,219,43,16,43,074,45,01,28,104,39*77
$GPGSV,2,2,08,25,28,132,32,13,25,247,41,11,14,333,36,04,09,223,00*71
$GPRMC,080552.486,A,3526.8559,S,14905.2665,E,0.00,0.00,121104,,*14
$GPGGA,080553.486,3526.8559,S,14905.2664,E,1,07,1.1,611.8,M,12.7,M,0.0,0000*6F
$GPGSA,A,3,20,11,16,23,01,13,25,,,,,,2.0,1.1,1.7*36
$GPGSV,2,1,08,20,84,326,35,23,55,219,43,16,43,074,45,01,28,104,39*77
$GPGSV,2,2,08,25,28,132,33,13,25,247,41,11,14,333,36,04,09,223,00*70
$GPRMC,080553.486,A,3526.8559,S,14905.2664,E,0.00,0.00,121104,,*14
$GPGGA,080554.486,3526.8558,S,14905.2664,E,1,07,1.1,612.6,M,12.7,M,0.0,0000*64
$GPGSA,A,3,20,11,16,23,01,13,25,,,,,,2.0,1.1,1.7*36
$GPGSV,2,1,08,20,84,326,34,23,55,219,43,16,43,074,45,01,28,104,40*78
$GPGSV,2,2,08,25,28,132,33,13,25,247,41,11,14,333,36,04,09,223,00*70
$GPRMC,080554.486,A,3526.8558,S,14905.2664,E,0.00,0.00,121104,,*12
$GPGGA,080555.486,3526.8556,S,14905.2664,E,1,07,1.1,613.4,M,12.7,M,0.0,0000*68
$GPGSA,A,3,20,11,16,23,01,13,25,,,,,,2.0,1.1,1.7*36
$GPGSV,2,1,08,20,84,326,33,23,55,219,43,16,43,074,45,01,28,104,40*7F
$GPGSV,2,2,08,25,28,132,33,13,25,247,41,11,14,333,36,04,09,223,00*70
$GPRMC,080555.486,A,3526.8556,S,14905.2664,E,0.00,0.00,121104,,*1D
$GPGGA,080556.485,3526.8555,S,14905.2663,E,1,07,1.1,614.3,M,12.7,M,0.0,0000*6C
$GPGSA,A,3,20,11,16,23,01,13,25,,,,,,2.0,1.1,1.7*36
$GPGSV,2,1,08,20,84,326,34,23,55,219,43,16,43,074,45,01,28,104,39*76
$GPGSV,2,2,08,25,28,132,33,13,25,247,41,11,14,333,36,04,09,223,00*70
$GPRMC,080556.485,A,3526.8555,S,14905.2663,E,0.00,0.00,121104,,*19
$GPGGA,080557.485,3526.8554,S,14905.2663,E,1,07,1.1,615.1,M,12.7,M,0.0,0000*6F
$GPGSA,A,3,20,11,16,23,01,13,25,,,,,,2.0,1.1,1.7*36
$GPGSV,2,1,08,20,84,326,34,23,55,219,44,16,43,074,44,01,28,104,39*70
$GPGSV,2,2,08,25,28,132,33,13,25,247,41,11,14,333,36,04,09,223,00*70
$GPRMC,080557.485,A,3526.8554,S,14905.2663,E,0.00,0.00,121104,,*19
$GPGGA,080558.485,3526.8553,S,14905.2663,E,1,07,1.1,615.6,M,12.7,M,0.0,0000*60
$GPGSA,A,3,20,11,16,23,01,13,25,,,,,,2.0,1.1,1.7*36
$GPGSV,2,1,08,20,84,326,34,23,55,219,44,16,43,074,44,01,28,104,39*70
$GPGSV,2,2,08,25,28,132,33,13,25,247,41,11,14,333,37,04,09,223,00*71
$GPRMC,080558.485,A,3526.8553,S,14905.2663,E,0.00,0.00,121104,,*11
$GPGGA,080559.485,3526.8552,S,14905.2664,E,1,07,1.1,615.9,M,12.7,M,0.0,0000*68
$GPGSA,A,3,20,11,16,23,01,13,25,,,,,,2.0,1.1,1.7*36
$GPGSV,2,1,08,20,84,326,33,23,55,219,44,16,43,074,44,01,28,104,39*77
$GPGSV,2,2,08,25,28,132,32,13,25,247,40,11,14,333,37,04,09,223,00*71
$GPRMC,080559.485,A,3526.8552,S,14905.2664,E,0.00,0.00,121104,,*16
$GPGGA,080600.485,3526.8552,S,14905.2664,E,1,07,1.1,616.0,M,12.7,M,0.0,0000*6D
$GPGSA,A,3,20,11,16,23,01,13,25,,,,,,2.0,1.1,1.7*36
$GPGSV,2,1,08,20,84,326,34,23,55,219,45,16,43,074,45,01,28,104,39*70
$GPGSV,2,2,08,25,28,132,32,13,25,247,41,11,14,333,37,04,09,223,00*70
$GPRMC,080600.485,A,3526.8552,S,14905.2664,E,0.00,0.00,121104,,*19
$GPGGA,080601.485,3526.8551,S,14905.2665,E,1,07,1.1,615.9,M,12.7,M,0.0,0000*64
$GPGSA,A,3,20,11,16,23,01,13,25,,,,,,2.0,1.1,1.7*36
$GPGSV,2,1,08,20,84,326,35,23,55,219,44,16,43,074,45,01,28,104,38*71
$GPGSV,2,2,08,25,28,132,32,13,25,247,40,11,14,333,36,04,09,223,00*70
$GPRMC,080601.485,A,3526.8551,S,14905.2665,E,0.00,0.00,121104,,*1A
$GPGGA,080602.485,3526.8551,S,14905.2666,E,1,07,1.1,615.8,M,12.7,M,0.0,0000*65
$GPGSA,A,3,20,11,16,23,01,13,25,,,,,,2.0,1.1,1.7*36
$GPGSV,2,1,08,20,84,326,32,23,55,219,44,16,43,074,45,01,28,104,38*76
$GPGSV,2,2,08,25,28,132,33,13,25,247,40,11,14,333,36,04,09,223,00*71
$GPRMC,080602.485,A,3526.8551,S,14905.2666,E,0.00,0.00,121104,,*1A
$GPGGA,080603.485,3526.8551,S,14905.2667,E,1,07,1.1,615.4,M,12.7,M,0.0,0000*69
$GPGSA,A,3,20,11,16,23,01,13,25,,,,,,2.0,1.1,1.7*36
$GPGSV,2,1,08,20,84,326,33,23,55,219,43,16,43,074,45,01,28,104,39*71
$GPGSV,2,2,08,25,28,132,32,13,25,247,40,11,14,333,36,04,09,223,00*70
$GPRMC,080603.485,A,3526.8551,S,14905.2667,E,0.00,0.00,121104,,*1A
$GPGGA,080604.485,3526.8551,S,14905.2667,E,1,07,1.1,614.9,M,12.7,M,0.0,0000*62
$GPGSA,A,3,20,11,16,23,01,13,25,,,,,,2.0,1.1,1.7*36
$GPGSV,2,1,08,20,84,326,34,23,55,219,43,16,43,074,45,01,28,104,39*76
$GPGSV,2,2,08,25,28,132,32,13,25,247,40,11,14,333,36,04,09,223,00*70
$GPRMC,080604.485,A,3526.8551,S,14905.2667,E,0.00,0.00,121104,,*1D
$GPGGA,080605.485,3526.8552,S,14905.2668,E,1,07,1.1,614.3,M,12.7,M,0.0,0000*65
$GPGSA,A,3,20,11,16,23,01,13,25,,,,,,2.0,1.1,1.7*36
$GPGSV,2,1,08,20,84,326,34,23,55,219,43,16,43,074,44,01,28,104,39*77
$GPGSV,2,2,08,25,28,132,32,13,25,247,40,11,14,333,36,04,09,223,00*70
$GPRMC,080605.485,A,3526.8552,S,14905.2668,E,0.00,0.00,121104,,*10
$GPGGA,080606.485,3526.8552,S,14905.2669,E,1,07,1.1,613.9,M,12.7,M,0.0,0000*6A
$GPGSA,A,3,20,11,16,23,01,13,25,,,,,,2.0,1.1,1.7*36
$GPGSV,2,1,08,20,84,326,33,23,55,219,42,16,43,074,45,01,28,104,39*70
$GPGSV,2,2,08,25,28,132,31,13,25,247,40,11,14,333,36,04,09,223,00*73
$GPRMC,080606.485,A,3526.8552,S,14905.2669,E,0.00,0.00,121104,,*12
$GPGGA,080607.485,3526.8552,S,14905.2668,E,1,07,1.1,613.8,M,12.7,M,0.0,0000*6B
$GPGSA,A,3,20,11,16,23,01,13,25,,,,,,2.0,1.1,1.7*36
$GPGSV,2,1,08,20,84,326,34,23,55,219,42,16,43,074,45,01,28,104,39*77
$GPGSV,2,2,08,25,28,132,32,13,25,247,40,11,14,333,37,04,09,223,00*71
$GPRMC,080607.485,A,3526.8552,S,14905.2668,E,0.00,0.00,121104,,*12
$GPGGA,080608.485,3526.8553,S,14905.2668,E,1,07,1.1,613.9,M,12.7,M,0.0,0000*64
$GPGSA,A,3,20,11,16,23,01,13,25,,,,,,2.0,1.1,1.7*36
$GPGSV,2,1,08,20,84,326,34,23,55,219,43,16,43,074,45,01,28,104,39*76
$GPGSV,2,2,08,25,28,132,31,13,25,247,40,11,14,333,36,04,09,223,00*73
$GPRMC,080608.485,A,3526.8553,S,14905.2668,E,0.00,0.00,121104,,*1C
$GPGGA,080609.485,3526.8553,S,14905.2667,E,1,07,1.1,614.0,M,12.7,M,0.0,0000*64
$GPGSA,A,3,20,11,16,23,01,13,25,,,,,,2.0,1.1,1.7*36
$GPGSV,2,1,08,20,84,326,33,23,55,219,44,16,43,074,45,01,28,104,38*77
$GPGSV,2,2,08,25,28,132,32,13,25,247,40,11,14,333,36,04,09,223,00*70
$GPRMC,080609.485,A,3526.8553,S,14905.2667,E,0.00,0.00,121104,,*12
$GPGGA,080610.485,3526.8554,S,14905.2667,E,1,07,1.1,613.9,M,12.7,M,0.0,0000*65
$GPGSA,A,3,20,11,16,23,01,13,25,,,,,,2.0,1.1,1.7*36
$GPGSV,2,1,08,20,84,326,34,23,55,219,44,16,43,074,45,01,28,104,38*70
$GPGSV,2,2,08,25,28,132,33,13,25,247,39,11,14,333,36,04,09,223,00*7F
$GPRMC,080610.485,A,3526.8554,S,14905.2667,E,0.00,0.00,121104,,*1D
$GPGGA,080611.484,3526.8555,S,14905.2667,E,1,07,1.1,613.7,M,12.7,M,0.0,0000*6A
$GPGSA,A,3,20,11,16,23,01,13,25,,,,,,2.0,1.1,1.7*36
$GPGSV,2,1,08,20,84,326,32,23,55,219,45,16,43,074,44,01,28,104,39*77
$GPGSV,2,2,08,25,28,132,34,13,25,247,40,11,14,333,37,04,09,223,00*77
$GPRMC,080611.484,A,3526.8555,S,14905.2667,E,0.00,0.00,121104,,*1C
$GPGGA,080612.484,3526.8555,S,14905.2667,E,1,07,1.1,613.6,M,12.7,M,0.0,0000*68
$GPGSA,A,3,20,11,16,23,01,13,25,,,,,,2.0,1.1,1.7*36
$GPGSV,2,1,08,20,84,326,30,23,55,219,45,16,43,074,42,01,28,104,39*73
$GPGSV,2,2,08,25,28,132,33,13,25,247,40,11,14,333,36,04,09,223,00*71
$GPRMC,080612.484,A,3526.8555,S,14905.2667,E,0.00,0.00,121104,,*1F
$GPGGA,080613.484,3526.8555,S,14905.2667,E,1,07,1.1,613.7,M,12.7,M,0.0,0000*68
$GPGSA,A,3,20,11,16,23,01,13,25,,,,,,2.0,1.1,1.7*36
$GPGSV,2,1,08,20,84,326,31,23,55,219,46,16,43,074,42,01,28,104,39*71
$GPGSV,2,2,08,25,28,132,31,13,25,247,39,11,14,333,38,04,09,223,00*73
$GPRMC,080613.484,A,3526.8555,S,14905.2667,E,0.00,0.00,121104,,*1E
$GPGGA,080614.484,3526.8555,S,14905.2667,E,1,07,1.1,613.4,M,12.7,M,0.0,0000*6C
$GPGSA,A,3,20,11,16,23,01,13,25,,,,,,2.0,1.1,1.6*37
$GPGSV,2,1,08,20,84,326,32,23,55,219,46,16,43,074,41,01,28,104,39*71
$GPGSV,2,2,08,25,28,132,30,13,25,247,39,11,14,333,37,04,09,223,00*7D
$GPRMC,080614.484,A,3526.8555,S,14905.2667,E,0.00,0.00,121104,,*19
$GPGGA,080615.484,3526.8555,S,14905.2667,E,1,07,1.1,613.3,M,12.7,M,0.0,0000*6A
$GPGSA,A,3,20,11,16,23,01,13,25,,,,,,2.0,1.1,1.6*37
$GPGSV,2,1,08,20,84,326,29,23,55,219,45,16,43,074,42,01,28,104,39*7B
$GPGSV,2,2,08,25,28,132,31,13,25,247,40,11,14,333,35,04,09,223,00*70
$GPRMC,080615.484,A,3526.8555,S,14905.2667,E,0.00,0.00,121104,,*18
$GPGGA,080616.484,3526.8555,S,14905.2666,E,1,07,1.1,613.0,M,12.7,M,0.0,0000*6B
$GPGSA,A,3,20,11,16,23,01,13,25,,,,,,2.0,1.1,1.6*37
$GPGSV,2,1,08,20,84,326,27,23,55,219,44,16,43,074,43,01,28,104,39*75
$GPGSV,2,2,08,25,28,132,33,13,25,247,39,11,14,333,33,04,09,223,00*7A
$GPRMC,080616.484,A,3526.8555,S,14905.2666,E,0.00,0.00,121104,,*1A
$GPGGA,080617.484,3526.8555,S,14905.2665,E,1,06,1.1,612.6,M,12.7,M,0.0,0000*6F
$GPGSA,A,3,11,16,23,01,13,25,,,,,,,2.8,1.1,2.6*3E
$GPGSV,2,1,08,20,84,326,00,23,55,219,45,16,43,074,43,01,28,104,39*71
$GPGSV,2,2,08,25,28,132,32,13,25,247,38,11,14,333,33,04,09,223,00*7A
$GPRMC,080617.484,A,3526.8555,S,14905.2665,E,0.00,0.00,121104,,*18
$GPGGA,080618.484,3526.8554,S,14905.2664,E,1,06,1.1,612.3,M,12.7,M,0.0,0000*65
$GPGSA,A,3,11,16,23,01,13,25,,,,,,,2.8,1.1,2.6*3E
$GPGSV,2,1,08,20,84,328,00,23,55,218,44,16,43,075,43,01,28,104,39*7E
$GPGSV,2,2,08,25,28,132,33,13,25,246,38,11,14,334,37,04,09,223,00*79
$GPRMC,080618.484,A,3526.8554,S,14905.2664,E,0.00,0.00,121104,,*17
$GPGGA,080619.484,3526.8554,S,14905.2663,E,1,07,1.1,612.1,M,12.7,M,0.0,0000*60
$GPGSA,A,3,20,11,16,23,01,13,25,,,,,,2.0,1.1,1.6*37
$GPGSV,2,1,08,20,84,328,25,23,55,218,44,16,43,075,43,01,28,104,39*79
$GPGSV,2,2,08,25,28,132,31,13,25,246,39,11,14,334,36,04,09,223,00*7B
$GPRMC,080619.484,A,3526.8554,S,14905.2663,E,0.00,0.00,121104,,*11
$GPGGA,080620.484,3526.8553,S,14905.2662,E,1,07,1.1,612.2,M,12.7,M,0.0,0000*6F
$GPGSA,A,3,20,11,16,23,01,13,25,,,,,,2.0,1.1,1.6*37
$GPGSV,2,1,08,20,84,328,27,23,55,218,44,16,43,075,43,01,28,104,38*7A
$GPGSV,2,2,08,25,28,132,32,13,25,246,39,11,14,334,33,04,09,223,00*7D
$GPRMC,080620.484,A,3526.8553,S,14905.2662,E,0.00,0.00,121104,,*1D
$GPGGA,080621.484,3526.8552,S,14905.2661,E,1,07,1.1,612.0,M,12.7,M,0.0,0000*6E
$GPGSA,A,3,20,11,16,23,01,13,25,,,,,,2.0,1.1,1.6*37
$GPGSV,2,1,08,20,84,328,25,23,55,218,44,16,43,075,43,01,28,104,38*78
$GPGSV,2,2,08,25,28,132,31,13,25,246,39,11,14,334,32,04,09,223,00*7F
$GPRMC,080621.484,A,3526.8552,S,14905.2661,E,0.00,0.00,121104,,*1E
$GPGGA,080622.484,3526.8552,S,14905.2661,E,1,06,1.1,611.6,M,12.7,M,0.0,0000*69
$GPGSA,A,3,11,16,23,01,13,25,,,,,,,2.8,1.1,2.6*3E
$GPGSV,2,1,08,20,84,328,25,23,55,218,44,16,43,075,44,01,28,104,39*7E
$GPGSV,2,2,08,25,28,132,32,13,25,246,39,11,14,334,33,04,09,223,00*7D
$GPRMC,080622.484,A,3526.8552,S,14905.2661,E,0.00,0.00,121104,,*1D
$GPGGA,080623.484,3526.8551,S,14905.2661,E,1,06,1.1,611.3,M,12.7,M,0.0,0000*6E
$GPGSA,A,3,11,16,23,01,13,25,,,,,,,2.8,1.1,2.6*3E
$GPGSV,2,1,08,20,84,328,25,23,55,218,44,16,43,075,44,01,28,104,40*70
$GPGSV,2,2,08,25,28,132,32,13,25,246,40,11,14,334,34,04,09,223,00*74
$GPRMC,080623.484,A,3526.8551,S,14905.2661,E,0.00,0.00,121104,,*1F
$GPGGA,080624.484,3526.8551,S,14905.2661,E,1,06,1.1,611.1,M,12.7,M,0.0,0000*6B
$GPGSA,A,3,11,16,23,01,13,25,,,,,,,2.8,1.1,2.6*3E
$GPGSV,2,1,08,20,84,328,25,23,55,218,44,16,43,075,44,01,28,104,39*7E
$GPGSV,2,2,08,25,28,132,32,13,25,246,39,11,14,334,33,04,09,223,00*7D
$GPRMC,080624.484,A,3526.8551,S,14905.2661,E,0.00,0.00,121104,,*18
$GPGGA,080625.484,3526.8550,S,14905.2660,E,1,06,1.1,611.0,M,12.7,M,0.0,0000*6B
$GPGSA,A,3,11,16,23,01,13,25,,,,,,,2.8,1.1,2.6*3E
$GPGSV,2,1,08,20,84,328,25,23,55,218,44,16,43,075,44,01,28,104,38*7F
$GPGSV,2,2,08,25,28,132,32,13,25,246,37,11,14,334,36,04,09,223,00*76
$GPRMC,080625.484,A,3526.8550,S,14905.2660,E,0.00,0.00,121104,,*19
$GPGGA,080626.484,3526.8550,S,14905.2660,E,1,06,1.1,611.0,M,12.7,M,0.0,0000*68
$GPGSA,A,3,11,16,23,01,13,25,,,,,,,2.8,1.1,2.6*3E
$GPGSV,2,1,08,20,84,328,25,23,55,218,43,16,43,075,43,01,28,104,39*7E
$GPGSV,2,2,08,25,28,132,33,13,25,246,38,11,14,334,37,04,09,223,00*79
$GPRMC,080626.484,A,3526.8550,S,14905.2660,E,0.00,0.00,121104,,*1A
$GPGGA,080627.483,3526.8550,S,14905.2660,E,1,06,1.1,611.1,M,12.7,M,0.0,0000*6F
$GPGSA,A,3,11,16,23,01,13,25,,,,,,,2.8,1.1,2.6*3E
$GPGSV,2,1,08,20,84,328,25,23,55,218,42,16,43,075,43,01,28,104,38*7E
$GPGSV,2,2,08,25,28,132,34,13,25,246,38,11,14,334,36,04,09,223,00*7F
$GPRMC,080627.483,A,3526.8550,S,14905.2660,E,0.00,0.00,121104,,*1C
$GPGGA,080628.483,3526.8551,S,14905.2661,E,1,06,1.1,611.2,M,12.7,M,0.0,0000*63
$GPGSA,A,3,11,16,23,01,13,25,,,,,,,2.8,1.1,2.6*3E
$GPGSV,2,1,08,20,84,328,25,23,55,218,43,16,43,075,43,01,28,104,37*70
$GPGSV,2,2,08,25,28,132,33,13,25,246,38,11,14,334,36,04,09,223,00*78
$GPRMC,080628.483,A,3526.8551,S,14905.2661,E,0.00,0.00,121104,,*13
$GPGGA,080629.483,3526.8551,S,14905.2662,E,1,06,1.1,611.1,M,12.7,M,0.0,0000*62
$GPGSA,A,3,11,16,23,01,13,25,,,,,,,2.8,1.1,2.6*3E
$GPGSV,2,1,08,20,84,328,00,23,55,218,44,16,43,075,44,01,28,104,38*78
$GPGSV,2,2,08,25,28,132,32,13,25,246,38,11,14,334,36,04,09,223,00*79
$GPRMC,080629.483,A,3526.8551,S,14905.2662,E,0.00,0.00,121104,,*11
$GPGGA,080630.483,3526.8551,S,14905.2662,E,1,06,1.1,611.2,M,12.7,M,0.0,0000*69
$GPGSA,A,3,11,16,23,01,13,25,,,,,,,2.8,1.1,2.6*3E
$GPGSV,2,1,08,20,84,328,00,23,55,218,45,16,43,075,43,01,28,104,38*7E
$GPGSV,2,2,08,25,28,132,31,13,25,246,38,11,14,334,34,04,09,223,00*78
$GPRMC,080630.483,A,3526.8551,S,14905.2662,E,0.00,0.00,121104,,*19
$GPGGA,080631.483,3526.8551,S,14905.2661,E,1,06,1.1,611.1,M,12.7,M,0.0,0000*68
$GPGSA,A,3,11,16,23,01,13,25,,,,,,,2.8,1.1,2.6*3E
$GPGSV,2,1,08,20,84,328,00,23,55,218,45,16,43,075,43,01,28,104,38*7E
$GPGSV,2,2,08,25,28,132,31,13,25,246,38,11,14,334,33,04,09,223,00*7F
$GPRMC,080631.483,A,3526.8551,S,14905.2661,E,0.00,0.00,121104,,*1B
$GPGGA,080632.483,3526.8551,S,14905.2661,E,1,06,1.1,611.1,M,12.7,M,0.0,0000*6B
$GPGSA,A,3,11,16,23,01,13,25,,,,,,,2.8,1.1,2.6*3E
$GPGSV,2,1,08,20,84,328,00,23,55,218,45,16,43,075,43,01,28,104,39*7F
$GPGSV,2,2,08,25,28,132,32,13,25,246,38,11,14,334,32,04,09,223,00*7D
$GPRMC,080632.483,A,3526.8551,S,14905.2661,E,0.00,0.00,121104,,*18
$GPGGA,080633.483,3526.8550,S,14905.2660,E,1,06,1.1,611.0,M,12.7,M,0.0,0000*6B
$GPGSA,A,3,11,16,23,01,13,25,,,,,,,2.8,1.1,2.6*3E
$GPGSV,2,1,08,20,84,328,00,23,55,218,45,16,43,075,43,01,28,104,39*7F
$GPGSV,2,2,08,25,28,132,32,13,25,246,39,11,14,334,33,04,09,223,00*7D
$GPRMC,080633.483,A,3526.8550,S,14905.2660,E,0.00,0.00,121104,,*19
$GPGGA,080634.483,3526.8550,S,14905.2660,E,1,06,1.1,610.9,M,12.7,M,0.0,0000*64
$GPGSA,A,3,11,16,23,01,13,25,,,,,,,2.8,1.1,2.5*3D
$GPGSV,2,1,08,20,84,328,00,23,55,218,45,16,43,075,44,01,28,104,39*78
$GPGSV,2,2,08,25,28,132,33,13,25,246,40,11,14,334,30,04,09,223,00*71
$GPRMC,080634.483,A,3526.8550,S,14905.2660,E,0.00,0.00,121104,,*1E
$GPGGA,080635.483,3526.8550,S,14905.2660,E,1,06,1.1,610.8,M,12.7,M,0.0,0000*64
$GPGSA,A,3,11,16,23,01,13,25,,,,,,,2.8,1.1,2.5*3D
$GPGSV,2,1,08,20,84,328,00,23,55,218,45,16,43,075,44,01,28,104,40*76
$GPGSV,2,2,08,25,28,132,32,13,25,246,41,11,14,334,31,04,09,223,00*70
$GPRMC,080635.483,A,3526.8550,S,14905.2660,E,0.00,0.00,121104,,*1F
$GPGGA,080636.483,3526.8550,S,14905.2660,E,1,06,1.1,610.6,M,12.7,M,0.0,0000*69
$GPGSA,A,3,11,16,23,01,13,25,,,,,,,2.8,1.1,2.5*3D
$GPGSV,2,1,08,20,84,328,00,23,55,218,45,16,43,075,45,01,28,104,40*77
$GPGSV,2,2,08,25,28,132,31,13,25,246,41,11,14,334,31,04,09,223,00*73
$GPRMC,080636.483,A,3526.8550,S,14905.2660,E,0.00,0.00,121104,,*1C
$GPGGA,080637.483,3526.8550,S,14905.2660,E,1,06,1.1,610.3,M,12.7,M,0.0,0000*6D
$GPGSA,A,3,11,16,23,01,13,25,,,,,,,2.8,1.1,2.5*3D
$GPGSV,2,1,08,20,84,328,00,23,55,218,45,16,43,075,44,01,28,104,39*78
$GPGSV,2,2,08,25,28,132,31,13,25,246,40,11,14,334,30,04,09,223,00*73
$GPRMC,080637.483,A,3526.8550,S,14905.2660,E,0.00,0.00,121104,,*1D
$GPGGA,080638.483,3526.8550,S,14905.2660,E,1,06,1.1,610.1,M,12.7,M,0.0,0000*60
$GPGSA,A,3,11,16,23,01,13,25,,,,,,,2.8,1.1,2.5*3D
$GPGSV,2,1,08,20,84,328,00,23,55,218,45,16,43,075,45,01,28,104,39*79
$GPGSV,2,2,08,25,28,132,32,13,25,246,40,11,14,334,28,04,09,223,00*79
$GPRMC,080638.483,A,3526.8550,S,14905.2660,E,0.00,0.00,121104,,*12
$GPGGA,080639.483,3526.8551,S,14905.2660,E,1,06,1.1,609.7,M,12.7,M,0.0,0000*6E
$GPGSA,A,3,11,16,23,01,13,25,,,,,,,2.8,1.1,2.5*3D
$GPGSV,2,1,08,20,84,328,00,23,55,218,45,16,43,075,45,01,28,104,39*79
$GPGSV,2,2,08,25,28,132,32,13,25,246,41,11,14,334,29,04,09,223,00*79
$GPRMC,080639.483,A,3526.8551,S,14905.2660,E,0.00,0.00,121104,,*12
$GPGGA,080640.483,3526.8551,S,14905.2660,E,1,06,1.1,609.4,M,12.7,M,0.0,0000*63
$GPGSA,A,3,11,16,23,01,13,25,,,,,,,2.8,1.1,2.5*3D
$GPGSV,2,1,08,20,84,328,00,23,55,218,45,16,43,075,45,01,28,104,39*79
$GPGSV,2,2,08,25,28,132,33,13,25,246,41,11,14,334,29,04,09,223,00*78
$GPRMC,080640.483,A,3526.8551,S,14905.2660,E,0.00,0.00,121104,,*1C
$GPGGA,080641.483,3526.8551,S,14905.2660,E,1,06,1.1,609.2,M,12.7,M,0.0,0000*64
$GPGSA,A,3,11,16,23,01,13,25,,,,,,,2.8,1.1,2.5*3D
$GPGSV,2,1,08,20,84,328,00,23,55,218,46,16,43,075,45,01,28,104,39*7A
$GPGSV,2,2,08,25,28,132,32,13,25,246,40,11,14,334,29,04,09,223,00*78
$GPRMC,080641.483,A,3526.8551,S,14905.2660,E,0.00,0.00,121104,,*1D
$GPGGA,080642.483,3526.8551,S,14905.2660,E,1,06,1.1,609.0,M,12.7,M,0.0,0000*65
$GPGSA,A,3,11,16,23,01,13,25,,,,,,,2.8,1.1,2.5*3D
$GPGSV,2,1,08,20,84,328,00,23,55,218,45,16,43,075,44,01,28,104,39*78
$GPGSV,2,2,08,25,28,132,32,13,25,246,40,11,14,334,30,04,09,223,00*70
$GPRMC,080642.483,A,3526.8551,S,14905.2660,E,0.00,0.00,121104,,*1E
$GPGGA,080643.482,3526.8552,S,14905.2661,E,1,06,1.1,608.9,M,12.7,M,0.0,0000*6F
$GPGSA,A,3,11,16,23,01,13,25,,,,,,,2.8,1.1,2.5*3D
$GPGSV,2,1,08,20,84,328,00,23,55,218,46,16,43,075,45,01,28,104,39*7A
$GPGSV,2,2,08,25,28,132,32,13,25,246,40,11,14,334,32,04,09,223,00*72
$GPRMC,080643.482,A,3526.8552,S,14905.2661,E,0.00,0.00,121104,,*1C
$GPGGA,080644.482,3526.8553,S,14905.2662,E,1,06,1.1,608.9,M,12.7,M,0.0,0000*6A
$GPGSA,A,3,11,16,23,01,13,25,,,,,,,2.8,1.1,2.5*3D
$GPGSV,2,1,08,20,84,328,00,23,55,218,46,16,43,075,45,01,28,104,39*7A
$GPGSV,2,2,08,25,28,132,32,13,25,246,41,11,14,334,33,04,09,223,00*72
$GPRMC,080644.482,A,3526.8553,S,14905.2662,E,0.00,0.00,121104,,*19
$GPGGA,080645.482,3526.8554,S,14905.2662,E,1,06,1.1,608.8,M,12.7,M,0.0,0000*6D
$GPGSA,A,3,11,16,23,01,13,25,,,,,,,2.8,1.1,2.5*3D
$GPGSV,2,1,08,20,84,328,00,23,55,218,45,16,43,075,44,01,28,104,39*78
$GPGSV,2,2,08,25,28,132,31,13,25,246,40,11,14,334,32,04,09,223,00*71
$GPRMC,080645.482,A,3526.8554,S,14905.2662,E,0.00,0.00,121104,,*1F
$GPGGA,080646.482,3526.8555,S,14905.2663,E,1,06,1.1,608.6,M,12.7,M,0.0,0000*60
$GPGSA,A,3,11,16,23,01,13,25,,,,,,,2.8,1.1,2.5*3D
$GPGSV,2,1,08,20,84,328,00,23,55,218,45,16,43,075,44,01,28,104,40*76
$GPGSV,2,2,08,25,28,132,32,13,25,246,40,11,14,334,32,04,09,223,00*72
$GPRMC,080646.482,A,3526.8555,S,14905.2663,E,0.00,0.00,121104,,*1C
$GPGGA,080647.482,3526.8555,S,14905.2663,E,1,06,1.1,608.5,M,12.7,M,0.0,0000*62
$GPGSA,A,3,11,16,23,01,13,25,,,,,,,2.8,1.1,2.5*3D
$GPGSV,2,1,08,20,84,328,00,23,55,218,45,16,43,075,44,01,28,104,39*78
$GPGSV,2,2,08,25,28,132,32,13,25,246,41,11,14,334,31,04,09,223,00*70
$GPRMC,080647.482,A,3526.8555,S,14905.2663,E,0.00,0.00,121104,,*1D
$GPGGA,080648.482,3526.8556,S,14905.2663,E,1,06,1.1,608.4,M,12.7,M,0.0,0000*6F
$GPGSA,A,3,11,16,23,01,13,25,,,,,,,2.8,1.1,2.5*3D
$GPGSV,2,1,08,20,83,330,00,23,55,218,45,16,43,075,44,01,28,103,39*71
$GPGSV,2,2,08,25,28,132,33,13,25,246,41,11,13,334,33,04,10,223,00*7C
$GPRMC,080648.482,A,3526.8556,S,14905.2663,E,0.00,0.00,121104,,*11
$GPGGA,080649.482,3526.8557,S,14905.2663,E,1,06,1.1,608.3,M,12.7,M,0.0,0000*68
$GPGSA,A,3,11,16,23,01,13,25,,,,,,,2.8,1.1,2.5*3D
$GPGSV,2,1,08,20,83,330,00,23,55,218,45,16,43,075,44,01,28,103,40*7F
$GPGSV,2,2,08,25,28,132,33,13,25,246,40,11,13,334,30,04,10,223,00*7E
$GPRMC,080649.482,A,3526.8557,S,14905.2663,E,0.00,0.00,121104,,*11
$GPGGA,080650.482,3526.8557,S,14905.2663,E,1,06,1.1,608.3,M,12.7,M,0.0,0000*60
$GPGSA,A,3,11,16,23,01,13,25,,,,,,,2.8,1.1,2.5*3D
$GPGSV,2,1,08,20,83,330,00,23,55,218,46,16,43,075,44,01,28,103,38*73
$GPGSV,2,2,08,25,28,132,33,13,25,246,40,11,13,334,31,04,10,223,00*7F
$GPRMC,080650.482,A,3526.8557,S,14905.2663,E,0.00,0.00,121104,,*19
$GPGGA,080651.482,3526.8557,S,14905.2663,E,1,06,1.1,608.4,M,12.7,M,0.0,0000*66
$GPGSA,A,3,11,16,23,01,13,25,,,,,,,2.8,1.1,2.5*3D
$GPGSV,2,1,08,20,83,330,00,23,55,218,45,16,43,075,44,01,28,103,38*70
$GPGSV,2,2,08,25,28,132,33,13,25,246,40,11,13,334,32,04,10,223,00*7C
$GPRMC,080651.482,A,3526.8557,S,14905.2663,E,0.00,0.00,121104,,*18
$GPGGA,080652.482,3526.8557,S,14905.2662,E,1,06,1.1,608.5,M,12.7,M,0.0,0000*65
$GPGSA,A,3,11,16,23,01,13,25,,,,,,,2.8,1.1,2.5*3D
$GPGSV,2,1,08,20,83,330,00,23,55,218,44,16,43,075,44,01,28,103,37*7E
$GPGSV,2,2,08,25,28,132,33,13,25,246,40,11,13,334,32,04,10,223,00*7C
$GPRMC,080652.482,A,3526.8557,S,14905.2662,E,0.00,0.00,121104,,*1A
$GPGGA,080653.482,3526.8557,S,14905.2662,E,1,06,1.1,608.5,M,12.7,M,0.0,0000*64
$GPGSA,A,3,11,16,23,01,13,25,,,,,,,2.8,1.1,2.5*3D
$GPGSV,2,1,08,20,83,330,31,23,55,218,44,16,43,075,44,01,28,103,36*7D
$GPGSV,2,2,08,25,28,132,32,13,25,246,40,11,13,334,31,04,10,223,00*7E
$GPRMC,080653.482,A,3526.8557,S,14905.2662,E,0.00,0.00,121104,,*1B
$GPGGA,080654.482,3526.8557,S,14905.2662,E,1,07,1.1,608.9,M,12.7,M,0.0,0000*6E
$GPGSA,A,3,20,11,16,23,01,13,25,,,,,,2.0,1.1,1.6*37
$GPGSV,2,1,08,20,83,330,31,23,55,218,45,16,43,075,45,01,28,103,37*7C
$GPGSV,2,2,08,25,28,132,31,13,25,246,40,11,13,334,35,04,10,223,00*79
$GPRMC,080654.482,A,3526.8557,S,14905.2662,E,0.00,0.00,121104,,*1C
$GPGGA,080655.482,3526.8557,S,14905.2661,E,1,07,1.1,609.7,M,12.7,M,0.0,0000*63
$GPGSA,A,3,20,11,16,23,01,13,25,,,,,,2.0,1.1,1.6*37
$GPGSV,2,1,08,20,83,330,29,23,55,218,45,16,43,075,45,01,28,103,35*77
$GPGSV,2,2,08,25,28,132,31,13,25,246,41,11,13,334,34,04,10,223,00*79
$GPRMC,080655.482,A,3526.8557,S,14905.2661,E,0.00,0.00,121104,,*1E
$GPGGA,080656.482,3526.8557,S,14905.2660,E,1,07,1.1,611.1,M,12.7,M,0.0,0000*6E
$GPGSA,A,3,20,11,16,23,01,13,25,,,,,,2.0,1.1,1.6*37
$GPGSV,2,1,08,20,83,330,27,23,55,218,44,16,43,075,45,01,28,103,36*7B
$GPGSV,2,2,08,25,28,132,27,13,25,246,40,11,13,334,33,04,10,223,00*78
$GPRMC,080656.482,A,3526.8557,S,14905.2660,E,0.00,0.00,121104,,*1C
$GPGGA,080657.482,3526.8556,S,14905.2660,E,1,07,1.1,612.5,M,12.7,M,0.0,0000*69
$GPGSA,A,3,20,11,16,23,01,13,25,,,,,,2.0,1.1,1.6*37
$GPGSV,2,1,08,20,83,330,27,23,55,218,44,16,43,075,44,01,28,103,37*7B
$GPGSV,2,2,08,25,28,132,30,13,25,246,40,11,13,334,33,04,10,223,00*7E
$GPRMC,080657.482,A,3526.8556,S,14905.2660,E,0.00,0.00,121104,,*1C
$GPGGA,080658.482,3526.8556,S,14905.2659,E,1,07,1.1,613.6,M,12.7,M,0.0,0000*6E
$GPGSA,A,3,20,11,16,23,01,13,25,,,,,,2.0,1.1,1.6*37
$GPGSV,2,1,08,20,83,330,28,23,55,218,44,16,43,075,44,01,28,103,37*74
$GPGSV,2,2,08,25,28,132,30,13,25,246,40,11,13,334,33,04,10,223,00*7E
$GPRMC,080658.482,A,3526.8556,S,14905.2659,E,0.00,0.00,121104,,*19
$GPGGA,080659.481,3526.8555,S,14905.2659,E,1,07,1.1,614.5,M,12.7,M,0.0,0000*6B
$GPGSA,A,3,20,11,16,23,01,13,25,,,,,,2.0,1.1,1.6*37
$GPGSV,2,1,08,20,83,330,28,23,55,218,45,16,43,075,42,01,28,103,36*72
$GPGSV,2,2,08,25,28,132,29,13,25,246,39,11,13,334,29,04,10,223,00*73
$GPRMC,080659.481,A,3526.8555,S,14905.2659,E,0.00,0.00,121104,,*18
$GPGGA,080700.481,3526.8554,S,14905.2659,E,1,07,1.1,615.4,M,12.7,M,0.0,0000*67
$GPGSA,A,3,20,11,16,23,01,13,25,,,,,,2.0,1.1,1.6*37
$GPGSV,2,1,08,20,83,330,27,23,55,218,46,16,43,075,41,01,28,103,35*7E
$GPGSV,2,2,08,25,28,132,29,13,25,246,39,11,13,334,32,04,10,223,00*79
$GPRMC,080700.481,A,3526.8554,S,14905.2659,E,0.00,0.00,121104,,*14
$GPGGA,080701.481,3526.8553,S,14905.2659,E,1,07,1.1,616.4,M,12.7,M,0.0,0000*62
$GPGSA,A,3,20,11,16,23,01,13,25,,,,,,2.0,1.1,1.6*37
$GPGSV,2,1,08,20,83,330,27,23,55,218,46,16,43,075,42,01,28,103,36*7E
$GPGSV,2,2,08,25,28,132,29,13,25,246,39,11,13,334,32,04,10,223,00*79
$GPRMC,080701.481,A,3526.8553,S,14905.2659,E,0.00,0.00,121104,,*12
$GPGGA,080702.481,3526.8552,S,14905.2660,E,1,07,1.1,617.4,M,12.7,M,0.0,0000*6B
$GPGSA,A,3,20,11,16,23,01,13,25,,,,,,2.0,1.1,1.6*37
$GPGSV,2,1,08,20,83,330,28,23,55,218,45,16,43,075,42,01,28,103,36*72
$GPGSV,2,2,08,25,28,132,29,13,25,246,39,11,13,334,34,04,10,223,00*7F
$GPRMC,080702.481,A,3526.8552,S,14905.2660,E,0.00,0.00,121104,,*1A
$GPGGA,080703.481,3526.8550,S,14905.2660,E,1,07,1.1,618.6,M,12.7,M,0.0,0000*65
$GPGSA,A,3,20,11,16,23,01,13,25,,,,,,2.0,1.1,1.6*37
$GPGSV,2,1,08,20,83,330,29,23,55,218,45,16,43,075,42,01,28,103,35*70
$GPGSV,2,2,08,25,28,132,30,13,25,246,40,11,13,334,34,04,10,223,00*79
$GPRMC,080703.481,A,3526.8550,S,14905.2660,E,0.00,0.00,121104,,*19
$GPGGA,080704.481,3526.8548,S,14905.2659,E,1,07,1.1,619.3,M,12.7,M,0.0,0000*65
$GPGSA,A,3,20,11,16,23,01,13,25,,,,,,2.0,1.1,1.6*37
$GPGSV,2,1,08,20,83,330,27,23,55,218,45,16,43,075,42,01,28,103,35*7E
$GPGSV,2,2,08,25,28,132,31,13,25,246,40,11,13,334,33,04,10,223,00*7F
$GPRMC,080704.481,A,3526.8548,S,14905.2659,E,0.00,0.00,121104,,*1D
$GPGGA,080705.481,3526.8546,S,14905.2659,E,1,07,1.1,619.5,M,12.7,M,0.0,0000*6C
$GPGSA,A,3,20,11,16,23,01,13,25,,,,,,2.0,1.1,1.6*37
$GPGSV,2,1,08,20,83,330,26,23,55,218,45,16,43,075,42,01,28,103,37*7D
$GPGSV,2,2,08,25,28,132,32,13,25,246,40,11,13,334,31,04,10,223,00*7E
$GPRMC,080705.481,A,3526.8546,S,14905.2659,E,0.00,0.00,121104,,*12
$GPGGA,080706.481,3526.8544,S,14905.2658,E,1,07,1.1,619.7,M,12.7,M,0.0,0000*6E
$GPGSA,A,3,20,11,16,23,01,13,25,,,,,,2.0,1.1,1.6*37
$GPGSV,2,1,08,20,83,330,27,23,55,218,45,16,43,075,42,01,28,103,36*7D
$GPGSV,2,2,08,25,28,132,31,13,25,246,39,11,13,334,32,04,10,223,00*70
$GPRMC,080706.481,A,3526.8544,S,14905.2658,E,0.00,0.00,121104,,*12
$GPGGA,080707.481,3526.8542,S,14905.2657,E,1,07,1.1,619.9,M,12.7,M,0.0,0000*68
$GPGSA,A,3,20,11,16,23,01,13,25,,,,,,2.0,1.1,1.6*37
$GPGSV,2,1,08,20,83,330,26,23,55,218,44,16,43,075,43,01,28,103,37*7D
$GPGSV,2,2,08,25,28,132,30,13,25,246,40,11,13,334,31,04,10,223,00*7C
$GPRMC,080707.481,A,3526.8542,S,14905.2657,E,0.00,0.00,121104,,*1A
$GPGGA,080708.481,3526.8540,S,14905.2656,E,1,06,1.1,619.9,M,12.7,M,0.0,0000*65
$GPGSA,A,3,11,16,23,01,13,25,,,,,,,2.8,1.1,2.5*3D
$GPGSV,2,1,08,20,83,330,26,23,55,218,43,16,43,075,43,01,28,103,37*7A
$GPGSV,2,2,08,25,28,132,30,13,25,246,40,11,13,334,30,04,10,223,00*7D
$GPRMC,080708.481,A,3526.8540,S,14905.2656,E,0.00,0.00,121104,,*16
$GPGGA,080709.481,3526.8538,S,14905.2656,E,1,06,1.1,619.5,M,12.7,M,0.0,0000*67
$GPGSA,A,3,11,16,23,01,13,25,,,,,,,2.8,1.1,2.5*3D
$GPGSV,2,1,08,20,83,330,26,23,55,218,42,16,43,075,43,01,28,103,36*7A
$GPGSV,2,2,08,25,28,132,31,13,25,246,41,11,13,334,32,04,10,223,00*7F
$GPRMC,080709.481,A,3526.8538,S,14905.2656,E,0.00,0.00,121104,,*18
$GPGGA,080710.481,3526.8537,S,14905.2656,E,1,06,1.1,619.0,M,12.7,M,0.0,0000*65
$GPGSA,A,3,11,16,23,01,13,25,,,,,,,2.8,1.1,2.5*3D
$GPGSV,2,1,08,20,83,330,26,23,55,218,43,16,43,075,43,01,28,103,37*7A
$GPGSV,2,2,08,25,28,132,31,13,25,246,41,11,13,334,32,04,10,223,00*7F
$GPRMC,080710.481,A,3526.8537,S,14905.2656,E,0.00,0.00,121104,,*1F
$GPGGA,080711.481,3526.8536,S,14905.2657,E,1,06,1.1,618.6,M,12.7,M,0.0,0000*63
$GPGSA,A,3,11,16,23,01,13,25,,,,,,,2.8,1.1,2.5*3D
$GPGSV,2,1,08,20,83,330,26,23,55,218,43,16,43,075,44,01,28,103,37*7D
$GPGSV,2,2,08,25,28,132,32,13,25,246,40,11,13,334,32,04,10,223,00*7D
$GPRMC,080711.481,A,3526.8536,S,14905.2657,E,0.00,0.00,121104,,*1E
$GPGGA,080712.481,3526.8535,S,14905.2656,E,1,06,1.1,618.3,M,12.7,M,0.0,0000*67
$GPGSA,A,3,11,16,23,01,13,25,,,,,,,2.8,1.1,2.5*3D
$GPGSV,2,1,08,20,83,330,26,23,55,218,44,16,43,075,44,01,28,103,36*7B
$GPGSV,2,2,08,25,28,132,31,13,25,246,40,11,13,334,32,04,10,223,00*7E
$GPRMC,080712.481,A,3526.8535,S,14905.2656,E,0.00,0.00,121104,,*1F
