$GPGSA,A,1,,,,,,,,,,,,,50.0,50.0,50.0*05
$GPGSV,3,1,12,25,90,000,43,26,73,000,00,28,67,000,00,30,67,000,00*78
$GPGSV,3,2,12,07,36,000,00,01,27,000,25,06,25,000,00,24,15,000,00*79
$GPGSV,3,3,12,21,10,000,00,19,10,000,00,17,08,000,00,04,07,000,*7C
$GPRMC,041908.739,V,0000.0000,N,00000.0000,E,0.00,0.00,151102,,*1B
$GPGGA,041909.739,0000.0000,N,00000.0000,E,0,00,50.0,0.0,M,0.0,M,0.0,0000*7E
$GPGSA,A,1,,,,,,,,,,,,,50.0,50.0,50.0*05
$GPGSV,3,1,12,25,90,000,43,26,73,000,00,28,67,000,00,30,67,000,00*78
$GPGSV,3,2,12,07,36,000,00,01,27,000,26,06,25,000,00,24,15,000,00*7A
$GPGSV,3,3,12,21,10,000,00,19,10,000,00,17,08,000,00,04,07,000,*7C
$GPRMC,041909.739,V,0000.0000,N,00000.0000,E,0.00,0.00,151102,,*1A
$GPGGA,041910.739,0000.0000,N,00000.0000,E,0,00,50.0,0.0,M,0.0,M,0.0,0000*76
$GPGSA,A,1,,,,,,,,,,,,,50.0,50.0,50.0*05
$GPGSV,3,1,12,25,90,000,43,26,73,000,00,28,67,000,00,30,67,000,00*78
$GPGSV,3,2,12,07,36,000,00,01,27,000,23,06,25,000,00,24,15,000,00*7F
$GPGSV,3,3,12,21,10,000,00,19,10,000,00,17,08,000,00,04,07,000,*7C
$GPRMC,041910.739,V,0000.0000,N,00000.0000,E,0.00,0.00,151102,,*12
$GPGGA,041911.739,0000.0000,N,00000.0000,E,0,00,50.0,0.0,M,0.0,M,0.0,0000*77
$GPGSA,A,1,,,,,,,,,,,,,50.0,50.0,50.0*05
$GPGSV,3,1,12,25,90,000,43,26,73,000,00,28,67,000,00,30,67,000,00*78
$GPGSV,3,2,12,07,36,000,00,01,27,000,23,06,25,000,00,24,15,000,00*7F
$GPGSV,3,3,12,21,10,000,00,19,10,000,00,17,08,000,00,04,07,000,*7C
$GPRMC,041911.739,V,0000.0000,N,00000.0000,E,0.00,0.00,151102,,*13
$GPGGA,041912.739,0000.0000,N,00000.0000,E,0,00,50.0,0.0,M,0.0,M,0.0,0000*74
$GPGSA,A,1,,,,,,,,,,,,,50.0,50.0,50.0*05
$GPGSV,3,1,12,25,90,000,44,26,73,000,00,28,67,000,00,30,67,000,00*7F
$GPGSV,3,2,12,07,36,000,00,01,27,000,22,06,25,000,00,24,15,000,00*7E
$GPGSV,3,3,12,21,10,000,00,19,10,000,38,17,08,000,00,04,07,000,*77
$GPRMC,041912.739,V,0000.0000,N,00000.0000,E,0.00,0.00,151102,,*10
$GPGGA,041913.739,0000.0000,N,00000.0000,E,0,00,50.0,0.0,M,0.0,M,0.0,0000*75
$GPGSA,A,1,,,,,,,,,,,,,50.0,50.0,50.0*05
$GPGSV,3,1,12,25,90,000,43,26,73,000,00,28,67,000,00,30,67,000,00*78
$GPGSV,3,2,12,07,36,000,00,01,27,000,22,06,25,000,00,24,15,000,00*7E
$GPGSV,3,3,12,21,10,000,00,19,10,000,37,17,08,000,00,04,07,000,*78
$GPRMC,041913.739,V,0000.0000,N,00000.0000,E,0.00,0.00,151102,,*11
$GPGGA,041914.739,0000.0000,N,00000.0000,E,0,00,50.0,0.0,M,0.0,M,0.0,0000*72
$GPGSA,A,1,,,,,,,,,,,,,50.0,50.0,50.0*05
$GPGSV,3,1,12,25,90,000,43,26,73,000,00,28,67,000,00,30,67,000,00*78
$GPGSV,3,2,12,07,36,000,00,01,27,000,22,06,25,000,00,24,15,000,00*7E
$GPGSV,3,3,12,21,10,000,00,19,10,000,36,17,08,000,00,04,07,000,*79
$GPRMC,041914.739,V,0000.0000,N,00000.0000,E,0.00,0.00,151102,,*16
$GPGGA,041915.739,0000.0000,N,00000.0000,E,0,00,50.0,0.0,M,0.0,M,0.0,0000*73
$GPGSA,A,1,,,,,,,,,,,,,50.0,50.0,50.0*05
$GPGSV,3,1,12,25,90,000,43,26,73,000,00,28,67,000,00,30,67,000,00*78
$GPGSV,3,2,12,07,36,000,00,01,27,000,29,06,25,000,00,24,15,000,00*75
$GPGSV,3,3,12,21,10,000,00,19,10,000,36,17,08,000,00,04,07,000,*79
$GPRMC,041915.739,V,0000.0000,N,00000.0000,E,0.00,0.00,151102,,*17
$GPGGA,041916.739,0000.0000,N,00000.0000,E,0,00,50.0,0.0,M,0.0,M,0.0,0000*70
$GPGSA,A,1,,,,,,,,,,,,,50.0,50.0,50.0*05
$GPGSV,3,1,12,25,90,000,42,26,73,000,00,28,67,000,00,30,67,000,00*79
$GPGSV,3,2,12,07,36,000,00,01,27,000,29,06,25,000,00,24,15,000,00*75
$GPGSV,3,3,12,21,10,000,00,19,10,000,38,17,08,000,00,04,07,000,*77
$GPRMC,041916.739,V,0000.0000,N,00000.0000,E,0.00,0.00,151102,,*14
$GPGGA,041917.739,0000.0000,N,00000.0000,E,0,00,50.0,0.0,M,0.0,M,0.0,0000*71
$GPGSA,A,1,,,,,,,,,,,,,50.0,50.0,50.0*05
$GPGSV,3,1,12,25,90,000,42,26,73,000,00,28,67,000,00,30,67,000,00*79
$GPGSV,3,2,12,07,36,000,00,01,27,000,29,06,25,000,00,24,15,000,00*75
$GPGSV,3,3,12,21,10,000,00,19,10,000,36,17,08,000,00,04,07,000,*79
$GPRMC,041917.739,V,0000.0000,N,00000.0000,E,0.00,0.00,151102,,*15
$GPGGA,041918.739,0000.0000,N,00000.0000,E,0,00,50.0,0.0,M,0.0,M,0.0,0000*7E
$GPGSA,A,1,,,,,,,,,,,,,50.0,50.0,50.0*05
$GPGSV,3,1,12,25,90,000,43,26,73,000,00,28,67,000,00,30,67,000,00*78
$GPGSV,3,2,12,07,36,000,00,01,27,000,31,06,25,000,00,24,15,000,00*7C
$GPGSV,3,3,12,21,10,000,00,19,10,000,36,17,08,000,00,04,07,000,*79
$GPRMC,041918.739,V,0000.0000,N,00000.0000,E,0.00,0.00,151102,,*1A
$GPGGA,041919.739,0000.0000,N,00000.0000,E,0,00,50.0,0.0,M,0.0,M,0.0,0000*7F
$GPGSA,A,1,,,,,,,,,,,,,50.0,50.0,50.0*05
$GPGSV,3,1,12,25,90,000,41,26,73,000,00,28,67,000,00,30,67,000,00*7A
$GPGSV,3,2,12,07,36,000,00,01,27,000,31,06,25,000,00,24,15,000,00*7C
$GPGSV,3,3,12,21,10,000,00,19,10,000,39,17,08,000,00,04,07,000,*76
$GPRMC,041919.739,V,0000.0000,N,00000.0000,E,0.00,0.00,151102,,*1B
$GPGGA,041920.739,0000.0000,N,00000.0000,E,0,00,50.0,0.0,M,0.0,M,0.0,0000*75
$GPGSA,A,1,,,,,,,,,,,,,50.0,50.0,50.0*05
$GPGSV,3,1,12,25,90,000,41,26,73,000,00,28,67,000,00,30,67,000,00*7A
$GPGSV,3,2,12,07,36,000,00,01,27,000,34,06,25,000,00,24,15,000,00*79
$GPGSV,3,3,12,21,10,000,00,19,10,000,36,17,08,000,00,04,07,000,*79
$GPRMC,041920.739,V,0000.0000,N,00000.0000,E,0.00,0.00,151102,,*11
$GPGGA,041921.739,0000.0000,N,00000.0000,E,0,00,50.0,0.0,M,0.0,M,0.0,0000*74
$GPGSA,A,1,,,,,,,,,,,,,50.0,50.0,50.0*05
$GPGSV,3,1,12,25,90,000,40,26,73,000,00,28,67,000,00,30,67,000,00*7B
$GPGSV,3,2,12,07,36,000,00,01,27,000,28,06,25,000,00,24,15,000,00*74
$GPGSV,3,3,12,21,10,000,00,19,10,000,36,17,08,000,00,04,07,000,*79
$GPRMC,041921.739,V,0000.0000,N,00000.0000,E,0.00,0.00,151102,,*10
$GPGGA,041922.739,0000.0000,N,00000.0000,E,0,00,50.0,0.0,M,0.0,M,0.0,0000*77
$GPGSA,A,1,,,,,,,,,,,,,50.0,50.0,50.0*05
$GPGSV,3,1,12,25,90,000,39,26,73,000,00,28,67,000,00,30,67,000,00*75
$GPGSV,3,2,12,07,36,000,00,01,27,000,27,06,25,000,00,24,15,000,00*7B
$GPGSV,3,3,12,21,10,000,00,19,10,000,37,17,08,000,00,04,07,000,*78
$GPRMC,041922.739,V,0000.0000,N,00000.0000,E,0.00,0.00,151102,,*13
$GPGGA,041923.739,0000.0000,N,00000.0000,E,0,00,50.0,0.0,M,0.0,M,0.0,0000*76
$GPGSA,A,1,,,,,,,,,,,,,50.0,50.0,50.0*05
$GPGSV,3,1,12,25,90,000,39,26,73,000,00,28,67,000,00,30,67,000,00*75
$GPGSV,3,2,12,07,36,000,00,01,27,000,29,06,25,000,00,24,15,000,00*75
$GPGSV,3,3,12,21,10,000,00,19,10,000,37,17,08,000,00,04,07,000,*78
$GPRMC,041923.739,V,0000.0000,N,00000.0000,E,0.00,0.00,121104,,*13
$GPGGA,041924.739,0000.0000,N,00000.0000,E,0,00,50.0,0.0,M,0.0,M,0.0,0000*71
$GPGSA,A,1,,,,,,,,,,,,,50.0,50.0,50.0*05
$GPGSV,3,1,12,01,71,000,28,19,59,000,37,03,57,000,,25,48,000,38*74
$GPGSV,3,2,12,15,35,000,,14,24,000,,23,22,000,,11,16,000,*7C
$GPGSV,3,3,12,16,13,000,,20,13,000,,22,04,000,,21,00,000,00*78
$GPRMC,041924.739,V,0000.0000,N,00000.0000,E,0.00,0.00,121104,,*14
$GPGGA,041925.738,0000.0000,N,00000.0000,E,0,00,50.0,0.0,M,0.0,M,0.0,0000*71
$GPGSA,A,1,,,,,,,,,,,,,50.0,50.0,50.0*05
$GPGSV,3,1,12,01,71,000,26,19,59,000,38,03,57,000,00,25,48,000,39*74
$GPGSV,3,2,12,15,35,000,00,14,24,000,00,23,22,000,00,11,16,000,00*7C
$GPGSV,3,3,12,16,13,000,00,20,13,000,,22,04,000,00,21,00,000,00*78
$GPRMC,041925.738,V,0000.0000,N,00000.0000,E,0.00,0.00,121104,,*14
$GPGGA,041926.738,0000.0000,N,00000.0000,E,0,00,50.0,0.0,M,0.0,M,0.0,0000*72
$GPGSA,A,1,,,,,,,,,,,,,50.0,50.0,50.0*05
$GPGSV,3,1,12,01,71,000,30,19,59,000,40,03,57,000,00,25,48,000,39*7C
$GPGSV,3,2,12,15,35,000,00,14,24,000,00,23,22,000,00,11,16,000,00*7C
$GPGSV,3,3,12,16,13,000,00,20,13,000,,22,04,000,00,21,00,000,00*78
$GPRMC,041926.738,V,0000.0000,N,00000.0000,E,0.00,0.00,121104,,*17
$GPGGA,041927.738,0000.0000,N,00000.0000,E,0,00,50.0,0.0,M,0.0,M,0.0,0000*73
$GPGSA,A,1,,,,,,,,,,,,,50.0,50.0,50.0*05
$GPGSV,3,1,12,01,71,000,32,19,59,000,39,03,57,000,00,25,48,000,37*7E
$GPGSV,3,2,12,15,35,000,00,14,24,000,00,23,22,000,00,11,16,000,00*7C
$GPGSV,3,3,12,16,13,000,00,20,13,000,,22,04,000,00,21,00,000,00*78
$GPRMC,041927.738,V,0000.0000,N,00000.0000,E,0.00,0.00,121104,,*16
$GPGGA,041928.738,0000.0000,N,00000.0000,E,0,00,50.0,0.0,M,0.0,M,0.0,0000*7C
$GPGSA,A,1,,,,,,,,,,,,,50.0,50.0,50.0*05
$GPGSV,3,1,12,01,71,000,36,19,59,000,36,03,57,000,00,25,48,000,31*73
$GPGSV,3,2,12,15,35,000,00,14,24,000,00,23,22,000,00,11,16,000,00*7C
$GPGSV,3,3,12,16,13,000,00,20,13,000,,22,04,000,00,21,00,000,00*78
$GPRMC,041928.738,V,0000.0000,N,00000.0000,E,0.00,0.00,121104,,*19
$GPGGA,041929.738,0000.0000,N,00000.0000,E,0,00,50.0,0.0,M,0.0,M,0.0,0000*7D
$GPGSA,A,1,,,,,,,,,,,,,50.0,50.0,50.0*05
$GPGSV,3,1,12,01,71,000,38,19,59,000,37,03,57,000,00,25,48,000,34*79
$GPGSV,3,2,12,15,35,000,00,14,24,000,00,23,22,000,00,11,16,000,00*7C
$GPGSV,3,3,12,16,13,000,00,20,13,000,,22,04,000,00,21,00,000,00*78
$GPRMC,041929.738,V,0000.0000,N,00000.0000,E,0.00,0.00,121104,,*18
$GPGGA,041930.738,0000.0000,N,00000.0000,E,0,00,50.0,0.0,M,0.0,M,0.0,0000*75
$GPGSA,A,1,,,,,,,,,,,,,50.0,50.0,50.0*05
$GPGSV,3,1,12,01,71,000,38,19,59,000,40,03,57,000,00,25,48,000,35*78
$GPGSV,3,2,12,15,35,000,00,14,24,000,00,23,22,000,00,11,16,000,00*7C
$GPGSV,3,3,12,16,13,000,00,20,13,000,,22,04,000,00,21,00,000,00*78
$GPRMC,041930.738,V,0000.0000,N,00000.0000,E,0.00,0.00,121104,,*10
$GPGGA,041931.738,0000.0000,N,00000.0000,E,0,00,50.0,0.0,M,0.0,M,0.0,0000*74
$GPGSA,A,1,,,,,,,,,,,,,50.0,50.0,50.0*05
$GPGSV,3,1,12,01,71,000,39,19,59,000,40,03,57,000,00,25,48,000,35*79
$GPGSV,3,2,12,15,35,000,00,14,24,000,00,23,22,000,00,11,16,000,00*7C
$GPGSV,3,3,12,16,13,000,00,20,13,000,,22,04,000,00,21,00,000,00*78
$GPRMC,041931.738,V,0000.0000,N,00000.0000,E,0.00,0.00,121104,,*11
$GPGGA,041932.738,0000.0000,N,00000.0000,E,0,00,50.0,0.0,M,0.0,M,0.0,0000*77
$GPGSA,A,1,,,,,,,,,,,,,50.0,50.0,50.0*05
$GPGSV,3,1,12,01,71,000,40,19,59,000,39,03,57,000,00,25,48,000,37*7B
$GPGSV,3,2,12,15,35,000,00,14,24,000,00,23,22,000,00,11,16,000,00*7C
$GPGSV,3,3,12,16,13,000,00,20,13,000,,22,04,000,00,21,00,000,00*78
$GPRMC,041932.738,V,0000.0000,N,00000.0000,E,0.00,0.00,121104,,*12
$GPGGA,041933.738,0000.0000,N,00000.0000,E,0,00,50.0,0.0,M,0.0,M,0.0,0000*76
$GPGSA,A,1,,,,,,,,,,,,,50.0,50.0,50.0*05
$GPGSV,3,1,12,01,71,000,39,19,59,000,37,03,57,000,00,25,48,000,34*78
$GPGSV,3,2,12,15,35,000,00,14,24,000,00,23,22,000,00,11,16,000,00*7C
$GPGSV,3,3,12,16,13,000,00,20,13,000,,22,04,000,00,21,00,000,00*78
$GPRMC,041933.738,V,0000.0000,N,00000.0000,E,0.00,0.00,121104,,*13
$GPGGA,041934.738,0000.0000,N,00000.0000,E,0,00,50.0,0.0,M,0.0,M,0.0,0000*71
$GPGSA,A,1,,,,,,,,,,,,,50.0,50.0,50.0*05
$GPGSV,3,1,12,01,71,000,39,19,59,000,35,03,57,000,00,25,48,000,26*79
$GPGSV,3,2,12,15,35,000,00,14,24,000,00,23,22,000,00,11,16,000,00*7C
$GPGSV,3,3,12,16,13,000,00,20,13,000,,22,04,000,00,21,00,000,00*78
$GPRMC,041934.738,V,0000.0000,N,00000.0000,E,0.00,0.00,121104,,*14
$GPGGA,041935.738,0000.0000,N,00000.0000,E,0,00,50.0,0.0,M,0.0,M,0.0,0000*70
$GPGSA,A,1,,,,,,,,,,,,,50.0,50.0,50.0*05
$GPGSV,3,1,12,01,71,000,39,19,59,000,35,03,57,000,00,25,48,000,*7D
$GPGSV,3,2,12,15,35,000,00,14,24,000,00,23,22,000,00,11,16,000,00*7C
$GPGSV,3,3,12,16,13,000,00,20,13,000,,22,04,000,00,21,00,000,00*78
$GPRMC,041935.738,V,0000.0000,N,00000.0000,E,0.00,0.00,121104,,*15
$GPGGA,041936.738,0000.0000,N,00000.0000,E,0,00,50.0,0.0,M,0.0,M,0.0,0000*73
$GPGSA,A,1,,,,,,,,,,,,,50.0,50.0,50.0*05
$GPGSV,3,1,12,01,71,000,40,19,59,000,35,03,57,000,00,25,48,000,*73
$GPGSV,3,2,12,15,35,000,00,14,24,000,00,23,22,000,00,11,16,000,00*7C
$GPGSV,3,3,12,16,13,000,00,20,13,000,,22,04,000,00,21,00,000,00*78
$GPRMC,041936.738,V,0000.0000,N,00000.0000,E,0.00,0.00,121104,,*16
$GPGGA,041937.738,0000.0000,N,00000.0000,E,0,00,50.0,0.0,M,0.0,M,0.0,0000*72
$GPGSA,A,1,,,,,,,,,,,,,50.0,50.0,50.0*05
$GPGSV,3,1,12,01,71,000,39,19,59,000,36,03,57,000,00,25,48,000,*7E
$GPGSV,3,2,12,15,35,000,00,14,24,000,00,23,22,000,00,11,16,000,00*7C
$GPGSV,3,3,12,16,13,000,00,20,13,000,,22,04,000,00,21,00,000,00*78
$GPRMC,041937.738,V,0000.0000,N,00000.0000,E,0.00,0.00,121104,,*17
$GPGGA,041938.738,0000.0000,N,00000.0000,E,0,00,50.0,0.0,M,0.0,M,0.0,0000*7D
$GPGSA,A,1,,,,,,,,,,,,,50.0,50.0,50.0*05
$GPGSV,3,1,12,01,71,000,39,19,59,000,36,03,57,000,00,25,48,000,*7E
$GPGSV,3,2,12,15,35,000,00,14,24,000,00,23,22,000,00,11,16,000,00*7C
$GPGSV,3,3,12,16,13,000,00,20,13,000,,22,04,000,00,21,00,000,00*78
$GPRMC,041938.738,V,0000.0000,N,00000.0000,E,0.00,0.00,121104,,*18
$GPGGA,041939.738,0000.0000,N,00000.0000,E,0,00,50.0,0.0,M,0.0,M,0.0,0000*7C
$GPGSA,A,1,,,,,,,,,,,,,50.0,50.0,50.0*05
$GPGSV,3,1,12,01,71,000,38,19,59,000,38,03,57,000,00,25,48,000,*71
$GPGSV,3,2,12,15,35,000,00,14,24,000,00,23,22,000,00,11,16,000,00*7C
$GPGSV,3,3,12,16,13,000,00,20,13,000,,22,04,000,00,21,00,000,00*78
$GPRMC,041939.738,V,0000.0000,N,00000.0000,E,0.00,0.00,121104,,*19
$GPGGA,041940.738,0000.0000,N,00000.0000,E,0,00,50.0,0.0,M,0.0,M,0.0,0000*72
$GPGSA,A,1,,,,,,,,,,,,,50.0,50.0,50.0*05
$GPGSV,3,1,12,01,71,000,41,19,59,000,39,03,57,000,00,25,48,000,*7E
$GPGSV,3,2,12,15,35,000,00,14,24,000,00,23,22,000,00,11,16,000,00*7C
$GPGSV,3,3,12,16,13,000,00,20,13,000,,22,04,000,00,21,00,000,00*78
$GPRMC,041940.738,V,0000.0000,N,00000.0000,E,0.00,0.00,121104,,*17
$GPGGA,041941.737,0000.0000,N,00000.0000,E,0,00,50.0,0.0,M,0.0,M,0.0,0000*7C
$GPGSA,A,1,,,,,,,,,,,,,50.0,50.0,50.0*05
$GPGSV,3,1,12,01,71,000,40,19,59,000,40,03,57,000,00,25,48,000,*71
$GPGSV,3,2,12,15,35,000,00,14,24,000,00,23,22,000,00,11,16,000,00*7C
$GPGSV,3,3,12,16,13,000,00,20,13,000,,22,04,000,00,21,00,000,00*78
$GPRMC,041941.737,V,0000.0000,N,00000.0000,E,0.00,0.00,121104,,*19
$GPGGA,041942.737,0000.0000,N,00000.0000,E,0,00,50.0,0.0,M,0.0,M,0.0,0000*7F
$GPGSA,A,1,,,,,,,,,,,,,50.0,50.0,50.0*05
$GPGSV,3,1,12,01,71,000,40,19,59,000,40,03,57,000,00,25,48,000,*71
$GPGSV,3,2,12,15,35,000,00,14,24,000,00,23,22,000,00,11,16,000,00*7C
$GPGSV,3,3,12,16,13,000,00,20,13,000,,22,04,000,00,21,00,000,00*78
$GPRMC,041942.737,V,0000.0000,N,00000.0000,E,0.00,0.00,121104,,*1A
$GPGGA,041943.737,0000.0000,N,00000.0000,E,0,00,50.0,0.0,M,0.0,M,0.0,0000*7E
$GPGSA,A,1,,,,,,,,,,,,,50.0,50.0,50.0*05
$GPGSV,3,1,12,01,71,000,38,19,59,000,39,03,57,000,00,25,48,000,*70
$GPGSV,3,2,12,15,35,000,00,14,24,000,00,23,22,000,00,11,16,000,00*7C
$GPGSV,3,3,12,16,13,000,00,20,13,000,,22,04,000,00,21,00,000,00*78
$GPRMC,041943.737,V,0000.0000,N,00000.0000,E,0.00,0.00,121104,,*1B
$GPGGA,041944.737,0000.0000,N,00000.0000,E,0,00,50.0,0.0,M,0.0,M,0.0,0000*79
$GPGSA,A,1,,,,,,,,,,,,,50.0,50.0,50.0*05
$GPGSV,3,1,12,01,71,000,37,19,59,000,41,03,57,000,00,25,48,000,*70
$GPGSV,3,2,12,15,35,000,00,14,24,000,00,23,22,000,00,11,16,000,00*7C
$GPGSV,3,3,12,16,13,000,00,20,13,000,,22,04,000,00,21,00,000,00*78
$GPRMC,041944.737,V,0000.0000,N,00000.0000,E,0.00,0.00,121104,,*1C
$GPGGA,041945.737,0000.0000,N,00000.0000,E,0,00,50.0,0.0,M,0.0,M,0.0,0000*78
$GPGSA,A,1,,,,,,,,,,,,,50.0,50.0,50.0*05
$GPGSV,3,1,12,01,71,000,36,19,59,000,41,03,57,000,00,25,48,000,*71
$GPGSV,3,2,12,15,35,000,00,14,24,000,00,23,22,000,00,11,16,000,00*7C
$GPGSV,3,3,12,16,13,000,00,20,13,000,,22,04,000,00,21,00,000,00*78
$GPRMC,041945.737,V,0000.0000,N,00000.0000,E,0.00,0.00,121104,,*1D
$GPGGA,041946.737,0000.0000,N,00000.0000,E,0,00,50.0,0.0,M,0.0,M,0.0,0000*7B
$GPGSA,A,1,,,,,,,,,,,,,50.0,50.0,50.0*05
$GPGSV,3,1,12,01,71,000,37,19,59,000,41,03,57,000,00,25,48,000,*70
$GPGSV,3,2,12,15,35,000,00,14,24,000,00,23,22,000,00,11,16,000,00*7C
$GPGSV,3,3,12,16,13,000,00,20,13,000,,22,04,000,00,21,00,000,00*78
$GPRMC,041946.737,V,0000.0000,N,00000.0000,E,0.00,0.00,121104,,*1E
$GPGGA,041947.737,0000.0000,N,00000.0000,E,0,00,50.0,0.0,M,0.0,M,0.0,0000*7A
$GPGSA,A,1,,,,,,,,,,,,,50.0,50.0,50.0*05
$GPGSV,3,1,12,01,71,000,37,19,59,000,40,03,57,000,00,25,48,000,*71
$GPGSV,3,2,12,15,35,000,00,14,24,000,00,23,22,000,00,11,16,000,00*7C
$GPGSV,3,3,12,16,13,000,00,20,13,000,,22,04,000,00,21,00,000,00*78
$GPRMC,041947.737,V,0000.0000,N,00000.0000,E,0.00,0.00,121104,,*1F
$GPGGA,041948.737,0000.0000,N,00000.0000,E,0,00,50.0,0.0,M,0.0,M,0.0,0000*75
$GPGSA,A,1,,,,,,,,,,,,,50.0,50.0,50.0*05
$GPGSV,3,1,12,01,71,000,36,19,59,000,41,03,57,000,00,25,48,000,*71
$GPGSV,3,2,12,15,35,000,00,14,24,000,44,23,22,000,00,11,16,000,00*7C
$GPGSV,3,3,12,16,13,000,00,20,13,000,,22,04,000,00,21,00,000,00*78
$GPRMC,041948.737,V,0000.0000,N,00000.0000,E,0.00,0.00,121104,,*10
$GPGGA,041949.737,0000.0000,N,00000.0000,E,0,00,50.0,0.0,M,0.0,M,0.0,0000*74
$GPGSA,A,1,,,,,,,,,,,,,50.0,50.0,50.0*05
$GPGSV,3,1,12,01,71,000,36,19,59,000,41,03,57,000,00,25,48,000,*71
$GPGSV,3,2,12,15,35,000,00,14,24,000,43,23,22,000,00,11,16,000,00*7B
$GPGSV,3,3,12,16,13,000,00,20,13,000,,22,04,000,00,21,00,000,00*78
$GPRMC,041949.737,V,0000.0000,N,00000.0000,E,0.00,0.00,121104,,*11
$GPGGA,041950.737,0000.0000,N,00000.0000,E,0,00,50.0,0.0,M,0.0,M,0.0,0000*7C
$GPGSA,A,1,,,,,,,,,,,,,50.0,50.0,50.0*05
$GPGSV,3,1,12,01,71,000,36,19,59,000,41,03,57,000,00,25,48,000,*71
$GPGSV,3,2,12,15,35,000,00,14,24,000,43,23,22,000,00,11,16,000,00*7B
$GPGSV,3,3,12,16,13,000,00,20,13,000,,22,04,000,00,21,00,000,00*78
$GPRMC,041950.737,V,0000.0000,N,00000.0000,E,0.00,0.00,121104,,*19
$GPGGA,041951.737,0000.0000,N,00000.0000,E,0,00,50.0,0.0,M,0.0,M,0.0,0000*7D
$GPGSA,A,1,,,,,,,,,,,,,50.0,50.0,50.0*05
$GPGSV,3,1,12,01,71,000,34,19,59,000,41,03,57,000,00,25,48,000,*73
$GPGSV,3,2,12,15,35,000,00,14,24,000,43,23,22,000,00,11,16,000,00*7B
$GPGSV,3,3,12,16,13,000,00,20,13,000,,22,04,000,38,21,00,000,00*73
$GPRMC,041951.737,V,0000.0000,N,00000.0000,E,0.00,0.00,121104,,*18
$GPGGA,041952.737,0000.0000,N,00000.0000,E,0,00,50.0,0.0,M,0.0,M,0.0,0000*7E
$GPGSA,A,1,,,,,,,,,,,,,50.0,50.0,50.0*05
$GPGSV,3,1,12,01,71,000,34,19,59,000,41,03,57,000,00,25,48,000,*73
$GPGSV,3,2,12,15,35,000,00,14,24,000,43,23,22,000,00,11,16,000,00*7B
$GPGSV,3,3,12,16,13,000,00,20,13,000,,22,04,000,37,21,00,000,00*7C
$GPRMC,041952.737,V,0000.0000,N,00000.0000,E,0.00,0.00,121104,,*1B
$GPGGA,041953.737,0000.0000,N,00000.0000,E,0,00,50.0,0.0,M,0.0,M,0.0,0000*7F
$GPGSA,A,1,,,,,,,,,,,,,50.0,50.0,50.0*05
$GPGSV,3,1,12,01,71,000,34,19,59,000,41,03,57,000,00,25,48,000,*73
$GPGSV,3,2,12,15,35,000,00,14,24,000,42,23,22,000,00,11,16,000,00*7A
$GPGSV,3,3,12,16,13,000,00,20,13,000,,22,04,000,38,21,00,000,00*73
$GPRMC,041953.737,V,0000.0000,N,00000.0000,E,0.00,0.00,121104,,*1A
$GPGGA,041954.737,0000.0000,N,00000.0000,E,0,00,50.0,0.0,M,0.0,M,0.0,0000*78
$GPGSA,A,1,,,,,,,,,,,,,50.0,50.0,50.0*05
$GPGSV,3,1,12,01,71,000,34,19,59,000,41,03,57,000,00,25,48,000,*73
$GPGSV,3,2,12,15,35,000,00,14,24,000,42,23,22,000,00,11,16,000,00*7A
$GPGSV,3,3,12,16,13,000,00,20,13,000,,22,04,000,38,21,00,000,00*73
$GPRMC,041954.737,V,0000.0000,N,00000.0000,E,0.00,0.00,121104,,*1D
$GPGGA,041955.737,0000.0000,N,00000.0000,E,0,00,50.0,0.0,M,0.0,M,0.0,0000*79
$GPGSA,A,1,,,,,,,,,,,,,50.0,50.0,50.0*05
$GPGSV,3,1,12,01,71,000,35,19,59,000,42,03,57,000,36,25,48,000,*74
$GPGSV,3,2,12,15,35,000,00,14,24,000,42,23,22,000,00,11,16,000,00*7A
$GPGSV,3,3,12,16,13,000,00,20,13,000,,22,04,000,37,21,00,000,00*7C
$GPRMC,041955.737,V,0000.0000,N,00000.0000,E,0.00,0.00,121104,,*1C
$GPGGA,041956.737,0000.0000,N,00000.0000,E,0,00,50.0,0.0,M,0.0,M,0.0,0000*7A
$GPGSA,A,1,,,,,,,,,,,,,50.0,50.0,50.0*05
$GPGSV,3,1,12,01,71,000,36,19,59,000,42,03,57,000,36,25,48,000,*77
$GPGSV,3,2,12,15,35,000,00,14,24,000,43,23,22,000,00,11,16,000,00*7B
$GPGSV,3,3,12,16,13,000,00,20,13,000,,22,04,000,37,21,00,000,00*7C
$GPRMC,041956.737,V,0000.0000,N,00000.0000,E,0.00,0.00,121104,,*1F
$GPGGA,041957.737,0000.0000,N,00000.0000,E,0,00,50.0,0.0,M,0.0,M,0.0,0000*7B
$GPGSA,A,1,,,,,,,,,,,,,50.0,50.0,50.0*05
$GPGSV,3,1,12,01,71,000,36,19,59,000,41,03,57,000,36,25,48,000,*74
$GPGSV,3,2,12,15,35,000,40,14,24,000,43,23,22,000,00,11,16,000,00*7F
$GPGSV,3,3,12,16,13,000,00,20,13,000,,22,04,000,37,21,00,000,00*7C
$GPRMC,041957.737,V,0000.0000,N,00000.0000,E,0.00,0.00,121104,,*1E
$GPGGA,041958.736,0000.0000,N,00000.0000,E,0,00,50.0,0.0,M,0.0,M,0.0,0000*75
$GPGSA,A,1,,,,,,,,,,,,,50.0,50.0,50.0*05
$GPGSV,3,1,12,01,71,000,36,19,59,000,41,03,57,000,35,25,48,000,*77
$GPGSV,3,2,12,15,35,000,39,14,24,000,42,23,22,000,00,11,16,000,00*70
$GPGSV,3,3,12,16,13,000,00,20,13,000,,22,04,000,37,21,00,000,00*7C
$GPRMC,041958.736,V,0000.0000,N,00000.0000,E,0.00,0.00,121104,,*10
$GPGGA,041959.736,0000.0000,N,00000.0000,E,0,00,50.0,0.0,M,0.0,M,0.0,0000*74
$GPGSA,A,1,,,,,,,,,,,,,50.0,50.0,50.0*05
$GPGSV,3,1,12,01,71,000,35,19,59,000,41,03,57,000,36,25,48,000,*77
$GPGSV,3,2,12,15,35,000,40,14,24,000,43,23,22,000,00,11,16,000,00*7F
$GPGSV,3,3,12,16,13,000,00,20,13,000,,22,04,000,38,21,00,000,00*73
$GPRMC,041959.736,V,0000.0000,N,00000.0000,E,0.00,0.00,121104,,*11
$GPGGA,042000.736,0000.0000,N,00000.0000,E,0,00,50.0,0.0,M,0.0,M,0.0,0000*72
$GPGSA,A,1,,,,,,,,,,,,,50.0,50.0,50.0*05
$GPGSV,3,1,12,01,71,000,36,19,59,000,41,03,57,000,36,25,48,000,*74
$GPGSV,3,2,12,15,35,000,39,14,24,000,43,23,22,000,00,11,16,000,00*71
$GPGSV,3,3,12,16,13,000,00,20,13,000,,22,04,000,38,21,00,000,00*73
$GPRMC,042000.736,V,0000.0000,N,00000.0000,E,0.00,0.00,121104,,*17
$GPGGA,042001.736,0000.0000,N,00000.0000,E,0,00,50.0,0.0,M,0.0,M,0.0,0000*73
$GPGSA,A,1,,,,,,,,,,,,,50.0,50.0,50.0*05
$GPGSV,3,1,12,01,71,000,35,19,59,000,41,03,57,000,36,25,48,000,*77
$GPGSV,3,2,12,15,35,000,39,14,24,000,42,23,22,000,00,11,16,000,00*70
$GPGSV,3,3,12,16,13,000,00,20,13,000,,22,04,000,38,21,00,000,00*73
$GPRMC,042001.736,V,0000.0000,N,00000.0000,E,0.00,0.00,121104,,*16
$GPGGA,042002.736,0000.0000,N,00000.0000,E,0,00,50.0,0.0,M,0.0,M,0.0,0000*70
$GPGSA,A,1,,,,,,,,,,,,,50.0,50.0,50.0*05
$GPGSV,3,1,12,01,71,000,35,19,59,000,41,03,57,000,36,25,48,000,*77
$GPGSV,3,2,12,15,35,000,39,14,24,000,43,23,22,000,00,11,16,000,00*71
$GPGSV,3,3,12,16,13,000,00,20,13,000,,22,04,000,39,21,00,000,00*72
$GPRMC,042002.736,V,0000.0000,N,00000.0000,E,0.00,0.00,121104,,*15
$GPGGA,042003.736,0000.0000,N,00000.0000,E,0,00,50.0,0.0,M,0.0,M,0.0,0000*71
$GPGSA,A,1,,,,,,,,,,,,,50.0,50.0,50.0*05
$GPGSV,3,1,12,01,71,000,35,19,59,000,40,03,57,000,35,25,48,000,*75
$GPGSV,3,2,12,15,35,000,39,14,24,000,43,23,22,000,00,11,16,000,00*71
$GPGSV,3,3,12,16,13,000,00,20,13,000,,22,04,000,39,21,00,000,00*72
$GPRMC,042003.736,V,0000.0000,N,00000.0000,E,0.00,0.00,121104,,*14
$GPGGA,042004.736,0000.0000,N,00000.0000,E,0,00,50.0,0.0,M,0.0,M,0.0,0000*76
$GPGSA,A,1,,,,,,,,,,,,,50.0,50.0,50.0*05
$GPGSV,3,1,12,01,71,000,35,19,59,000,41,03,57,000,34,25,48,000,*75
$GPGSV,3,2,12,15,35,000,39,14,24,000,42,23,22,000,00,11,16,000,00*70
$GPGSV,3,3,12,16,13,000,00,20,13,000,,22,04,000,38,21,00,000,00*73
$GPRMC,042004.736,V,0000.0000,N,00000.0000,E,0.00,0.00,121104,,*13
$GPGGA,042005.736,0000.0000,N,00000.0000,E,0,00,50.0,0.0,M,0.0,M,0.0,0000*77
$GPGSA,A,1,,,,,,,,,,,,,50.0,50.0,50.0*05
$GPGSV,3,1,12,01,71,000,35,19,59,000,40,03,57,000,34,25,48,000,*74
$GPGSV,3,2,12,15,35,000,40,14,24,000,42,23,22,000,00,11,16,000,00*7E
$GPGSV,3,3,12,16,13,000,00,20,13,000,,22,04,000,39,21,00,000,00*72
$GPRMC,042005.736,V,0000.0000,N,00000.0000,E,0.00,0.00,121104,,*12
$GPGGA,042006.736,0000.0000,N,00000.0000,E,0,00,50.0,0.0,M,0.0,M,0.0,0000*74
$GPGSA,A,1,,,,,,,,,,,,,50.0,50.0,50.0*05
$GPGSV,3,1,12,01,71,000,35,19,59,000,41,03,57,000,34,25,48,000,*75
$GPGSV,3,2,12,15,35,000,40,14,24,000,42,23,22,000,00,11,16,000,00*7E
$GPGSV,3,3,12,16,13,000,00,20,13,000,,22,04,000,37,21,00,000,00*7C
$GPRMC,042006.736,V,0000.0000,N,00000.0000,E,0.00,0.00,121104,,*11
$GPGGA,042007.736,0000.0000,N,00000.0000,E,0,00,50.0,0.0,M,0.0,M,0.0,0000*75
$GPGSA,A,1,,,,,,,,,,,,,50.0,50.0,50.0*05
$GPGSV,3,1,12,01,71,000,35,19,59,000,41,03,57,000,35,25,48,000,*74
$GPGSV,3,2,12,15,35,000,39,14,24,000,42,23,22,000,00,11,16,000,00*70
$GPGSV,3,3,12,16,13,000,00,20,13,000,,22,04,000,37,21,00,000,00*7C
$GPRMC,042007.736,V,0000.0000,N,00000.0000,E,0.00,0.00,121104,,*10
$GPGGA,042008.736,0000.0000,N,00000.0000,E,0,00,50.0,0.0,M,0.0,M,0.0,0000*7A
$GPGSA,A,1,,,,,,,,,,,,,50.0,50.0,50.0*05
$GPGSV,3,1,12,01,71,000,35,19,59,000,41,03,57,000,35,25,48,000,*74
$GPGSV,3,2,12,15,35,000,40,14,24,000,43,23,22,000,00,11,16,000,00*7F
$GPGSV,3,3,12,16,13,000,00,20,13,000,,22,04,000,37,21,00,000,00*7C
$GPRMC,042008.736,V,0000.0000,N,00000.0000,E,0.00,0.00,121104,,*1F
$GPGGA,042009.736,0000.0000,N,00000.0000,E,0,00,50.0,0.0,M,0.0,M,0.0,0000*7B
$GPGSA,A,1,,,,,,,,,,,,,50.0,50.0,50.0*05
$GPGSV,3,1,12,01,71,000,35,19,59,000,41,03,57,000,34,25,48,000,*75
$GPGSV,3,2,12,15,35,000,40,14,24,000,43,23,22,000,00,11,16,000,00*7F
$GPGSV,3,3,12,16,13,000,00,20,13,000,,22,04,000,37,21,00,000,00*7C
$GPRMC,042009.736,V,0000.0000,N,00000.0000,E,0.00,0.00,121104,,*1E
$GPGGA,042010.736,0000.0000,N,00000.0000,E,0,00,50.0,0.0,M,0.0,M,0.0,0000*73
$GPGSA,A,1,,,,,,,,,,,,,50.0,50.0,50.0*05
$GPGSV,3,1,12,01,71,000,35,19,59,000,41,03,57,000,35,25,48,000,*74
$GPGSV,3,2,12,15,35,000,40,14,24,000,44,23,22,000,00,11,16,000,00*78
$GPGSV,3,3,12,16,13,000,00,20,13,000,,22,04,000,38,21,00,000,00*73
$GPRMC,042010.736,V,0000.0000,N,00000.0000,E,0.00,0.00,121104,,*16
$GPGGA,042011.736,0000.0000,N,00000.0000,E,0,00,50.0,0.0,M,0.0,M,0.0,0000*72
$GPGSA,A,1,,,,,,,,,,,,,50.0,50.0,50.0*05
$GPGSV,3,1,12,01,71,000,34,19,59,000,41,03,57,000,36,25,48,000,*76
$GPGSV,3,2,12,15,35,000,41,14,24,000,43,23,22,000,00,11,16,000,00*7E
$GPGSV,3,3,12,16,13,000,00,20,13,000,,22,04,000,38,21,00,000,00*73
$GPRMC,042011.736,V,0000.0000,N,00000.0000,E,0.00,0.00,121104,,*17
$GPGGA,042012.736,0000.0000,N,00000.0000,E,0,00,50.0,0.0,M,0.0,M,0.0,0000*71
$GPGSA,A,1,,,,,,,,,,,,,50.0,50.0,50.0*05
$GPGSV,3,1,12,01,71,000,34,19,59,000,42,03,57,000,36,25,48,000,*75
$GPGSV,3,2,12,15,35,000,40,14,24,000,43,23,22,000,00,11,16,000,00*7F
$GPGSV,3,3,12,16,13,000,00,20,13,000,,22,04,000,38,21,00,000,00*73
$GPRMC,042012.736,V,0000.0000,N,00000.0000,E,0.00,0.00,121104,,*14
$GPGGA,042013.736,0000.0000,N,00000.0000,E,0,00,50.0,0.0,M,0.0,M,0.0,0000*70
$GPGSA,A,1,,,,,,,,,,,,,50.0,50.0,50.0*05
$GPGSV,3,1,12,01,71,000,35,19,59,000,42,03,57,000,36,25,48,000,*74
$GPGSV,3,2,12,15,35,000,40,14,24,000,43,23,22,000,00,11,16,000,00*7F
$GPGSV,3,3,12,16,13,000,00,20,13,000,,22,04,000,38,21,00,000,00*73
$GPRMC,042013.736,V,0000.0000,N,00000.0000,E,0.00,0.00,121104,,*15
$GPGGA,042014.736,0000.0000,N,00000.0000,E,0,00,50.0,0.0,M,0.0,M,0.0,0000*77
$GPGSA,A,1,,,,,,,,,,,,,50.0,50.0,50.0*05
$GPGSV,3,1,12,01,71,000,34,19,59,000,41,03,57,000,36,25,48,000,*76
$GPGSV,3,2,12,15,35,000,40,14,24,000,43,23,22,000,00,11,16,000,00*7F
$GPGSV,3,3,12,16,13,000,00,20,13,000,,22,04,000,38,21,00,000,00*73
$GPRMC,042014.736,V,0000.0000,N,00000.0000,E,0.00,0.00,121104,,*12
$GPGGA,042015.735,0000.0000,N,00000.0000,E,0,00,50.0,0.0,M,0.0,M,0.0,0000*75
$GPGSA,A,1,,,,,,,,,,,,,50.0,50.0,50.0*05
$GPGSV,3,1,12,01,71,000,34,19,59,000,42,03,57,000,36,25,48,000,*75
$GPGSV,3,2,12,15,35,000,40,14,24,000,43,23,22,000,00,11,16,000,00*7F
$GPGSV,3,3,12,16,13,000,00,20,13,000,,22,04,000,37,21,00,000,00*7C
$GPRMC,042015.735,V,0000.0000,N,00000.0000,E,0.00,0.00,121104,,*10
$GPGGA,042016.735,0000.0000,N,00000.0000,E,0,00,50.0,0.0,M,0.0,M,0.0,0000*76
$GPGSA,A,1,,,,,,,,,,,,,50.0,50.0,50.0*05
$GPGSV,3,1,12,01,71,000,34,19,59,000,41,03,57,000,36,25,48,000,*76
$GPGSV,3,2,12,15,35,000,40,14,24,000,42,23,22,000,00,11,16,000,00*7E
$GPGSV,3,3,12,16,13,000,00,20,13,000,,22,04,000,37,21,00,000,00*7C
$GPRMC,042016.735,V,0000.0000,N,00000.0000,E,0.00,0.00,121104,,*13
$GPGGA,042017.735,0000.0000,N,00000.0000,E,0,00,50.0,0.0,M,0.0,M,0.0,0000*77
$GPGSA,A,1,,,,,,,,,,,,,50.0,50.0,50.0*05
$GPGSV,3,1,12,01,71,000,34,19,59,000,42,03,57,000,35,25,48,000,*76
$GPGSV,3,2,12,15,35,000,40,14,24,000,42,23,22,000,00,11,16,000,00*7E
$GPGSV,3,3,12,16,13,000,00,20,13,000,,22,04,000,37,21,00,000,00*7C
$GPRMC,042017.735,V,0000.0000,N,00000.0000,E,0.00,0.00,121104,,*12
$GPGGA,042018.735,0000.0000,N,00000.0000,E,0,00,50.0,0.0,M,0.0,M,0.0,0000*78
$GPGSA,A,1,,,,,,,,,,,,,50.0,50.0,50.0*05
$GPGSV,3,1,12,01,71,000,34,19,59,000,41,03,57,000,36,25,48,000,*76
$GPGSV,3,2,12,15,35,000,40,14,24,000,42,23,22,000,00,11,16,000,00*7E
$GPGSV,3,3,12,16,13,000,00,20,13,000,,22,04,000,38,21,00,000,00*73
$GPRMC,042018.735,V,0000.0000,N,00000.0000,E,0.00,0.00,121104,,*1D
$GPGGA,042019.735,0000.0000,N,00000.0000,E,0,00,50.0,0.0,M,0.0,M,0.0,0000*79
$GPGSA,A,1,,,,,,,,,,,,,50.0,50.0,50.0*05
$GPGSV,3,1,12,01,71,000,34,19,59,000,41,03,57,000,36,25,48,000,*76
$GPGSV,3,2,12,15,35,000,39,14,24,000,43,23,22,000,00,11,16,000,00*71
$GPGSV,3,3,12,16,13,000,00,20,13,000,,22,04,000,38,21,00,000,00*73
$GPRMC,042019.735,V,0000.0000,N,00000.0000,E,0.00,0.00,121104,,*1C
$GPGGA,042020.735,0000.0000,N,00000.0000,E,0,00,50.0,0.0,M,0.0,M,0.0,0000*73
$GPGSA,A,1,,,,,,,,,,,,,50.0,50.0,50.0*05
$GPGSV,3,1,12,01,71,000,34,19,59,000,41,03,57,000,36,25,48,000,*76
$GPGSV,3,2,12,15,35,000,40,14,24,000,42,23,22,000,00,11,16,000,00*7E
$GPGSV,3,3,12,16,13,000,00,20,13,000,,22,04,000,38,21,00,000,00*73
$GPRMC,042020.735,V,0000.0000,N,00000.0000,E,0.00,0.00,121104,,*16
$GPGGA,042021.735,0000.0000,N,00000.0000,E,0,00,50.0,0.0,M,0.0,M,0.0,0000*72
$GPGSA,A,1,,,,,,,,,,,,,50.0,50.0,50.0*05
$GPGSV,3,1,12,01,71,000,34,19,59,000,41,03,57,000,36,25,48,000,*76
$GPGSV,3,2,12,15,35,000,40,14,24,000,42,23,22,000,00,11,16,000,00*7E
$GPGSV,3,3,12,16,13,000,00,20,13,000,,22,04,000,38,21,00,000,00*73
$GPRMC,042021.735,V,0000.0000,N,00000.0000,E,0.00,0.00,121104,,*17
$GPGGA,042022.735,0000.0000,N,00000.0000,E,0,00,50.0,0.0,M,0.0,M,0.0,0000*71
$GPGSA,A,1,,,,,,,,,,,,,50.0,50.0,50.0*05
$GPGSV,3,1,12,01,71,000,35,19,59,000,41,03,57,000,36,25,48,000,*77
$GPGSV,3,2,12,15,35,000,40,14,24,000,42,23,22,000,00,11,16,000,00*7E
$GPGSV,3,3,12,16,13,000,00,20,13,000,,22,04,000,37,21,00,000,00*7C
$GPRMC,042022.735,V,0000.0000,N,00000.0000,E,0.00,0.00,121104,,*14
$GPGGA,042023.735,0000.0000,N,00000.0000,E,0,00,50.0,0.0,M,0.0,M,0.0,0000*70
$GPGSA,A,1,,,,,,,,,,,,,50.0,50.0,50.0*05
$GPGSV,3,1,12,01,71,000,35,19,59,000,41,03,57,000,36,25,48,000,*77
$GPGSV,3,2,12,15,35,000,40,14,24,000,42,23,22,000,00,11,16,000,00*7E
$GPGSV,3,3,12,16,13,000,00,20,13,000,,22,04,000,37,21,00,000,00*7C
$GPRMC,042023.735,V,0000.0000,N,00000.0000,E,0.00,0.00,121104,,*15
$GPGGA,042024.741,3526.8493,S,14905.2715,E,1,04,4.7,617.2,M,12.8,M,0.0,0000*6F
$GPGSA,A,3,14,01,19,22,,,,,,,,,6.0,4.7,3.7*3F
$GPGSV,3,1,12,01,71,000,34,19,59,000,41,03,57,000,36,25,48,000,*76
$GPGSV,3,2,12,15,35,000,40,14,24,000,42,23,22,000,00,11,16,000,00*7E
$GPGSV,3,3,12,16,13,000,00,20,13,000,,22,04,000,37,21,00,000,00*7C
$GPRMC,042024.741,A,3526.8493,S,14905.2715,E,0.27,205.61,121104,,*12
$GPGGA,042025.741,3526.8475,S,14905.2725,E,1,04,4.7,616.9,M,12.8,M,0.0,0000*6F
$GPGSA,A,3,14,01,19,22,,,,,,,,,6.0,4.7,3.7*3F
$GPGSV,3,1,09,14,64,148,42,01,57,297,35,15,38,037,40,22,37,107,37*7E
$GPGSV,3,2,09,25,31,009,00,19,30,292,41,11,27,228,,03,16,322,36*75
$GPGSV,3,3,09,18,08,091,*49
$GPRMC,042025.741,A,3526.8475,S,14905.2725,E,0.00,205.61,121104,,*1D
$GPGGA,042026.741,3526.8469,S,14905.2733,E,1,04,4.7,616.9,M,12.8,M,0.0,0000*66
$GPGSA,A,3,14,01,19,22,,,,,,,,,6.0,4.7,3.7*3F
$GPGSV,3,1,09,14,64,148,42,01,57,297,34,15,38,037,40,22,37,107,37*7F
$GPGSV,3,2,09,25,31,009,00,19,30,292,41,11,27,228,00,03,16,322,35*76
$GPGSV,3,3,09,18,08,091,00*49
$GPRMC,042026.741,A,3526.8469,S,14905.2733,E,0.00,205.61,121104,,*14
$GPGGA,042027.741,3526.8455,S,14905.2736,E,1,04,4.7,621.0,M,12.8,M,0.0,0000*60
$GPGSA,A,3,14,01,19,22,,,,,,,,,6.0,4.7,3.7*3F
$GPGSV,3,1,09,14,64,148,43,01,57,297,34,15,38,037,40,22,37,107,37*7E
$GPGSV,3,2,09,25,31,009,00,19,30,292,41,11,27,228,00,03,16,322,35*76
$GPGSV,3,3,09,18,08,091,00*49
$GPRMC,042027.741,A,3526.8455,S,14905.2736,E,0.00,205.61,121104,,*1F
$GPGGA,042028.741,3526.8475,S,14905.2726,E,1,04,4.7,618.9,M,12.8,M,0.0,0000*6F
$GPGSA,A,3,14,01,19,22,,,,,,,,,6.0,4.7,3.7*3F
$GPGSV,3,1,09,14,64,148,43,01,57,297,34,15,38,037,40,22,37,107,37*7E
$GPGSV,3,2,09,25,31,009,00,19,30,292,42,11,27,228,37,03,16,322,36*72
$GPGSV,3,3,09,18,08,091,00*49
$GPRMC,042028.741,A,3526.8475,S,14905.2726,E,0.00,205.61,121104,,*13
$GPGGA,042029.741,3526.8477,S,14905.2722,E,1,04,4.7,619.3,M,12.8,M,0.0,0000*63
$GPGSA,A,3,14,01,19,22,,,,,,,,,6.0,4.7,3.7*3F
$GPGSV,3,1,09,14,64,148,43,01,57,297,34,15,38,037,40,22,37,107,38*71
$GPGSV,3,2,09,25,31,009,00,19,30,292,41,11,27,228,37,03,16,322,36*71
$GPGSV,3,3,09,18,08,091,00*49
$GPRMC,042029.741,A,3526.8477,S,14905.2722,E,0.00,205.61,121104,,*14
$GPGGA,042030.741,3526.8512,S,14905.2702,E,1,06,1.7,618.8,M,12.8,M,0.0,0000*66
$GPGSA,A,3,03,15,14,01,19,22,,,,,,,3.2,1.7,2.7*3B
$GPGSV,3,1,09,14,64,148,43,01,57,297,35,15,38,037,41,22,37,107,38*71
$GPGSV,3,2,09,25,31,009,00,19,30,292,41,11,27,228,36,03,16,322,36*70
$GPGSV,3,3,09,18,08,091,00*49
$GPRMC,042030.741,A,3526.8512,S,14905.2702,E,0.00,205.61,121104,,*1C
$GPGGA,042031.741,3526.8520,S,14905.2698,E,1,06,1.7,617.9,M,12.8,M,0.0,0000*6A
$GPGSA,A,3,03,15,14,01,19,22,,,,,,,3.2,1.7,2.7*3B
$GPGSV,3,1,09,14,64,148,43,01,57,297,35,15,38,037,40,22,37,107,38*70
$GPGSV,3,2,09,25,31,009,00,19,30,292,41,11,27,228,36,03,16,322,36*70
$GPGSV,3,3,09,18,08,091,00*49
$GPRMC,042031.741,A,3526.8520,S,14905.2698,E,0.00,205.61,121104,,*1E
$GPGGA,042032.741,3526.8526,S,14905.2694,E,1,06,1.7,617.2,M,12.8,M,0.0,0000*68
$GPGSA,A,3,03,15,14,01,19,22,,,,,,,3.2,1.7,2.7*3B
$GPGSV,3,1,09,14,64,148,43,01,57,297,35,15,38,037,40,22,37,107,37*7F
$GPGSV,3,2,09,25,31,009,00,19,30,292,41,11,27,228,36,03,16,322,35*73
$GPGSV,3,3,09,18,08,091,00*49
$GPRMC,042032.741,A,3526.8526,S,14905.2694,E,0.00,205.61,121104,,*17
$GPGGA,042033.741,3526.8529,S,14905.2691,E,1,06,1.7,617.2,M,12.8,M,0.0,0000*63
$GPGSA,A,3,03,15,14,01,19,22,,,,,,,3.2,1.7,2.7*3B
$GPGSV,3,1,09,14,64,148,42,01,57,297,35,15,38,037,41,22,37,107,37*7F
$GPGSV,3,2,09,25,31,009,00,19,30,292,41,11,27,228,36,03,16,322,36*70
$GPGSV,3,3,09,18,08,091,00*49
$GPRMC,042033.741,A,3526.8529,S,14905.2691,E,0.00,205.61,121104,,*1C
$GPGGA,042034.741,3526.8533,S,14905.2691,E,1,06,1.7,615.9,M,12.8,M,0.0,0000*66
$GPGSA,A,3,03,15,14,01,19,22,,,,,,,3.2,1.7,2.7*3B
$GPGSV,3,1,09,14,64,148,42,01,57,297,34,15,38,037,40,22,37,107,38*70
$GPGSV,3,2,09,25,31,009,00,19,30,292,41,11,27,228,37,03,16,322,36*71
$GPGSV,3,3,09,18,08,091,00*49
$GPRMC,042034.741,A,3526.8533,S,14905.2691,E,0.00,205.61,121104,,*10
$GPGGA,042035.741,3526.8534,S,14905.2691,E,1,06,1.7,614.9,M,12.8,M,0.0,0000*61
$GPGSA,A,3,03,15,14,01,19,22,,,,,,,3.2,1.7,2.7*3B
$GPGSV,3,1,09,14,64,148,42,01,57,297,34,15,38,037,39,22,37,107,38*7E
$GPGSV,3,2,09,25,31,009,00,19,30,292,41,11,27,228,36,03,16,322,36*70
$GPGSV,3,3,09,18,08,091,00*49
$GPRMC,042035.741,A,3526.8534,S,14905.2691,E,0.00,205.61,121104,,*16
$GPGGA,042036.741,3526.8533,S,14905.2691,E,1,07,1.4,614.9,M,12.8,M,0.0,0000*67
$GPGSA,A,3,03,15,14,01,25,19,22,,,,,,3.0,1.4,2.7*3D
$GPGSV,3,1,09,14,64,148,42,01,57,297,35,15,38,037,40,22,37,107,38*71
$GPGSV,3,2,09,25,31,009,33,19,30,292,41,11,27,228,36,03,16,322,36*70
$GPGSV,3,3,09,18,08,091,00*49
$GPRMC,042036.741,A,3526.8533,S,14905.2691,E,0.00,205.61,121104,,*12
$GPGGA,042037.741,3526.8533,S,14905.2691,E,1,07,1.4,614.9,M,12.8,M,0.0,0000*66
$GPGSA,A,3,03,15,14,01,25,19,22,,,,,,3.0,1.4,2.7*3D
$GPGSV,3,1,09,14,64,148,42,01,57,297,35,15,38,037,40,22,37,107,39*70
$GPGSV,3,2,09,25,31,009,33,19,30,292,42,11,27,228,36,03,16,322,36*73
$GPGSV,3,3,09,18,08,091,00*49
$GPRMC,042037.741,A,3526.8533,S,14905.2691,E,0.00,205.61,121104,,*13
$GPGGA,042038.741,3526.8532,S,14905.2691,E,1,07,1.4,614.9,M,12.8,M,0.0,0000*68
$GPGSA,A,3,03,15,14,01,25,19,22,,,,,,3.0,1.4,2.7*3D
$GPGSV,3,1,09,14,64,148,42,01,57,297,34,15,38,037,39,22,37,107,39*7F
$GPGSV,3,2,09,25,31,009,33,19,30,292,41,11,27,228,36,03,16,322,36*70
$GPGSV,3,3,09,18,08,091,00*49
$GPRMC,042038.741,A,3526.8532,S,14905.2691,E,0.00,205.61,121104,,*1D
$GPGGA,042039.740,3526.8532,S,14905.2691,E,1,07,1.4,615.1,M,12.8,M,0.0,0000*61
$GPGSA,A,3,03,15,14,01,25,19,22,,,,,,3.0,1.4,2.7*3D
$GPGSV,3,1,09,14,64,148,42,01,57,297,34,15,38,037,40,22,37,107,39*71
$GPGSV,3,2,09,25,31,009,34,19,30,292,41,11,27,228,36,03,16,322,36*77
$GPGSV,3,3,09,18,08,091,00*49
$GPRMC,042039.740,A,3526.8532,S,14905.2691,E,0.00,205.61,121104,,*1D
$GPGGA,042040.740,3526.8531,S,14905.2690,E,1,07,1.4,615.7,M,12.8,M,0.0,0000*6B
$GPGSA,A,3,03,15,14,01,25,19,22,,,,,,3.0,1.4,2.7*3D
$GPGSV,3,1,09,14,64,148,41,01,57,297,34,15,38,037,40,22,37,107,39*72
$GPGSV,3,2,09,25,31,009,33,19,30,292,40,11,27,228,36,03,16,322,36*71
$GPGSV,3,3,09,18,08,091,00*49
$GPRMC,042040.740,A,3526.8531,S,14905.2690,E,0.00,205.61,121104,,*11
$GPGGA,042041.740,3526.8530,S,14905.2690,E,1,07,1.4,616.4,M,12.8,M,0.0,0000*6B
$GPGSA,A,3,03,15,14,01,25,19,22,,,,,,3.0,1.4,2.7*3D
$GPGSV,3,1,09,14,64,148,42,01,57,297,34,15,38,037,40,22,37,107,38*70
$GPGSV,3,2,09,25,31,009,33,19,30,292,40,11,27,228,36,03,16,322,36*71
$GPGSV,3,3,09,18,08,091,00*49
$GPRMC,042041.740,A,3526.8530,S,14905.2690,E,0.00,205.61,121104,,*11
$GPGGA,042042.740,3526.8529,S,14905.2689,E,1,07,1.4,617.2,M,12.8,M,0.0,0000*6F
$GPGSA,A,3,03,15,14,01,25,19,22,,,,,,3.0,1.4,2.7*3D
$GPGSV,3,1,09,14,64,148,42,01,57,297,34,15,38,037,40,22,37,107,38*70
$GPGSV,3,2,09,25,31,009,33,19,30,292,41,11,27,228,37,03,16,322,36*71
$GPGSV,3,3,09,18,08,091,00*49
$GPRMC,042042.740,A,3526.8529,S,14905.2689,E,0.00,205.61,121104,,*12
$GPGGA,042043.740,3526.8528,S,14905.2688,E,1,07,1.4,617.8,M,12.8,M,0.0,0000*64
$GPGSA,A,3,03,15,14,01,25,19,22,,,,,,3.0,1.4,2.7*3D
$GPGSV,3,1,09,14,64,148,42,01,57,297,35,15,38,037,40,22,37,107,38*71
$GPGSV,3,2,09,25,31,009,33,19,30,292,41,11,27,228,36,03,16,322,36*70
$GPGSV,3,3,09,18,08,091,00*49
$GPRMC,042043.740,A,3526.8528,S,14905.2688,E,0.00,205.61,121104,,*13
$GPGGA,042044.740,3526.8528,S,14905.2688,E,1,07,1.4,618.3,M,12.8,M,0.0,0000*67
$GPGSA,A,3,03,15,14,01,25,19,22,,,,,,3.0,1.4,2.7*3D
$GPGSV,3,1,09,14,64,148,42,01,57,297,34,15,38,037,40,22,37,107,38*70
$GPGSV,3,2,09,25,31,009,33,19,30,292,41,11,27,228,37,03,16,322,36*71
$GPGSV,3,3,09,18,08,091,00*49
$GPRMC,042044.740,A,3526.8528,S,14905.2688,E,0.00,205.61,121104,,*14
$GPGGA,042045.740,3526.8527,S,14905.2687,E,1,07,1.4,618.7,M,12.8,M,0.0,0000*62
$GPGSA,A,3,03,15,14,01,25,19,22,,,,,,3.0,1.4,2.7*3D
$GPGSV,3,1,09,14,64,148,42,01,57,297,34,15,38,037,41,22,37,107,38*71
$GPGSV,3,2,09,25,31,009,34,19,30,292,41,11,27,228,37,03,16,322,36*76
$GPGSV,3,3,09,18,08,091,00*49
$GPRMC,042045.740,A,3526.8527,S,14905.2687,E,0.00,205.61,121104,,*15
$GPGGA,042046.740,3526.8526,S,14905.2688,E,1,07,1.4,619.1,M,12.8,M,0.0,0000*68
$GPGSA,A,3,03,15,14,01,25,19,22,,,,,,3.0,1.4,2.7*3D
$GPGSV,3,1,09,14,64,148,42,01,57,297,34,15,38,037,41,22,37,107,39*70
$GPGSV,3,2,09,25,31,009,34,19,30,292,41,11,27,228,37,03,16,322,36*76
$GPGSV,3,3,09,18,08,091,00*49
$GPRMC,042046.740,A,3526.8526,S,14905.2688,E,0.00,205.61,121104,,*18
$GPGGA,042047.740,3526.8526,S,14905.2687,E,1,07,1.4,619.6,M,12.8,M,0.0,0000*61
$GPGSA,A,3,03,15,14,01,25,19,22,,,,,,3.0,1.4,2.7*3D
$GPGSV,3,1,09,14,64,148,42,01,57,297,33,15,38,037,41,22,37,107,39*77
$GPGSV,3,2,09,25,31,009,34,19,30,292,41,11,27,228,37,03,16,322,35*75
$GPGSV,3,3,09,18,08,091,00*49
$GPRMC,042047.740,A,3526.8526,S,14905.2687,E,0.00,205.61,121104,,*16
$GPGGA,042048.740,3526.8525,S,14905.2687,E,1,07,1.4,620.2,M,12.8,M,0.0,0000*63
$GPGSA,A,3,03,15,14,01,25,19,22,,,,,,3.0,1.4,2.7*3D
$GPGSV,3,1,09,14,64,148,42,01,57,297,33,15,38,036,41,22,37,106,39*77
$GPGSV,3,2,09,25,31,009,33,19,30,292,41,11,27,228,37,03,16,323,36*70
$GPGSV,3,3,09,18,08,091,00*49
$GPRMC,042048.740,A,3526.8525,S,14905.2687,E,0.00,205.61,121104,,*1A
$GPGGA,042049.740,3526.8525,S,14905.2686,E,1,07,1.4,620.6,M,12.8,M,0.0,0000*67
$GPGSA,A,3,03,15,14,01,25,19,22,,,,,,3.0,1.4,2.7*3D
$GPGSV,3,1,09,14,64,148,42,01,57,297,33,15,38,036,41,22,37,106,39*77
$GPGSV,3,2,09,25,31,009,34,19,30,292,41,11,27,228,37,03,16,323,36*77
$GPGSV,3,3,09,18,08,091,00*49
$GPRMC,042049.740,A,3526.8525,S,14905.2686,E,0.00,205.61,121104,,*1A
$GPGGA,042050.740,3526.8525,S,14905.2685,E,1,07,1.4,620.8,M,12.8,M,0.0,0000*62
$GPGSA,A,3,03,15,14,01,25,19,22,,,,,,3.0,1.4,2.7*3D
$GPGSV,3,1,09,14,64,148,42,01,57,297,33,15,38,036,40,22,37,106,38*77
$GPGSV,3,2,09,25,31,009,34,19,30,292,41,11,27,228,37,03,16,323,36*77
$GPGSV,3,3,09,18,08,091,00*49
$GPRMC,042050.740,A,3526.8525,S,14905.2685,E,0.00,205.61,121104,,*11
$GPGGA,042051.740,3526.8525,S,14905.2685,E,1,07,1.4,621.0,M,12.8,M,0.0,0000*6A
$GPGSA,A,3,03,15,14,01,25,19,22,,,,,,3.0,1.4,2.7*3D
$GPGSV,3,1,09,14,64,148,41,01,57,297,33,15,38,036,40,22,37,106,38*74
$GPGSV,3,2,09,25,31,009,35,19,30,292,41,11,27,228,37,03,16,323,35*75
$GPGSV,3,3,09,18,08,091,00*49
$GPRMC,042051.740,A,3526.8525,S,14905.2685,E,0.00,205.61,121104,,*10
$GPGGA,042052.740,3526.8526,S,14905.2685,E,1,07,1.4,621.0,M,12.8,M,0.0,0000*6A
$GPGSA,A,3,03,15,14,01,25,19,22,,,,,,3.0,1.4,2.7*3D
$GPGSV,3,1,09,14,64,148,41,01,57,297,33,15,38,036,39,22,37,106,39*7B
$GPGSV,3,2,09,25,31,009,33,19,30,292,41,11,27,228,36,03,16,323,36*71
$GPGSV,3,3,09,18,08,091,00*49
$GPRMC,042052.740,A,3526.8526,S,14905.2685,E,0.00,205.61,121104,,*10
$GPGGA,042053.740,3526.8527,S,14905.2686,E,1,07,1.4,621.0,M,12.8,M,0.0,0000*69
$GPGSA,A,3,03,15,14,01,25,19,22,,,,,,3.0,1.4,2.7*3D
$GPGSV,3,1,09,14,64,148,41,01,57,297,34,15,38,036,40,22,37,106,39*72
$GPGSV,3,2,09,25,31,009,34,19,30,292,41,11,27,228,36,03,16,323,36*76
$GPGSV,3,3,09,18,08,091,00*49
$GPRMC,042053.740,A,3526.8527,S,14905.2686,E,0.00,205.61,121104,,*13
$GPGGA,042054.740,3526.8527,S,14905.2686,E,1,07,1.4,621.0,M,12.8,M,0.0,0000*6E
$GPGSA,A,3,03,15,14,01,25,19,22,,,,,,3.0,1.4,2.7*3D
$GPGSV,3,1,09,14,64,148,41,01,57,297,34,15,38,036,39,22,37,106,39*7C
$GPGSV,3,2,09,25,31,009,34,19,30,292,41,11,27,228,37,03,16,323,36*77
$GPGSV,3,3,09,18,08,091,00*49
$GPRMC,042054.740,A,3526.8527,S,14905.2686,E,0.00,205.61,121104,,*14
$GPGGA,042055.740,3526.8527,S,14905.2685,E,1,07,1.4,621.1,M,12.8,M,0.0,0000*6D
$GPGSA,A,3,03,15,14,01,25,19,22,,,,,,3.0,1.4,2.7*3D
$GPGSV,3,1,09,14,64,148,41,01,57,297,34,15,38,036,40,22,37,106,39*72
$GPGSV,3,2,09,25,31,009,35,19,30,292,41,11,27,228,36,03,16,323,36*77
$GPGSV,3,3,09,18,08,091,00*49
$GPRMC,042055.740,A,3526.8527,S,14905.2685,E,0.00,205.61,121104,,*16
$GPGGA,042056.740,3526.8527,S,14905.2685,E,1,07,1.4,621.3,M,12.8,M,0.0,0000*6C
$GPGSA,A,3,03,15,14,01,25,19,22,,,,,,3.0,1.4,2.7*3D
$GPGSV,3,1,09,14,64,148,41,01,57,297,33,15,38,036,40,22,37,106,39*75
$GPGSV,3,2,09,25,31,009,34,19,30,292,41,11,27,228,37,03,16,323,35*74
$GPGSV,3,3,09,18,08,091,00*49
$GPRMC,042056.740,A,3526.8527,S,14905.2685,E,0.00,205.61,121104,,*15
$GPGGA,042057.739,3526.8527,S,14905.2686,E,1,07,1.4,621.5,M,12.8,M,0.0,0000*66
$GPGSA,A,3,03,15,14,01,25,19,22,,,,,,3.0,1.4,2.7*3D
$GPGSV,3,1,09,14,64,148,41,01,57,297,33,15,38,036,40,22,37,106,38*74
$GPGSV,3,2,09,25,31,009,34,19,30,292,41,11,27,228,37,03,16,323,35*74
$GPGSV,3,3,09,18,08,091,00*49
$GPRMC,042057.739,A,3526.8527,S,14905.2686,E,0.00,205.61,121104,,*19
$GPGGA,042058.739,3526.8527,S,14905.2686,E,1,07,1.4,621.6,M,12.8,M,0.0,0000*6A
$GPGSA,A,3,03,15,14,01,25,19,22,,,,,,3.0,1.4,2.7*3D
$GPGSV,3,1,09,14,64,148,41,01,57,297,33,15,38,036,40,22,37,106,38*74
$GPGSV,3,2,09,25,31,009,33,19,30,292,41,11,27,228,36,03,16,323,36*71
$GPGSV,3,3,09,18,08,091,00*49
$GPRMC,042058.739,A,3526.8527,S,14905.2686,E,0.00,205.61,121104,,*16
$GPGGA,042059.739,3526.8527,S,14905.2687,E,1,07,1.4,621.7,M,12.8,M,0.0,0000*6B
$GPGSA,A,3,03,15,14,01,25,19,22,,,,,,3.0,1.4,2.7*3D
$GPGSV,3,1,09,14,64,148,41,01,57,297,34,15,38,036,40,22,37,106,38*73
$GPGSV,3,2,09,25,31,009,33,19,30,292,40,11,27,228,36,03,16,323,36*70
$GPGSV,3,3,09,18,08,091,00*49
$GPRMC,042059.739,A,3526.8527,S,14905.2687,E,0.00,205.61,121104,,*16
$GPGGA,042100.739,3526.8528,S,14905.2686,E,1,08,1.0,621.6,M,12.8,M,0.0,0000*62
$GPGSA,A,3,03,15,14,01,25,11,19,22,,,,,2.4,1.0,2.2*39
$GPGSV,3,1,09,14,64,148,41,01,57,297,34,15,38,036,40,22,37,106,37*7C
$GPGSV,3,2,09,25,32,009,34,19,30,292,40,11,27,228,37,03,16,323,36*75
$GPGSV,3,3,09,18,08,091,00*49
$GPRMC,042100.739,A,3526.8528,S,14905.2686,E,0.00,205.61,121104,,*15
$GPGGA,042101.739,3526.8529,S,14905.2685,E,1,08,1.0,621.1,M,12.8,M,0.0,0000*66
$GPGSA,A,3,03,15,14,01,25,11,19,22,,,,,2.4,1.0,2.2*39
$GPGSV,3,1,09,14,64,148,41,01,57,297,34,15,38,036,41,22,37,106,37*7D
$GPGSV,3,2,09,25,32,009,35,19,30,292,41,11,27,228,37,03,16,323,36*75
$GPGSV,3,3,09,18,08,091,00*49
$GPRMC,042101.739,A,3526.8529,S,14905.2685,E,0.00,205.61,121104,,*16
$GPGGA,042102.739,3526.8531,S,14905.2685,E,1,08,1.0,620.6,M,12.8,M,0.0,0000*6A
$GPGSA,A,3,03,15,14,01,25,11,19,22,,,,,2.4,1.0,2.2*39
$GPGSV,3,1,09,14,64,148,41,01,57,297,34,15,38,036,40,22,37,106,38*73
$GPGSV,3,2,09,25,32,009,34,19,30,292,41,11,27,228,37,03,16,323,36*74
$GPGSV,3,3,09,18,08,091,00*49
$GPRMC,042102.739,A,3526.8531,S,14905.2685,E,0.00,205.61,121104,,*1C
$GPGGA,042103.739,3526.8534,S,14905.2685,E,1,08,1.0,620.2,M,12.8,M,0.0,0000*6A
$GPGSA,A,3,03,15,14,01,25,11,19,22,,,,,2.4,1.0,2.2*39
$GPGSV,3,1,09,14,64,148,41,01,57,297,34,15,38,036,40,22,37,106,37*7C
$GPGSV,3,2,09,25,32,009,34,19,30,292,42,11,27,228,37,03,16,323,35*74
$GPGSV,3,3,09,18,08,091,00*49
$GPRMC,042103.739,A,3526.8534,S,14905.2685,E,0.00,205.61,121104,,*18
$GPGGA,042104.739,3526.8536,S,14905.2684,E,1,08,1.0,619.8,M,12.8,M,0.0,0000*6E
$GPGSA,A,3,03,15,14,01,25,11,19,22,,,,,2.4,1.0,2.2*39
$GPGSV,3,1,09,14,64,148,41,01,57,297,33,15,38,036,40,22,37,106,38*74
$GPGSV,3,2,09,25,32,009,33,19,30,292,42,11,27,228,37,03,16,323,36*70
$GPGSV,3,3,09,18,08,091,00*49
$GPRMC,042104.739,A,3526.8536,S,14905.2684,E,0.00,205.61,121104,,*1C
$GPGGA,042105.739,3526.8538,S,14905.2684,E,1,08,1.0,619.3,M,12.8,M,0.0,0000*6A
$GPGSA,A,3,03,15,14,01,25,11,19,22,,,,,2.4,1.0,2.2*39
$GPGSV,3,1,09,14,64,148,40,01,57,297,33,15,38,036,40,22,37,106,38*75
$GPGSV,3,2,09,25,32,009,34,19,30,292,41,11,27,228,36,03,16,323,35*76
$GPGSV,3,3,09,18,08,091,00*49
$GPRMC,042105.739,A,3526.8538,S,14905.2684,E,0.00,205.61,121104,,*13
$GPGGA,042106.739,3526.8541,S,14905.2684,E,1,08,1.0,618.7,M,12.8,M,0.0,0000*62
$GPGSA,A,3,03,15,14,01,25,11,19,22,,,,,2.4,1.0,2.2*39
$GPGSV,3,1,09,14,64,148,41,01,57,297,34,15,38,036,40,22,37,106,37*7C
$GPGSV,3,2,09,25,32,009,34,19,30,292,41,11,27,228,38,03,16,323,36*7B
$GPGSV,3,3,09,18,08,091,00*49
$GPRMC,042106.739,A,3526.8541,S,14905.2684,E,0.00,205.61,121104,,*1E
$GPGGA,042107.739,3526.8543,S,14905.2684,E,1,08,1.0,618.1,M,12.8,M,0.0,0000*67
$GPGSA,A,3,03,15,14,01,25,11,19,22,,,,,2.4,1.0,2.2*39
$GPGSV,3,1,09,14,64,148,40,01,57,297,33,15,38,036,40,22,37,106,38*75
$GPGSV,3,2,09,25,32,009,33,19,30,292,41,11,27,228,38,03,16,323,36*7C
$GPGSV,3,3,09,18,08,091,00*49
$GPRMC,042107.739,A,3526.8543,S,14905.2684,E,0.00,205.61,121104,,*1D
$GPGGA,042108.739,3526.8545,S,14905.2684,E,1,08,1.0,617.6,M,12.8,M,0.0,0000*66
$GPGSA,A,3,03,15,14,01,25,11,19,22,,,,,2.4,1.0,2.2*39
$GPGSV,3,1,09,14,64,148,41,01,57,297,34,15,38,036,40,22,37,106,38*73
$GPGSV,3,2,09,25,32,009,33,19,30,292,41,11,27,228,38,03,16,323,35*7F
$GPGSV,3,3,09,18,08,091,00*49
$GPRMC,042108.739,A,3526.8545,S,14905.2684,E,0.00,205.61,121104,,*14
$GPGGA,042109.739,3526.8546,S,14905.2685,E,1,08,1.0,617.2,M,12.8,M,0.0,0000*61
$GPGSA,A,3,03,15,14,01,25,11,19,22,,,,,2.4,1.0,2.2*39
$GPGSV,3,1,09,14,64,148,40,01,57,297,34,15,38,036,39,22,37,106,37*73
$GPGSV,3,2,09,25,32,009,33,19,30,292,41,11,27,228,38,03,16,323,36*7C
$GPGSV,3,3,09,18,08,091,00*49
$GPRMC,042109.739,A,3526.8546,S,14905.2685,E,0.00,205.61,121104,,*17
$GPGGA,042110.739,3526.8548,S,14905.2685,E,1,08,1.0,616.6,M,12.8,M,0.0,0000*62
$GPGSA,A,3,03,15,14,01,25,11,19,22,,,,,2.4,1.0,2.2*39
$GPGSV,3,1,09,14,64,148,40,01,57,297,34,15,38,036,40,22,37,106,37*7D
$GPGSV,3,2,09,25,32,009,33,19,30,292,40,11,27,228,38,03,16,323,37*7C
$GPGSV,3,3,09,18,08,091,00*49
$GPRMC,042110.739,A,3526.8548,S,14905.2685,E,0.00,205.61,121104,,*11
$GPGGA,042111.739,3526.8549,S,14905.2686,E,1,08,1.0,616.4,M,12.8,M,0.0,0000*63
$GPGSA,A,3,03,15,14,01,25,11,19,22,,,,,2.4,1.0,2.2*39
$GPGSV,3,1,09,14,64,148,40,01,57,297,34,15,38,036,40,22,37,106,38*72
$GPGSV,3,2,09,25,32,009,34,19,30,292,41,11,27,228,38,03,16,323,37*7A
$GPGSV,3,3,09,18,08,091,00*49
$GPRMC,042111.739,A,3526.8549,S,14905.2686,E,0.00,205.61,121104,,*12
$GPGGA,042112.739,3526.8550,S,14905.2687,E,1,08,1.0,616.0,M,12.8,M,0.0,0000*6D
$GPGSA,A,3,03,15,14,01,25,11,19,22,,,,,2.4,1.0,2.2*39
$GPGSV,3,1,09,14,64,148,40,01,57,297,35,15,38,036,40,22,37,106,39*72
$GPGSV,3,2,09,25,32,009,34,19,30,292,41,11,27,228,38,03,16,323,35*78
$GPGSV,3,3,09,18,08,091,00*49
$GPRMC,042112.739,A,3526.8550,S,14905.2687,E,0.00,205.61,121104,,*18
$GPGGA,042113.739,3526.8551,S,14905.2688,E,1,08,1.0,615.7,M,12.8,M,0.0,0000*66
$GPGSA,A,3,03,15,14,01,25,11,19,22,,,,,2.4,1.0,2.2*39
$GPGSV,3,1,09,14,64,148,40,01,57,297,34,15,38,036,40,22,37,106,39*73
$GPGSV,3,2,09,25,32,009,35,19,30,292,39,11,27,228,38,03,16,323,35*76
$GPGSV,3,3,09,18,08,091,00*49
$GPRMC,042113.739,A,3526.8551,S,14905.2688,E,0.00,205.61,121104,,*17
$GPGGA,042114.739,3526.8551,S,14905.2688,E,1,08,1.0,615.5,M,12.8,M,0.0,0000*63
$GPGSA,A,3,03,15,14,01,25,11,19,22,,,,,2.4,1.0,2.2*39
$GPGSV,3,1,09,14,64,148,40,01,57,297,35,15,38,036,40,22,37,106,39*72
$GPGSV,3,2,09,25,32,009,35,19,30,292,40,11,27,228,37,03,16,323,35*77
$GPGSV,3,3,09,18,08,091,00*49
$GPRMC,042114.739,A,3526.8551,S,14905.2688,E,0.00,205.61,121104,,*10
$GPGGA,042115.738,3526.8550,S,14905.2689,E,1,08,1.0,615.4,M,12.8,M,0.0,0000*62
$GPGSA,A,3,03,15,14,01,25,11,19,22,,,,,2.4,1.0,2.2*39
$GPGSV,3,1,09,14,64,148,40,01,57,297,34,15,38,036,40,22,37,106,39*73
$GPGSV,3,2,09,25,32,009,34,19,30,292,40,11,27,228,37,03,16,323,36*75
$GPGSV,3,3,09,18,08,091,00*49
$GPRMC,042115.738,A,3526.8550,S,14905.2689,E,0.00,205.61,121104,,*10
$GPGGA,042116.738,3526.8550,S,14905.2689,E,1,08,1.0,615.4,M,12.8,M,0.0,0000*61
$GPGSA,A,3,03,15,14,01,25,11,19,22,,,,,2.4,1.0,2.2*39
$GPGSV,3,1,09,14,64,148,40,01,57,297,34,15,38,036,40,22,37,106,39*73
$GPGSV,3,2,09,25,32,009,33,19,30,292,41,11,27,228,37,03,16,323,36*73
$GPGSV,3,3,09,18,08,091,00*49
$GPRMC,042116.738,A,3526.8550,S,14905.2689,E,0.00,205.61,121104,,*13
$GPGGA,042117.738,3526.8549,S,14905.2688,E,1,08,1.0,615.5,M,12.8,M,0.0,0000*68
$GPGSA,A,3,03,15,14,01,25,11,19,22,,,,,2.4,1.0,2.2*39
$GPGSV,3,1,09,14,64,148,40,01,57,297,35,15,38,036,40,22,37,106,38*73
$GPGSV,3,2,09,25,32,009,33,19,30,292,41,11,27,228,37,03,16,323,36*73
$GPGSV,3,3,09,18,08,091,00*49
$GPRMC,042117.738,A,3526.8549,S,14905.2688,E,0.00,205.61,121104,,*1B
$GPGGA,042118.738,3526.8548,S,14905.2688,E,1,08,1.0,615.6,M,12.8,M,0.0,0000*65
$GPGSA,A,3,03,15,14,01,25,11,19,22,,,,,2.4,1.0,2.2*39
$GPGSV,3,1,09,14,63,148,40,01,58,296,35,15,38,036,41,22,37,106,38*7B
$GPGSV,3,2,09,25,32,009,34,19,30,292,41,11,27,228,38,03,16,323,35*78
$GPGSV,3,3,09,18,08,091,00*49
$GPRMC,042118.738,A,3526.8548,S,14905.2688,E,0.00,205.61,121104,,*15
$GPGGA,042119.738,3526.8547,S,14905.2689,E,1,08,1.0,615.8,M,12.8,M,0.0,0000*64
$GPGSA,A,3,03,15,14,01,25,11,19,22,,,,,2.4,1.0,2.2*39
$GPGSV,3,1,09,14,63,148,40,01,58,296,35,15,38,036,40,22,37,106,38*7A
$GPGSV,3,2,09,25,32,009,34,19,30,292,41,11,27,228,37,03,16,323,35*77
$GPGSV,3,3,09,18,08,091,00*49
$GPRMC,042119.738,A,3526.8547,S,14905.2689,E,0.00,205.61,121104,,*1A
$GPGGA,042120.738,3526.8546,S,14905.2688,E,1,08,1.0,616.0,M,12.8,M,0.0,0000*65
$GPGSA,A,3,03,15,14,01,25,11,19,22,,,,,2.4,1.0,2.2*39
$GPGSV,3,1,09,14,63,148,40,01,58,296,35,15,38,036,40,22,37,106,39*7B
$GPGSV,3,2,09,25,32,009,34,19,30,292,41,11,27,228,37,03,16,323,35*77
$GPGSV,3,3,09,18,08,091,00*49
$GPRMC,042120.738,A,3526.8546,S,14905.2688,E,0.00,205.61,121104,,*10
$GPGGA,042121.738,3526.8546,S,14905.2688,E,1,08,1.0,616.1,M,12.8,M,0.0,0000*65
$GPGSA,A,3,03,15,14,01,25,11,19,22,,,,,2.4,1.0,2.2*39
$GPGSV,3,1,09,14,63,148,40,01,58,296,35,15,38,036,40,22,37,106,39*7B
$GPGSV,3,2,09,25,32,009,33,19,30,292,41,11,27,228,37,03,16,323,35*70
$GPGSV,3,3,09,18,08,091,00*49
$GPRMC,042121.738,A,3526.8546,S,14905.2688,E,0.00,205.61,121104,,*11
$GPGGA,042122.738,3526.8545,S,14905.2688,E,1,08,1.0,616.0,M,12.8,M,0.0,0000*64
$GPGSA,A,3,03,15,14,01,25,11,19,22,,,,,2.4,1.0,2.2*39
$GPGSV,3,1,09,14,63,148,40,01,58,296,34,15,38,036,40,22,37,106,39*7A
$GPGSV,3,2,09,25,32,009,33,19,30,292,41,11,27,228,37,03,16,323,37*72
$GPGSV,3,3,09,18,08,091,00*49
$GPRMC,042122.738,A,3526.8545,S,14905.2688,E,0.00,205.61,121104,,*11
$GPGGA,042123.738,3526.8545,S,14905.2689,E,1,08,1.0,616.0,M,12.8,M,0.0,0000*64
$GPGSA,A,3,03,15,14,01,25,11,19,22,,,,,2.4,1.0,2.2*39
$GPGSV,3,1,09,14,63,148,41,01,58,296,36,15,38,036,40,22,37,106,38*78
$GPGSV,3,2,09,25,32,009,33,19,30,292,41,11,27,228,38,03,16,323,36*7C
$GPGSV,3,3,09,18,08,091,00*49
$GPRMC,042123.738,A,3526.8545,S,14905.2689,E,0.00,205.61,121104,,*11
$GPGGA,042124.738,3526.8544,S,14905.2689,E,1,08,1.0,615.7,M,12.8,M,0.0,0000*66
$GPGSA,A,3,03,15,14,01,25,11,19,22,,,,,2.4,1.0,2.2*39
$GPGSV,3,1,09,14,63,148,40,01,58,296,34,15,38,036,40,22,37,106,38*7B
$GPGSV,3,2,09,25,32,009,33,19,30,292,41,11,27,228,38,03,16,323,36*7C
$GPGSV,3,3,09,18,08,091,00*49
$GPRMC,042124.738,A,3526.8544,S,14905.2689,E,0.00,205.61,121104,,*17
$GPGGA,042125.738,3526.8543,S,14905.2689,E,1,08,1.0,615.5,M,12.8,M,0.0,0000*62
$GPGSA,A,3,03,15,14,01,25,11,19,22,,,,,2.4,1.0,2.2*39
$GPGSV,3,1,09,14,63,148,41,01,58,296,35,15,38,036,40,22,37,106,38*7B
$GPGSV,3,2,09,25,32,009,33,19,30,292,41,11,27,228,39,03,16,323,36*7D
$GPGSV,3,3,09,18,08,091,00*49
$GPRMC,042125.738,A,3526.8543,S,14905.2689,E,0.00,205.61,121104,,*11
$GPGGA,042126.738,3526.8542,S,14905.2689,E,1,08,1.0,615.1,M,12.8,M,0.0,0000*64
$GPGSA,A,3,03,15,14,01,25,11,19,22,,,,,2.4,1.0,2.2*39
$GPGSV,3,1,09,14,63,148,41,01,58,296,35,15,38,036,40,22,37,106,38*7B
$GPGSV,3,2,09,25,32,009,33,19,30,292,41,11,27,228,38,03,16,323,35*7F
$GPGSV,3,3,09,18,08,091,00*49
$GPRMC,042126.738,A,3526.8542,S,14905.2689,E,0.00,205.61,121104,,*13
$GPGGA,042127.738,3526.8541,S,14905.2689,E,1,08,1.0,614.9,M,12.8,M,0.0,0000*6F
$GPGSA,A,3,03,15,14,01,25,11,19,22,,,,,2.4,1.0,2.2*39
$GPGSV,3,1,09,14,63,148,40,01,58,296,35,15,38,036,40,22,37,106,39*7B
$GPGSV,3,2,09,25,32,009,33,19,30,292,41,11,27,228,38,03,16,323,35*7F
$GPGSV,3,3,09,18,08,091,00*49
$GPRMC,042127.738,A,3526.8541,S,14905.2689,E,0.00,205.61,121104,,*11
$GPGGA,042128.738,3526.8541,S,14905.2688,E,1,08,1.0,614.9,M,12.8,M,0.0,0000*61
$GPGSA,A,3,03,15,14,01,25,11,19,22,,,,,2.4,1.0,2.2*39
$GPGSV,3,1,09,14,63,148,40,01,58,296,36,15,38,036,40,22,37,106,39*78
$GPGSV,3,2,09,25,32,009,34,19,30,292,41,11,27,228,38,03,16,323,36*7B
$GPGSV,3,3,09,18,08,091,00*49
$GPRMC,042128.738,A,3526.8541,S,14905.2688,E,0.00,205.61,121104,,*1F
$GPGGA,042129.738,3526.8540,S,14905.2688,E,1,08,1.0,614.7,M,12.8,M,0.0,0000*6F
$GPGSA,A,3,03,15,14,01,25,11,19,22,,,,,2.4,1.0,2.2*39
$GPGSV,3,1,09,14,63,148,40,01,58,296,35,15,38,036,40,22,37,106,39*7B
$GPGSV,3,2,09,25,32,009,33,19,30,292,41,11,27,228,38,03,16,323,36*7C
$GPGSV,3,3,09,18,08,091,00*49
$GPRMC,042129.738,A,3526.8540,S,14905.2688,E,0.00,205.61,121104,,*1F
$GPGGA,042130.738,3526.8540,S,14905.2687,E,1,08,1.0,614.5,M,12.8,M,0.0,0000*6A
$GPGSA,A,3,03,15,14,01,25,11,19,22,,,,,2.4,1.0,2.2*39
$GPGSV,3,1,09,14,63,148,39,01,58,296,35,15,38,036,40,22,37,106,40*7B
$GPGSV,3,2,09,25,32,009,32,19,30,292,41,11,27,228,37,03,16,323,36*72
$GPGSV,3,3,09,18,08,091,00*49
$GPRMC,042130.738,A,3526.8540,S,14905.2687,E,0.00,205.61,121104,,*18
$GPGGA,042131.738,3526.8540,S,14905.2687,E,1,08,1.0,614.2,M,12.8,M,0.0,0000*6C
$GPGSA,A,3,03,15,14,01,25,11,19,22,,,,,2.4,1.0,2.2*39
$GPGSV,3,1,09,14,63,148,40,01,58,296,36,15,38,036,40,22,37,106,39*78
$GPGSV,3,2,09,25,32,009,31,19,30,292,41,11,27,228,38,03,16,323,35*7D
$GPGSV,3,3,09,18,08,091,00*49
$GPRMC,042131.738,A,3526.8540,S,14905.2687,E,0.00,205.61,121104,,*19
$GPGGA,042132.738,3526.8540,S,14905.2686,E,1,08,1.0,614.0,M,12.8,M,0.0,0000*6C
$GPGSA,A,3,03,15,14,01,25,11,19,22,,,,,2.4,1.0,2.2*39
$GPGSV,3,1,09,14,63,148,40,01,58,296,36,15,38,036,40,22,37,106,39*78
$GPGSV,3,2,09,25,32,009,31,19,30,292,40,11,27,228,38,03,16,323,36*7F
$GPGSV,3,3,09,18,08,091,00*49
$GPRMC,042132.738,A,3526.8540,S,14905.2686,E,0.00,205.61,121104,,*1B
$GPGGA,042133.737,3526.8539,S,14905.2686,E,1,08,1.0,613.8,M,12.8,M,0.0,0000*63
$GPGSA,A,3,03,15,14,01,25,11,19,22,,,,,2.4,1.0,2.2*39
$GPGSV,3,1,09,14,63,148,40,01,58,296,36,15,38,036,40,22,37,106,39*78
$GPGSV,3,2,09,25,32,009,32,19,30,292,41,11,27,228,37,03,16,323,35*71
$GPGSV,3,3,09,18,08,091,00*49
$GPRMC,042133.737,A,3526.8539,S,14905.2686,E,0.00,205.61,121104,,*1B
$GPGGA,042134.737,3526.8539,S,14905.2685,E,1,08,1.0,613.7,M,12.8,M,0.0,0000*68
$GPGSA,A,3,03,15,14,01,25,11,19,22,,,,,2.4,1.0,2.2*39
$GPGSV,3,1,09,14,63,148,40,01,58,296,36,15,38,036,40,22,37,106,39*78
$GPGSV,3,2,09,25,32,009,33,19,30,292,42,11,27,228,36,03,16,323,36*71
$GPGSV,3,3,09,18,08,091,00*49
$GPRMC,042134.737,A,3526.8539,S,14905.2685,E,0.00,205.61,121104,,*1F
$GPGGA,042135.737,3526.8539,S,14905.2685,E,1,08,1.0,613.7,M,12.8,M,0.0,0000*69
$GPGSA,A,3,03,15,14,01,25,11,19,22,,,,,2.4,1.0,2.2*39
$GPGSV,3,1,09,14,63,148,40,01,58,296,37,15,38,036,40,22,37,106,38*78
$GPGSV,3,2,09,25,32,009,32,19,30,292,42,11,27,228,36,03,16,323,35*73
$GPGSV,3,3,09,18,08,091,00*49
$GPRMC,042135.737,A,3526.8539,S,14905.2685,E,0.00,205.61,121104,,*1E
$GPGGA,042136.737,3526.8538,S,14905.2685,E,1,08,1.0,613.7,M,12.8,M,0.0,0000*6B
$GPGSA,A,3,03,15,14,01,25,11,19,22,,,,,2.4,1.0,2.2*39
$GPGSV,3,1,09,14,63,148,40,01,58,296,37,15,38,036,40,22,37,106,37*77
$GPGSV,3,2,09,25,32,009,31,19,30,292,42,11,27,228,37,03,16,323,36*72
$GPGSV,3,3,09,18,08,091,00*49
$GPRMC,042136.737,A,3526.8538,S,14905.2685,E,0.00,205.61,121104,,*1C
$GPGGA,042137.737,3526.8538,S,14905.2685,E,1,08,1.0,613.5,M,12.8,M,0.0,0000*68
$GPGSA,A,3,03,15,14,01,25,11,19,22,,,,,2.4,1.0,2.2*39
$GPGSV,3,1,09,14,63,148,40,01,58,296,37,15,38,036,40,22,37,106,37*77
$GPGSV,3,2,09,25,32,009,29,19,30,292,41,11,27,228,37,03,16,323,36*78
$GPGSV,3,3,09,18,08,091,00*49
$GPRMC,042137.737,A,3526.8538,S,14905.2685,E,0.00,205.61,121104,,*1D
$GPGGA,042138.737,3526.8539,S,14905.2685,E,1,08,1.0,613.3,M,12.8,M,0.0,0000*60
$GPGSA,A,3,03,15,14,01,25,11,19,22,,,,,2.4,1.0,2.2*39
$GPGSV,3,1,09,14,63,148,40,01,58,296,37,15,38,036,40,22,37,106,37*77
$GPGSV,3,2,09,25,32,009,28,19,30,292,42,11,27,228,38,03,16,323,36*75
$GPGSV,3,3,09,18,08,091,00*49
$GPRMC,042138.737,A,3526.8539,S,14905.2685,E,0.00,205.61,121104,,*13
$GPGGA,042139.737,3526.8539,S,14905.2685,E,1,08,1.0,612.9,M,12.8,M,0.0,0000*6A
$GPGSA,A,3,03,15,14,01,25,11,19,22,,,,,2.4,1.0,2.2*39
$GPGSV,3,1,09,14,63,148,40,01,58,296,37,15,38,036,40,22,37,106,38*78
$GPGSV,3,2,09,25,32,009,29,19,30,292,42,11,27,228,38,03,16,323,35*77
$GPGSV,3,3,09,18,08,091,00*49
$GPRMC,042139.737,A,3526.8539,S,14905.2685,E,0.00,205.61,121104,,*12
$GPGGA,042140.737,3526.8538,S,14905.2686,E,1,08,1.0,612.3,M,12.8,M,0.0,0000*6C
$GPGSA,A,3,03,15,14,01,25,11,19,22,,,,,2.4,1.0,2.2*39
$GPGSV,3,1,09,14,63,148,40,01,58,296,37,15,38,036,40,22,37,106,38*78
$GPGSV,3,2,09,25,32,009,28,19,30,292,42,11,27,228,38,03,16,323,36*75
$GPGSV,3,3,09,18,08,091,00*49
$GPRMC,042140.737,A,3526.8538,S,14905.2686,E,0.00,205.61,121104,,*1E
$GPGGA,042141.737,3526.8538,S,14905.2688,E,1,08,1.0,611.6,M,12.8,M,0.0,0000*65
$GPGSA,A,3,03,15,14,01,25,11,19,22,,,,,2.4,1.0,2.2*39
$GPGSV,3,1,09,14,63,148,40,01,58,296,38,15,38,036,40,22,37,106,38*77
$GPGSV,3,2,09,25,32,009,28,19,30,292,42,11,27,228,38,03,16,323,36*75
$GPGSV,3,3,09,18,08,091,00*49
$GPRMC,042141.737,A,3526.8538,S,14905.2688,E,0.00,205.61,121104,,*11
$GPGGA,042142.737,3526.8538,S,14905.2689,E,1,08,1.0,611.0,M,12.8,M,0.0,0000*61
$GPGSA,A,3,03,15,14,01,25,11,19,22,,,,,2.4,1.0,2.2*39
$GPGSV,3,1,09,14,63,148,41,01,58,296,38,15,38,036,40,22,37,106,38*76
$GPGSV,3,2,09,25,32,009,31,19,30,292,42,11,27,228,38,03,16,323,36*7D
$GPGSV,3,3,09,18,08,091,00*49
$GPRMC,042142.737,A,3526.8538,S,14905.2689,E,0.00,205.61,121104,,*13
$GPGGA,042143.737,3526.8538,S,14905.2690,E,1,08,1.0,610.5,M,12.8,M,0.0,0000*6C
$GPGSA,A,3,03,15,14,01,25,11,19,22,,,,,2.4,1.0,2.2*39
$GPGSV,3,1,09,14,63,148,40,01,58,296,37,15,38,036,40,22,37,106,37*77
$GPGSV,3,2,09,25,32,009,30,19,30,292,41,11,27,228,38,03,16,323,36*7F
$GPGSV,3,3,09,18,08,091,00*49
$GPRMC,042143.737,A,3526.8538,S,14905.2690,E,0.00,205.61,121104,,*1A
$GPGGA,042144.737,3526.8539,S,14905.2690,E,1,08,1.0,609.9,M,12.8,M,0.0,0000*6E
