fÙfÍ*74
$GPGSV,3,2,12,20,22,000,,08,13,000,36,03,12,000,36,24,10,000,*74
$GPGSV,3,3,12,04,09,000,00,17,05,000,00,19,-02,000,00,25,-03,000,00*7A
$GPRMC,094900.264,V,0000.0000,N,00000.0000,E,0.00,0.00,121104,,*17
$GPGGA,094901.264,0000.0000,N,00000.0000,E,0,00,50.0,0.0,M,0.0,M,0.0,0000*73
$GPGSA,A,1,,,,,,,,,,,,,50.0,50.0,50.0*05
$GPGSV,3,1,12,13,69,000,00,23,68,000,36,16,38,000,37,27,33,000,34*75
$GPGSV,3,2,12,20,22,000,,08,13,000,35,03,12,000,36,24,10,000,*77
$GPGSV,3,3,12,04,09,000,00,17,05,000,00,19,-02,000,00,25,-03,000,00*7A
$GPRMC,094901.264,V,0000.0000,N,00000.0000,E,0.00,0.00,121104,,*16
$GPGGA,094902.264,0000.0000,N,00000.0000,E,0,00,50.0,0.0,M,0.0,M,0.0,0000*70
$GPGSA,A,1,,,,,,,,,,,,,50.0,50.0,50.0*05
$GPGSV,3,1,12,13,69,000,00,23,68,000,35,16,38,000,36,27,33,000,34*77
$GPGSV,3,2,12,20,22,000,,08,13,000,35,03,12,000,35,24,10,000,*74
$GPGSV,3,3,12,04,09,000,00,17,05,000,00,19,-02,000,00,25,-03,000,00*7A
$GPRMC,094902.264,V,0000.0000,N,00000.0000,E,0.00,0.00,121104,,*15
$GPGGA,094903.264,0000.0000,N,00000.0000,E,0,00,50.0,0.0,M,0.0,M,0.0,0000*71
$GPGSA,A,1,,,,,,,,,,,,,50.0,50.0,50.0*05
$GPGSV,3,1,12,13,69,000,00,23,68,000,35,16,38,000,36,27,33,000,34*77
$GPGSV,3,2,12,20,22,000,,08,13,000,35,03,12,000,35,24,10,000,*74
$GPGSV,3,3,12,04,09,000,00,17,05,000,00,19,-02,000,00,25,-03,000,00*7A
$GPRMC,094903.264,V,0000.0000,N,00000.0000,E,0.00,0.00,121104,,*14
$GPGGA,094904.264,0000.0000,N,00000.0000,E,0,00,50.0,0.0,M,0.0,M,0.0,0000*76
$GPGSA,A,1,,,,,,,,,,,,,50.0,50.0,50.0*05
$GPGSV,3,1,12,13,69,000,00,23,68,000,34,16,38,000,36,27,33,000,34*76
$GPGSV,3,2,12,20,22,000,,08,13,000,35,03,12,000,36,24,10,000,*77
$GPGSV,3,3,12,04,09,000,00,17,05,000,00,19,-02,000,00,25,-03,000,00*7A
$GPRMC,094904.264,V,0000.0000,N,00000.0000,E,0.00,0.00,121104,,*13
$GPGGA,094905.264,0000.0000,N,00000.0000,E,0,00,50.0,0.0,M,0.0,M,0.0,0000*77
$GPGSA,A,1,,,,,,,,,,,,,50.0,50.0,50.0*05
$GPGSV,3,1,12,13,69,000,00,23,68,000,34,16,38,000,36,27,33,000,34*76
$GPGSV,3,2,12,20,22,000,,08,13,000,35,03,12,000,35,24,10,000,*74
$GPGSV,3,3,12,04,09,000,00,17,05,000,00,19,-02,000,00,25,-03,000,00*7A
$GPRMC,094905.264,V,0000.0000,N,00000.0000,E,0.00,0.00,121104,,*12
$GPGGA,094906.273,3525.6233,S,14907.1499,E,1,03,37.0,0.0,M,12.9,M,0.0,0000*5D
$GPGSA,A,2,08,16,23,,,,,,,,,,42.0,37.0,20.0*0D
$GPGSV,3,1,12,13,69,000,00,23,68,000,35,16,38,000,37,27,33,000,33*71
$GPGSV,3,2,12,20,22,000,,08,13,000,34,03,12,000,35,24,10,000,*75
$GPGSV,3,3,12,04,09,000,00,17,05,000,00,19,-02,000,00,25,-03,000,00*7A
$GPRMC,094906.273,A,3525.6233,S,14907.1499,E,0.00,0.00,121104,,*16
$GPGGA,094907.273,3525.6220,S,14907.1538,E,1,03,36.9,0.0,M,12.9,M,0.0,0000*5C
$GPGSA,A,2,08,16,23,,,,,,,,,,42.0,36.9,20.0*05
$GPGSV,3,1,09,23,66,110,35,13,59,205,00,27,35,272,33,20,33,004,*7E
$GPGSV,3,2,09,16,30,132,37,08,17,285,34,03,16,072,35,04,08,266,00*7E
$GPGSV,3,3,09,19,05,042,00*4B
$GPRMC,094907.273,A,3525.6220,S,14907.1538,E,0.00,0.00,121104,,*1F
$GPGGA,094908.273,3525.6240,S,14907.1517,E,1,03,36.9,0.0,M,12.9,M,0.0,0000*58
$GPGSA,A,2,08,16,23,,,,,,,,,,42.0,36.9,20.0*05
$GPGSV,3,1,09,23,66,110,35,13,59,205,00,27,35,272,33,20,33,004,00*7E
$GPGSV,3,2,09,16,30,132,37,08,17,285,34,03,16,072,34,04,08,266,00*7F
$GPGSV,3,3,09,19,05,042,00*4B
$GPRMC,094908.273,A,3525.6240,S,14907.1517,E,0.00,0.00,121104,,*1B
$GPGGA,094909.273,3525.6312,S,14907.1470,E,1,03,36.9,0.0,M,12.9,M,0.0,0000*5F
$GPGSA,A,2,08,16,23,,,,,,,,,,42.0,36.9,20.0*05
$GPGSV,3,1,09,23,66,110,38,13,59,205,00,27,35,272,35,20,33,004,00*75
$GPGSV,3,2,09,16,30,132,39,08,17,285,34,03,16,072,34,04,08,266,00*71
$GPGSV,3,3,09,19,05,042,00*4B
$GPRMC,094909.273,A,3525.6312,S,14907.1470,E,0.00,0.00,121104,,*1C
$GPGGA,094910.273,3525.6327,S,14907.1472,E,1,03,36.9,0.0,M,12.9,M,0.0,0000*53
$GPGSA,A,2,08,16,23,,,,,,,,,,41.9,36.9,20.0*0F
$GPGSV,3,1,09,23,66,110,39,13,59,205,00,27,35,272,35,20,33,004,00*74
$GPGSV,3,2,09,16,30,132,36,08,17,285,34,03,16,072,32,04,08,266,00*78
$GPGSV,3,3,09,19,05,042,00*4B
$GPRMC,094910.273,A,3525.6327,S,14907.1472,E,0.00,0.00,121104,,*10
$GPGGA,094911.273,3525.6307,S,14907.1461,E,1,03,36.8,0.0,M,12.9,M,0.0,0000*53
$GPGSA,A,2,08,16,23,,,,,,,,,,41.9,36.8,20.0*0E
$GPGSV,3,1,09,23,66,110,38,13,59,205,00,27,35,272,35,20,33,004,00*75
$GPGSV,3,2,09,16,30,132,37,08,17,285,30,03,16,072,33,04,08,266,00*7C
$GPGSV,3,3,09,19,05,042,00*4B
$GPRMC,094911.273,A,3525.6307,S,14907.1461,E,0.00,0.00,121104,,*11
$GPGGA,094912.273,3525.6387,S,14907.1412,E,1,03,36.8,0.0,M,12.9,M,0.0,0000*5C
$GPGSA,A,2,08,16,23,,,,,,,,,,41.9,36.8,20.0*0E
$GPGSV,3,1,09,23,66,110,38,13,59,205,00,27,35,272,35,20,33,004,00*75
$GPGSV,3,2,09,16,30,132,37,08,17,285,32,03,16,072,30,04,08,266,00*7D
$GPGSV,3,3,09,19,05,042,00*4B
$GPRMC,094912.273,A,3525.6387,S,14907.1412,E,0.00,0.00,121104,,*1E
$GPGGA,094913.273,3525.6360,S,14907.1438,E,1,03,36.8,0.0,M,12.9,M,0.0,0000*5C
$GPGSA,A,2,08,16,23,,,,,,,,,,41.8,36.8,20.0*0F
$GPGSV,3,1,09,23,66,110,37,13,59,205,00,27,35,272,35,20,33,004,00*7A
$GPGSV,3,2,09,16,30,132,36,08,17,285,32,03,16,072,33,04,08,266,00*7F
$GPGSV,3,3,09,19,05,042,00*4B
$GPRMC,094913.273,A,3525.6360,S,14907.1438,E,0.00,0.00,121104,,*1E
$GPGGA,094914.273,3525.6352,S,14907.1448,E,1,03,36.7,0.0,M,12.9,M,0.0,0000*52
$GPGSA,A,2,08,16,23,,,,,,,,,,41.8,36.7,20.0*00
$GPGSV,3,1,09,23,66,110,36,13,59,205,00,27,35,272,34,20,33,004,00*7A
$GPGSV,3,2,09,16,30,132,34,08,17,285,32,03,16,072,32,04,08,266,00*7C
$GPGSV,3,3,09,19,05,042,00*4B
$GPRMC,094914.273,A,3525.6352,S,14907.1448,E,0.00,0.00,121104,,*1F
$GPGGA,094915.272,3525.6325,S,14907.1438,E,1,03,36.7,0.0,M,12.9,M,0.0,0000*55
$GPGSA,A,2,08,16,23,,,,,,,,,,41.8,36.7,20.0*00
$GPGSV,3,1,09,23,66,110,36,13,59,205,00,27,35,272,35,20,33,004,00*7B
$GPGSV,3,2,09,16,30,132,30,08,17,285,31,03,16,072,33,04,08,266,00*7A
$GPGSV,3,3,09,19,05,042,00*4B
$GPRMC,094915.272,A,3525.6325,S,14907.1438,E,0.00,0.00,121104,,*18
$GPGGA,094916.272,3525.6343,S,14907.1431,E,1,03,36.7,0.0,M,12.9,M,0.0,0000*5F
$GPGSA,A,2,08,16,23,,,,,,,,,,41.8,36.7,20.0*00
$GPGSV,3,1,09,23,66,110,37,13,59,205,00,27,35,272,36,20,33,004,00*79
$GPGSV,3,2,09,16,30,132,33,08,17,285,32,03,16,072,32,04,08,266,00*7B
$GPGSV,3,3,09,19,05,042,00*4B
$GPRMC,094916.272,A,3525.6343,S,14907.1431,E,0.00,0.00,121104,,*12
$GPGGA,094917.272,3525.6199,S,14907.1512,E,1,03,36.6,0.0,M,12.9,M,0.0,0000*5A
$GPGSA,A,2,08,16,23,,,,,,,,,,41.8,36.6,20.0*01
$GPGSV,3,1,09,23,66,110,40,13,59,205,00,27,35,272,37,20,33,004,00*78
$GPGSV,3,2,09,16,30,132,33,08,17,285,36,03,16,072,30,04,08,266,00*7D
$GPGSV,3,3,09,19,05,042,00*4B
$GPRMC,094917.272,A,3525.6199,S,14907.1512,E,0.00,0.00,121104,,*16
$GPGGA,094918.272,3525.6231,S,14907.1504,E,1,03,36.6,0.0,M,12.9,M,0.0,0000*53
$GPGSA,A,2,08,16,23,,,,,,,,,,41.7,36.6,20.0*0E
$GPGSV,3,1,09,23,66,110,43,13,59,205,00,27,35,272,39,20,32,004,00*74
$GPGSV,3,2,09,16,30,132,36,08,17,285,36,03,16,072,30,04,08,266,00*78
$GPGSV,3,3,09,19,05,042,00*4B
$GPRMC,094918.272,A,3525.6231,S,14907.1504,E,0.00,0.00,121104,,*1F
$GPGGA,094919.272,3525.6217,S,14907.1512,E,1,03,36.6,0.0,M,12.9,M,0.0,0000*51
$GPGSA,A,2,08,16,23,,,,,,,,,,41.7,36.6,20.0*0E
$GPGSV,3,1,09,23,66,110,42,13,59,205,00,27,35,272,39,20,32,004,00*75
$GPGSV,3,2,09,16,30,132,35,08,17,285,36,03,16,072,31,04,08,266,00*7A
$GPGSV,3,3,09,19,05,042,00*4B
$GPRMC,094919.272,A,3525.6217,S,14907.1512,E,0.00,0.00,121104,,*1D
$GPGGA,094920.272,3525.6235,S,14907.1507,E,1,03,36.6,0.0,M,12.9,M,0.0,0000*5F
$GPGSA,A,2,08,16,23,,,,,,,,,,41.7,36.6,20.0*0E
$GPGSV,3,1,09,23,66,110,43,13,59,205,00,27,35,272,39,20,32,004,00*74
$GPGSV,3,2,09,16,30,132,35,08,17,285,36,03,16,072,31,04,08,266,00*7A
$GPGSV,3,3,09,19,05,042,00*4B
$GPRMC,094920.272,A,3525.6235,S,14907.1507,E,0.00,0.00,121104,,*13
$GPGGA,094921.272,3525.6187,S,14907.1539,E,1,03,36.5,0.0,M,12.9,M,0.0,0000*5A
$GPGSA,A,2,08,16,23,,,,,,,,,,41.6,36.5,20.0*0C
$GPGSV,3,1,09,23,66,110,43,13,59,205,00,27,35,272,39,20,32,004,00*74
$GPGSV,3,2,09,16,30,132,35,08,17,285,36,03,16,072,32,04,08,266,00*79
$GPGSV,3,3,09,19,05,042,00*4B
$GPRMC,094921.272,A,3525.6187,S,14907.1539,E,0.00,0.00,121104,,*15
$GPGGA,094922.272,3525.6194,S,14907.1537,E,1,03,36.5,0.0,M,12.9,M,0.0,0000*55
$GPGSA,A,2,08,16,23,,,,,,,,,,41.6,36.5,20.0*0C
$GPGSV,3,1,09,23,66,110,43,13,59,205,00,27,35,272,39,20,32,004,00*74
$GPGSV,3,2,09,16,30,132,35,08,17,285,36,03,16,072,33,04,08,266,00*78
$GPGSV,3,3,09,19,05,042,00*4B
$GPRMC,094922.272,A,3525.6194,S,14907.1537,E,0.00,0.00,121104,,*1A
$GPGGA,094923.272,3525.6233,S,14907.1524,E,1,03,36.5,0.0,M,12.9,M,0.0,0000*58
$GPGSA,A,2,08,16,23,,,,,,,,,,41.6,36.5,20.0*0C
$GPGSV,3,1,09,23,66,110,43,13,59,205,00,27,35,272,40,20,32,004,00*7A
$GPGSV,3,2,09,16,30,132,35,08,17,285,36,03,16,072,32,04,08,266,00*79
$GPGSV,3,3,09,19,05,042,00*4B
$GPRMC,094923.272,A,3525.6233,S,14907.1524,E,0.00,0.00,121104,,*17
$GPGGA,094924.272,3525.6223,S,14907.1525,E,1,03,36.4,0.0,M,12.9,M,0.0,0000*5E
$GPGSA,A,2,08,16,23,,,,,,,,,,41.6,36.4,20.0*0D
$GPGSV,3,1,09,23,66,110,43,13,59,205,00,27,35,272,40,20,32,004,00*7A
$GPGSV,3,2,09,16,30,132,36,08,17,285,36,03,16,072,32,04,08,266,00*7A
$GPGSV,3,3,09,19,05,042,00*4B
$GPRMC,094924.272,A,3525.6223,S,14907.1525,E,0.00,0.00,121104,,*10
$GPGGA,094925.272,3525.6149,S,14907.1539,E,1,03,36.4,0.0,M,12.9,M,0.0,0000*5D
$GPGSA,A,2,08,16,23,,,,,,,,,,41.5,36.4,20.0*0E
$GPGSV,3,1,09,23,66,110,43,13,59,205,00,27,35,272,40,20,32,004,00*7A
$GPGSV,3,2,09,16,30,132,35,08,17,285,36,03,16,072,32,04,08,266,00*79
$GPGSV,3,3,09,19,05,042,00*4B
$GPRMC,094925.272,A,3525.6149,S,14907.1539,E,0.00,0.00,121104,,*13
$GPGGA,094926.272,3525.6244,S,14907.1500,E,1,03,36.4,0.0,M,12.9,M,0.0,0000*5A
$GPGSA,A,2,08,16,23,,,,,,,,,,41.5,36.4,20.0*0E
$GPGSV,3,1,09,23,66,110,43,13,59,205,00,27,35,272,40,20,32,004,00*7A
$GPGSV,3,2,09,16,30,132,35,08,17,285,36,03,16,072,31,04,08,266,00*7A
$GPGSV,3,3,09,19,05,042,00*4B
$GPRMC,094926.272,A,3525.6244,S,14907.1500,E,0.00,0.00,121104,,*14
$GPGGA,094927.272,3525.6268,S,14907.1496,E,1,03,36.4,0.0,M,12.9,M,0.0,0000*5B
$GPGSA,A,2,08,16,23,,,,,,,,,,41.5,36.4,20.0*0E
$GPGSV,3,1,09,23,66,110,42,13,59,205,00,27,35,272,40,20,32,004,00*7B
$GPGSV,3,2,09,16,30,132,35,08,17,285,36,03,16,072,30,04,08,266,00*7B
$GPGSV,3,3,09,19,05,042,00*4B
$GPRMC,094927.272,A,3525.6268,S,14907.1496,E,0.00,0.00,121104,,*15
$GPGGA,094928.272,3525.6272,S,14907.1487,E,1,03,36.3,0.0,M,12.9,M,0.0,0000*58
$GPGSA,A,2,08,16,23,,,,,,,,,,41.5,36.3,20.0*09
$GPGSV,3,1,09,23,66,110,43,13,59,205,00,27,35,272,39,20,32,004,00*74
$GPGSV,3,2,09,16,30,132,35,08,17,285,36,03,16,072,31,04,08,266,00*7A
$GPGSV,3,3,09,19,05,042,00*4B
$GPRMC,094928.272,A,3525.6272,S,14907.1487,E,0.00,0.00,121104,,*11
$GPGGA,094929.272,3525.6273,S,14907.1490,E,1,03,36.3,0.0,M,12.9,M,0.0,0000*5E
$GPGSA,A,2,08,16,23,,,,,,,,,,41.4,36.3,20.0*08
$GPGSV,3,1,09,23,66,110,43,13,59,205,00,27,35,272,39,20,32,004,00*74
$GPGSV,3,2,09,16,30,132,35,08,17,285,36,03,16,072,30,04,08,266,00*7B
$GPGSV,3,3,09,19,05,042,00*4B
$GPRMC,094929.272,A,3525.6273,S,14907.1490,E,0.00,0.00,121104,,*17
$GPGGA,094930.271,3526.1643,S,14906.7418,E,1,04,5.0,648.3,M,12.9,M,0.0,0000*6C
$GPGSA,A,3,08,16,27,23,,,,,,,,,6.0,5.0,3.2*3B
$GPGSV,3,1,09,23,66,109,42,13,59,205,00,27,35,272,39,20,32,004,00*7D
$GPGSV,3,2,09,16,30,132,34,08,17,285,36,03,16,072,29,04,08,266,00*72
$GPGSV,3,3,09,19,05,042,00*4B
$GPRMC,094930.271,A,3526.1643,S,14906.7418,E,0.00,0.00,121104,,*18
$GPGGA,094931.271,3526.1667,S,14906.7401,E,1,04,5.0,649.8,M,12.9,M,0.0,0000*69
$GPGSA,A,3,08,16,27,23,,,,,,,,,6.0,5.0,3.2*3B
$GPGSV,3,1,09,23,66,109,43,13,59,205,00,27,35,272,39,20,32,004,00*7C
$GPGSV,3,2,09,16,30,132,34,08,17,285,36,03,16,072,29,04,08,266,00*72
$GPGSV,3,3,09,19,05,042,00*4B
$GPRMC,094931.271,A,3526.1667,S,14906.7401,E,0.00,0.00,121104,,*17
$GPGGA,094932.271,3526.1656,S,14906.7406,E,1,04,5.0,647.8,M,12.9,M,0.0,0000*61
$GPGSA,A,3,08,16,27,23,,,,,,,,,6.0,5.0,3.2*3B
$GPGSV,3,1,09,23,66,109,43,13,59,205,00,27,35,272,39,20,32,004,00*7C
$GPGSV,3,2,09,16,30,132,35,08,17,285,36,03,16,072,29,04,08,266,00*73
$GPGSV,3,3,09,19,05,042,00*4B
$GPRMC,094932.271,A,3526.1656,S,14906.7406,E,0.00,0.00,121104,,*11
$GPGGA,094933.271,3526.1664,S,14906.7404,E,1,04,5.0,647.4,M,12.9,M,0.0,0000*6F
$GPGSA,A,3,08,16,27,23,,,,,,,,,6.0,5.0,3.2*3B
$GPGSV,3,1,09,23,66,109,42,13,59,205,00,27,35,272,39,20,32,004,00*7D
$GPGSV,3,2,09,16,30,132,34,08,17,285,36,03,16,072,28,04,08,266,00*73
$GPGSV,3,3,09,19,05,042,00*4B
$GPRMC,094933.271,A,3526.1664,S,14906.7404,E,0.00,0.00,121104,,*13
$GPGGA,094934.271,3526.1666,S,14906.7402,E,1,04,5.0,647.3,M,12.9,M,0.0,0000*6B
$GPGSA,A,3,08,16,27,23,,,,,,,,,6.0,5.0,3.2*3B
$GPGSV,3,1,09,23,66,109,43,13,59,205,00,27,35,272,38,20,32,004,00*7D
$GPGSV,3,2,09,16,30,132,35,08,17,285,36,03,16,072,29,04,08,266,00*73
$GPGSV,3,3,09,19,05,042,00*4B
$GPRMC,094934.271,A,3526.1666,S,14906.7402,E,0.00,0.00,121104,,*10
$GPGGA,094935.271,3526.1664,S,14906.7402,E,1,04,5.0,646.7,M,12.9,M,0.0,0000*6D
$GPGSA,A,3,08,16,27,23,,,,,,,,,6.0,5.0,3.2*3B
$GPGSV,3,1,09,23,66,109,43,13,59,205,00,27,35,272,38,20,32,004,00*7D
$GPGSV,3,2,09,16,30,132,34,08,17,285,36,03,16,072,28,04,08,266,00*73
$GPGSV,3,3,09,19,05,042,00*4B
$GPRMC,094935.271,A,3526.1664,S,14906.7402,E,0.00,0.00,121104,,*13
$GPGGA,094936.271,3526.1670,S,14906.7399,E,1,04,5.0,646.8,M,12.9,M,0.0,0000*61
$GPGSA,A,3,08,16,27,23,,,,,,,,,6.0,5.0,3.2*3B
$GPGSV,3,1,09,23,66,109,43,13,59,205,00,27,35,272,38,20,32,004,00*7D
$GPGSV,3,2,09,16,30,132,34,08,17,285,36,03,16,072,28,04,08,266,00*73
$GPGSV,3,3,09,19,05,042,00*4B
$GPRMC,094936.271,A,3526.1670,S,14906.7399,E,0.00,0.00,121104,,*10
$GPGGA,094937.271,3526.1675,S,14906.7396,E,1,04,5.0,647.1,M,12.9,M,0.0,0000*62
$GPGSA,A,3,08,16,27,23,,,,,,,,,6.0,5.0,3.2*3B
$GPGSV,3,1,09,23,66,109,43,13,59,205,00,27,35,272,38,20,32,004,00*7D
$GPGSV,3,2,09,16,30,132,35,08,17,285,36,03,16,072,29,04,08,266,00*73
$GPGSV,3,3,09,19,05,042,00*4B
$GPRMC,094937.271,A,3526.1675,S,14906.7396,E,0.00,0.00,121104,,*1B
$GPGGA,094938.271,3526.1682,S,14906.7392,E,1,04,5.0,647.6,M,12.9,M,0.0,0000*66
$GPGSA,A,3,08,16,27,23,,,,,,,,,6.0,5.0,3.2*3B
$GPGSV,3,1,09,23,66,109,43,13,59,205,00,27,35,272,38,20,32,004,00*7D
$GPGSV,3,2,09,16,30,132,34,08,17,285,36,03,16,072,29,04,08,266,00*72
$GPGSV,3,3,09,19,05,042,00*4B
$GPRMC,094938.271,A,3526.1682,S,14906.7392,E,0.00,0.00,121104,,*18
$GPGGA,094939.271,3526.1688,S,14906.7389,E,1,04,5.0,648.0,M,12.9,M,0.0,0000*6E
$GPGSA,A,3,08,16,27,23,,,,,,,,,6.0,5.0,3.2*3B
$GPGSV,3,1,09,23,66,109,43,13,59,205,00,27,35,272,39,20,32,004,00*7C
$GPGSV,3,2,09,16,30,132,34,08,17,285,36,03,16,072,28,04,08,266,00*73
$GPGSV,3,3,09,19,05,042,00*4B
$GPRMC,094939.271,A,3526.1688,S,14906.7389,E,0.00,0.00,121104,,*19
$GPGGA,094940.271,3526.1693,S,14906.7387,E,1,04,5.0,648.2,M,12.9,M,0.0,0000*66
$GPGSA,A,3,08,16,27,23,,,,,,,,,6.0,5.0,3.2*3B
$GPGSV,3,1,09,23,66,109,43,13,59,205,00,27,35,272,38,20,32,004,00*7D
$GPGSV,3,2,09,16,30,132,34,08,17,285,36,03,16,072,28,04,08,266,00*73
$GPGSV,3,3,09,19,05,042,00*4B
$GPRMC,094940.271,A,3526.1693,S,14906.7387,E,0.00,0.00,121104,,*13
$GPGGA,094941.271,3526.1697,S,14906.7385,E,1,04,5.0,648.5,M,12.9,M,0.0,0000*66
$GPGSA,A,3,08,16,27,23,,,,,,,,,6.0,5.0,3.2*3B
$GPGSV,3,1,09,23,66,109,43,13,59,205,00,27,35,272,38,20,32,004,00*7D
$GPGSV,3,2,09,16,30,132,34,08,17,285,36,03,16,072,27,04,08,266,00*7C
$GPGSV,3,3,09,19,05,042,00*4B
$GPRMC,094941.271,A,3526.1697,S,14906.7385,E,0.00,0.00,121104,,*14
$GPGGA,094942.271,3526.1700,S,14906.7384,E,1,04,5.0,648.6,M,12.9,M,0.0,0000*68
$GPGSA,A,3,08,16,27,23,,,,,,,,,6.0,5.0,3.2*3B
$GPGSV,3,1,09,23,66,109,43,13,59,205,00,27,35,272,39,20,32,004,00*7C
$GPGSV,3,2,09,16,30,132,34,08,17,284,36,03,17,072,27,04,08,266,00*7C
$GPGSV,3,3,09,19,05,043,00*4A
$GPRMC,094942.271,A,3526.1700,S,14906.7384,E,0.00,0.00,121104,,*19
$GPGGA,094943.271,3526.1703,S,14906.7383,E,1,04,5.0,648.7,M,12.9,M,0.0,0000*6C
$GPGSA,A,3,08,16,27,23,,,,,,,,,6.0,5.0,3.2*3B
$GPGSV,3,1,09,23,66,109,42,13,59,205,00,27,35,272,38,20,32,004,00*7C
$GPGSV,3,2,09,16,30,132,34,08,17,284,36,03,17,072,26,04,08,266,00*7D
$GPGSV,3,3,09,19,05,043,00*4A
$GPRMC,094943.271,A,3526.1703,S,14906.7383,E,0.00,0.00,121104,,*1C
$GPGGA,094944.271,3526.1704,S,14906.7383,E,1,04,5.0,648.7,M,12.9,M,0.0,0000*6C
$GPGSA,A,3,08,16,27,23,,,,,,,,,6.0,5.0,3.2*3B
$GPGSV,3,1,09,23,66,109,42,13,59,205,00,27,35,272,38,20,32,004,00*7C
$GPGSV,3,2,09,16,30,132,34,08,17,284,36,03,17,072,25,04,08,266,00*7E
$GPGSV,3,3,09,19,05,043,00*4A
$GPRMC,094944.271,A,3526.1704,S,14906.7383,E,0.00,0.00,121104,,*1C
$GPGGA,094945.271,3526.1704,S,14906.7384,E,1,04,5.0,648.6,M,12.9,M,0.0,0000*6B
$GPGSA,A,3,08,16,27,23,,,,,,,,,6.0,5.0,3.2*3B
$GPGSV,3,1,09,23,66,109,42,13,59,205,00,27,35,272,38,20,32,004,00*7C
$GPGSV,3,2,09,16,30,132,34,08,17,284,36,03,17,072,25,04,08,266,00*7E
$GPGSV,3,3,09,19,05,043,00*4A
$GPRMC,094945.271,A,3526.1704,S,14906.7384,E,0.00,0.00,121104,,*1A
$GPGGA,094946.270,3526.1705,S,14906.7384,E,1,04,5.0,648.6,M,12.9,M,0.0,0000*68
$GPGSA,A,3,08,16,27,23,,,,,,,,,6.0,5.0,3.2*3B
$GPGSV,3,1,09,23,66,109,42,13,59,205,00,27,35,272,38,20,32,004,00*7C
$GPGSV,3,2,09,16,30,132,35,08,17,284,36,03,17,072,25,04,08,266,00*7F
$GPGSV,3,3,09,19,05,043,00*4A
$GPRMC,094946.270,A,3526.1705,S,14906.7384,E,0.00,0.00,121104,,*19
$GPGGA,094947.270,3526.1705,S,14906.7385,E,1,04,5.0,648.7,M,12.9,M,0.0,0000*69
$GPGSA,A,3,08,16,27,23,,,,,,,,,6.0,5.0,3.2*3B
$GPGSV,3,1,09,23,66,109,42,13,59,205,00,27,35,272,38,20,32,004,00*7C
$GPGSV,3,2,09,16,30,132,34,08,17,284,36,03,17,072,25,04,08,266,00*7E
$GPGSV,3,3,09,19,05,043,00*4A
$GPRMC,094947.270,A,3526.1705,S,14906.7385,E,0.00,0.00,121104,,*19
$GPGGA,094948.270,3526.1706,S,14906.7385,E,1,04,5.0,648.8,M,12.9,M,0.0,0000*6A
$GPGSA,A,3,08,16,27,23,,,,,,,,,6.0,5.0,3.2*3B
$GPGSV,3,1,09,23,66,109,43,13,59,205,00,27,35,272,38,20,32,004,00*7D
$GPGSV,3,2,09,16,30,132,34,08,17,284,36,03,17,072,25,04,08,266,00*7E
$GPGSV,3,3,09,19,05,043,00*4A
$GPRMC,094948.270,A,3526.1706,S,14906.7385,E,0.00,0.00,121104,,*15
$GPGGA,094949.270,3526.1707,S,14906.7385,E,1,04,5.0,649.0,M,12.9,M,0.0,0000*63
$GPGSA,A,3,08,16,27,23,,,,,,,,,6.0,5.0,3.2*3B
$GPGSV,3,1,09,23,66,109,42,13,59,205,00,27,35,272,38,20,32,004,00*7C
$GPGSV,3,2,09,16,30,132,34,08,17,284,36,03,17,072,25,04,08,266,00*7E
$GPGSV,3,3,09,19,05,043,00*4A
$GPRMC,094949.270,A,3526.1707,S,14906.7385,E,0.00,0.00,121104,,*15
$GPGGA,094950.270,3526.1708,S,14906.7385,E,1,04,5.0,649.3,M,12.9,M,0.0,0000*67
$GPGSA,A,3,08,16,27,23,,,,,,,,,6.0,5.0,3.2*3B
$GPGSV,3,1,09,23,66,109,42,13,59,205,00,27,35,272,38,20,32,004,00*7C
$GPGSV,3,2,09,16,30,132,34,08,17,284,36,03,17,072,25,04,08,266,00*7E
$GPGSV,3,3,09,19,05,043,00*4A
$GPRMC,094950.270,A,3526.1708,S,14906.7385,E,0.00,0.00,121104,,*12
$GPGGA,094951.270,3526.1709,S,14906.7384,E,1,04,5.0,649.7,M,12.9,M,0.0,0000*62
$GPGSA,A,3,08,16,27,23,,,,,,,,,6.0,5.0,3.2*3B
$GPGSV,3,1,09,23,66,109,43,13,59,205,00,27,35,272,38,20,32,004,00*7D
$GPGSV,3,2,09,16,30,132,34,08,17,284,36,03,17,072,25,04,08,266,00*7E
$GPGSV,3,3,09,19,05,043,00*4A
$GPRMC,094951.270,A,3526.1709,S,14906.7384,E,0.00,0.00,121104,,*13
$GPGGA,094952.270,3526.1710,S,14906.7384,E,1,04,5.0,650.1,M,12.9,M,0.0,0000*67
$GPGSA,A,3,08,16,27,23,,,,,,,,,6.0,5.0,3.2*3B
$GPGSV,3,1,09,23,66,109,43,13,59,205,00,27,35,272,38,20,32,004,00*7D
$GPGSV,3,2,09,16,30,132,34,08,17,284,36,03,17,072,25,04,08,266,00*7E
$GPGSV,3,3,09,19,05,043,00*4A
$GPRMC,094952.270,A,3526.1710,S,14906.7384,E,0.00,0.00,121104,,*18
$GPGGA,094953.270,3526.1711,S,14906.7383,E,1,04,5.0,650.4,M,12.9,M,0.0,0000*65
$GPGSA,A,3,08,16,27,23,,,,,,,,,6.0,5.0,3.2*3B
$GPGSV,3,1,09,23,66,109,43,13,59,205,00,27,35,272,38,20,32,004,00*7D
$GPGSV,3,2,09,16,30,132,35,08,17,284,36,03,17,072,25,04,08,266,00*7F
$GPGSV,3,3,09,19,05,043,00*4A
$GPRMC,094953.270,A,3526.1711,S,14906.7383,E,0.00,0.00,121104,,*1F
$GPGGA,094954.270,3526.1710,S,14906.7383,E,1,04,5.0,650.8,M,12.9,M,0.0,0000*6F
$GPGSA,A,3,08,16,27,23,,,,,,,,,5.9,5.0,3.2*31
$GPGSV,3,1,09,23,66,109,43,13,59,205,00,27,35,272,38,20,32,004,00*7D
$GPGSV,3,2,09,16,30,132,35,08,17,284,36,03,17,072,25,04,08,266,00*7F
$GPGSV,3,3,09,19,05,043,00*4A
$GPRMC,094954.270,A,3526.1710,S,14906.7383,E,0.00,0.00,121104,,*19
$GPGGA,094955.270,3526.1710,S,14906.7383,E,1,04,5.0,651.1,M,12.9,M,0.0,0000*66
$GPGSA,A,3,08,16,27,23,,,,,,,,,5.9,5.0,3.2*31
$GPGSV,3,1,09,23,66,109,42,13,59,205,00,27,35,272,38,20,32,004,00*7C
$GPGSV,3,2,09,16,30,132,35,08,17,284,36,03,17,072,00,04,08,266,00*78
$GPGSV,3,3,09,19,05,043,00*4A
$GPRMC,094955.270,A,3526.1710,S,14906.7383,E,0.00,0.00,121104,,*18
$GPGGA,094956.270,3526.1710,S,14906.7383,E,1,04,5.0,651.4,M,12.9,M,0.0,0000*60
$GPGSA,A,3,08,16,27,23,,,,,,,,,5.9,5.0,3.2*31
$GPGSV,3,1,09,23,66,109,43,13,59,205,00,27,35,272,38,20,32,004,00*7D
$GPGSV,3,2,09,16,30,132,34,08,17,284,36,03,17,072,00,04,08,266,00*79
$GPGSV,3,3,09,19,05,043,00*4A
$GPRMC,094956.270,A,3526.1710,S,14906.7383,E,0.00,0.00,121104,,*1B
$GPGGA,094957.270,3526.1710,S,14906.7383,E,1,04,5.0,651.8,M,12.9,M,0.0,0000*6D
$GPGSA,A,3,08,16,27,23,,,,,,,,,5.9,5.0,3.2*31
$GPGSV,3,1,09,23,66,109,42,13,59,205,44,27,35,272,38,20,32,004,00*7C
$GPGSV,3,2,09,16,30,132,35,08,17,284,36,03,17,072,00,04,08,266,00*78
$GPGSV,3,3,09,19,05,043,00*4A
$GPRMC,094957.270,A,3526.1710,S,14906.7383,E,0.00,0.00,121104,,*1A
$GPGGA,094958.270,3526.1710,S,14906.7383,E,1,04,5.0,652.0,M,12.9,M,0.0,0000*69
$GPGSA,A,3,08,16,27,23,,,,,,,,,5.9,5.0,3.2*31
$GPGSV,3,1,09,23,66,109,42,13,59,205,43,27,35,272,38,20,32,004,00*7B
$GPGSV,3,2,09,16,30,132,34,08,17,284,36,03,17,072,00,04,08,266,00*79
$GPGSV,3,3,09,19,05,043,00*4A
$GPRMC,094958.270,A,3526.1710,S,14906.7383,E,0.00,0.00,121104,,*15
$GPGGA,094959.270,3526.1711,S,14906.7382,E,1,04,5.0,652.3,M,12.9,M,0.0,0000*6B
$GPGSA,A,3,08,16,27,23,,,,,,,,,5.9,5.0,3.2*31
$GPGSV,3,1,09,23,66,109,42,13,59,205,43,27,35,272,37,20,32,004,00*74
$GPGSV,3,2,09,16,30,132,34,08,17,284,36,03,17,072,00,04,08,266,00*79
$GPGSV,3,3,09,19,05,043,00*4A
$GPRMC,094959.270,A,3526.1711,S,14906.7382,E,0.00,0.00,121104,,*14
$GPGGA,095000.270,3526.1712,S,14906.7382,E,1,04,5.0,652.4,M,12.9,M,0.0,0000*6B
$GPGSA,A,3,08,16,27,23,,,,,,,,,5.9,5.0,3.2*31
$GPGSV,3,1,09,23,66,109,42,13,59,205,43,27,35,272,38,20,32,004,00*7B
$GPGSV,3,2,09,16,30,132,34,08,17,284,36,03,17,072,00,04,08,266,00*79
$GPGSV,3,3,09,19,05,043,00*4A
$GPRMC,095000.270,A,3526.1712,S,14906.7382,E,0.00,0.00,121104,,*13
$GPGGA,095001.269,3526.1713,S,14906.7382,E,1,04,5.0,652.5,M,12.9,M,0.0,0000*62
$GPGSA,A,3,08,16,27,23,,,,,,,,,5.9,5.0,3.2*31
$GPGSV,3,1,09,23,66,109,42,13,59,205,43,27,35,272,38,20,32,004,00*7B
$GPGSV,3,2,09,16,30,132,34,08,17,284,35,03,17,072,00,04,08,266,00*7A
$GPGSV,3,3,09,19,05,043,00*4A
$GPRMC,095001.269,A,3526.1713,S,14906.7382,E,0.00,0.00,121104,,*1B
$GPGGA,095002.269,3526.1714,S,14906.7381,E,1,04,5.0,652.6,M,12.9,M,0.0,0000*66
$GPGSA,A,3,08,16,27,23,,,,,,,,,5.9,5.0,3.2*31
$GPGSV,3,1,09,23,66,109,43,13,59,205,43,27,35,272,38,20,32,004,00*7A
$GPGSV,3,2,09,16,30,132,35,08,17,284,36,03,17,072,00,04,08,266,00*78
$GPGSV,3,3,09,19,05,043,00*4A
$GPRMC,095002.269,A,3526.1714,S,14906.7381,E,0.00,0.00,121104,,*1C
$GPGGA,095003.269,3526.1714,S,14906.7381,E,1,04,5.0,652.7,M,12.9,M,0.0,0000*66
$GPGSA,A,3,08,16,27,23,,,,,,,,,5.9,5.0,3.2*31
$GPGSV,3,1,09,23,66,109,43,13,59,205,43,27,35,272,37,20,32,004,00*75
$GPGSV,3,2,09,16,30,132,35,08,17,284,36,03,17,072,00,04,08,266,00*78
$GPGSV,3,3,09,19,05,043,00*4A
$GPRMC,095003.269,A,3526.1714,S,14906.7381,E,0.00,0.00,121104,,*1D
$GPGGA,095004.269,3526.1715,S,14906.7381,E,1,04,5.0,652.7,M,12.9,M,0.0,0000*60
$GPGSA,A,3,08,16,27,23,,,,,,,,,5.9,5.0,3.2*31
$GPGSV,3,1,09,23,66,109,43,13,59,205,43,27,35,272,37,20,32,004,00*75
$GPGSV,3,2,09,16,30,132,34,08,17,284,35,03,17,072,00,04,08,266,00*7A
$GPGSV,3,3,09,19,05,043,00*4A
$GPRMC,095004.269,A,3526.1715,S,14906.7381,E,0.00,0.00,121104,,*1B
$GPGGA,095005.269,3526.1716,S,14906.7380,E,1,04,5.0,652.8,M,12.9,M,0.0,0000*6C
$GPGSA,A,3,08,16,27,23,,,,,,,,,5.9,5.0,3.2*31
$GPGSV,3,1,09,23,66,109,43,13,59,205,43,27,35,272,37,20,32,004,00*75
$GPGSV,3,2,09,16,30,132,35,08,17,284,35,03,17,072,00,04,08,266,00*7B
$GPGSV,3,3,09,19,05,043,00*4A
$GPRMC,095005.269,A,3526.1716,S,14906.7380,E,0.00,0.00,121104,,*18
$GPGGA,095006.269,3526.1717,S,14906.7380,E,1,04,5.0,652.9,M,12.9,M,0.0,0000*6F
$GPGSA,A,3,08,16,27,23,,,,,,,,,5.9,5.0,3.2*31
$GPGSV,3,1,09,23,66,109,42,13,59,205,43,27,35,272,37,20,32,004,00*74
$GPGSV,3,2,09,16,30,132,35,08,17,284,35,03,17,072,00,04,08,266,00*7B
$GPGSV,3,3,09,19,05,043,00*4A
$GPRMC,095006.269,A,3526.1717,S,14906.7380,E,0.00,0.00,121104,,*1A
$GPGGA,095007.269,3526.1718,S,14906.7379,E,1,04,5.0,653.1,M,12.9,M,0.0,0000*6E
$GPGSA,A,3,08,16,27,23,,,,,,,,,5.9,5.0,3.2*31
$GPGSV,3,1,09,23,66,109,43,13,59,205,44,27,35,272,38,20,32,004,00*7D
$GPGSV,3,2,09,16,30,132,35,08,17,284,36,03,17,072,00,04,08,266,00*78
$GPGSV,3,3,09,19,05,043,00*4A
$GPRMC,095007.269,A,3526.1718,S,14906.7379,E,0.00,0.00,121104,,*12
$GPGGA,095008.269,3526.1718,S,14906.7379,E,1,04,5.0,653.3,M,12.9,M,0.0,0000*63
$GPGSA,A,3,08,16,27,23,,,,,,,,,5.9,5.0,3.2*31
$GPGSV,3,1,09,23,66,109,43,13,59,205,43,27,35,272,37,20,32,004,00*75
$GPGSV,3,2,09,16,30,132,35,08,17,284,36,03,17,072,00,04,08,266,00*78
$GPGSV,3,3,09,19,05,043,00*4A
$GPRMC,095008.269,A,3526.1718,S,14906.7379,E,0.00,0.00,121104,,*1D
$GPGGA,095009.269,3526.1718,S,14906.7379,E,1,04,5.0,653.4,M,12.9,M,0.0,0000*65
$GPGSA,A,3,08,16,27,23,,,,,,,,,5.9,5.0,3.2*31
$GPGSV,3,1,09,23,66,109,43,13,59,205,43,27,35,272,37,20,32,004,00*75
$GPGSV,3,2,09,16,30,132,35,08,17,284,35,03,17,072,00,04,08,266,00*7B
$GPGSV,3,3,09,19,05,043,00*4A
$GPRMC,095009.269,A,3526.1718,S,14906.7379,E,0.00,0.00,121104,,*1C
$GPGGA,095010.269,3526.1719,S,14906.7378,E,1,04,5.0,653.4,M,12.9,M,0.0,0000*6D
$GPGSA,A,3,08,16,27,23,,,,,,,,,5.9,5.0,3.2*31
$GPGSV,3,1,09,23,66,109,43,13,59,205,43,27,35,272,37,20,32,004,00*75
$GPGSV,3,2,09,16,30,132,35,08,17,284,35,03,17,072,00,04,08,266,00*7B
$GPGSV,3,3,09,19,05,043,00*4A
$GPRMC,095010.269,A,3526.1719,S,14906.7378,E,0.00,0.00,121104,,*14
$GPGGA,095011.269,3526.1720,S,14906.7377,E,1,04,5.0,653.4,M,12.9,M,0.0,0000*69
$GPGSA,A,3,08,16,27,23,,,,,,,,,5.9,5.0,3.2*31
$GPGSV,3,1,09,23,66,109,44,13,59,205,43,27,35,272,37,20,32,004,00*72
$GPGSV,3,2,09,16,30,132,35,08,17,284,35,03,17,072,00,04,08,266,00*7B
$GPGSV,3,3,09,19,05,043,00*4A
$GPRMC,095011.269,A,3526.1720,S,14906.7377,E,0.00,0.00,121104,,*10
$GPGGA,095012.269,3526.1722,S,14906.7376,E,1,04,5.0,653.3,M,12.9,M,0.0,0000*6E
$GPGSA,A,3,08,16,27,23,,,,,,,,,5.9,5.0,3.2*31
$GPGSV,3,1,09,23,66,109,43,13,59,205,43,27,35,272,37,20,32,004,00*75
$GPGSV,3,2,09,16,30,132,35,08,17,284,35,03,17,072,00,04,08,266,00*7B
$GPGSV,3,3,09,19,05,043,00*4A
$GPRMC,095012.269,A,3526.1722,S,14906.7376,E,0.00,0.00,121104,,*10
$GPGGA,095013.269,3526.1725,S,14906.7375,E,1,04,5.0,653.3,M,12.9,M,0.0,0000*6B
$GPGSA,A,3,08,16,27,23,,,,,,,,,5.9,5.0,3.2*31
$GPGSV,3,1,09,23,66,109,42,13,59,205,43,27,35,272,37,20,32,004,00*74
$GPGSV,3,2,09,16,30,132,35,08,17,284,36,03,17,072,00,04,08,266,00*78
$GPGSV,3,3,09,19,05,043,00*4A
$GPRMC,095013.269,A,3526.1725,S,14906.7375,E,0.00,0.00,121104,,*15
$GPGGA,095014.269,3526.1729,S,14906.7373,E,1,04,5.0,653.3,M,12.9,M,0.0,0000*66
$GPGSA,A,3,08,16,27,23,,,,,,,,,5.9,5.0,3.2*31
$GPGSV,3,1,09,23,66,109,43,13,59,205,43,27,35,272,37,20,32,004,00*75
$GPGSV,3,2,09,16,30,132,34,08,17,284,36,03,17,072,00,04,08,266,00*79
$GPGSV,3,3,09,19,05,043,00*4A
$GPRMC,095014.269,A,3526.1729,S,14906.7373,E,0.00,0.00,121104,,*18
$GPGGA,095015.269,3526.1733,S,14906.7371,E,1,04,5.0,653.4,M,12.9,M,0.0,0000*69
$GPGSA,A,3,08,16,27,23,,,,,,,,,5.9,5.0,3.2*31
$GPGSV,3,1,09,23,66,109,43,13,59,205,43,27,35,272,37,20,32,004,00*75
$GPGSV,3,2,09,16,30,132,34,08,17,284,35,03,17,072,00,04,08,266,00*7A
$GPGSV,3,3,09,19,05,043,00*4A
$GPRMC,095015.269,A,3526.1733,S,14906.7371,E,0.00,0.00,121104,,*10
$GPGGA,095016.268,3526.1737,S,14906.7369,E,1,04,5.0,653.5,M,12.9,M,0.0,0000*67
$GPGSA,A,3,08,16,27,23,,,,,,,,,5.9,5.0,3.2*31
$GPGSV,3,1,09,23,66,109,42,13,59,205,43,27,35,272,37,20,32,004,00*74
$GPGSV,3,2,09,16,30,132,34,08,17,284,35,03,17,072,00,04,08,266,00*7A
$GPGSV,3,3,09,19,05,043,00*4A
$GPRMC,095016.268,A,3526.1737,S,14906.7369,E,0.00,0.00,121104,,*1F
$GPGGA,095017.268,3526.1740,S,14906.7367,E,1,04,5.0,653.6,M,12.9,M,0.0,0000*6B
$GPGSA,A,3,08,16,27,23,,,,,,,,,5.9,5.0,3.2*31
$GPGSV,3,1,09,23,66,109,43,13,59,205,43,27,35,272,37,20,32,004,00*75
$GPGSV,3,2,09,16,30,132,34,08,17,284,36,03,17,072,00,04,08,266,00*79
$GPGSV,3,3,09,19,05,043,00*4A
$GPRMC,095017.268,A,3526.1740,S,14906.7367,E,0.00,0.00,121104,,*10
$GPGGA,095018.268,3526.1743,S,14906.7366,E,1,04,4.9,653.9,M,12.9,M,0.0,0000*61
$GPGSA,A,3,08,16,27,23,,,,,,,,,5.9,4.9,3.3*38
$GPGSV,3,1,09,23,66,109,42,13,59,204,43,27,35,271,37,20,32,004,00*76
$GPGSV,3,2,09,16,30,132,34,08,18,284,36,03,17,072,00,04,08,267,00*77
$GPGSV,3,3,09,19,05,043,00*4A
$GPRMC,095018.268,A,3526.1743,S,14906.7366,E,0.00,0.00,121104,,*1D
$GPGGA,095019.268,3526.1746,S,14906.7365,E,1,04,4.9,654.2,M,12.9,M,0.0,0000*6A
$GPGSA,A,3,08,16,27,23,,,,,,,,,5.9,4.9,3.3*38
$GPGSV,3,1,09,23,66,109,42,13,59,204,43,27,35,271,38,20,32,004,00*79
$GPGSV,3,2,09,16,30,132,34,08,18,284,36,03,17,072,00,04,08,267,00*77
$GPGSV,3,3,09,19,05,043,00*4A
$GPRMC,095019.268,A,3526.1746,S,14906.7365,E,0.00,0.00,121104,,*1A
$GPGGA,095020.268,3526.1749,S,14906.7364,E,1,04,4.9,654.5,M,12.9,M,0.0,0000*69
$GPGSA,A,3,08,16,27,23,,,,,,,,,5.9,4.9,3.3*38
$GPGSV,3,1,09,23,66,109,42,13,59,204,43,27,35,271,38,20,32,004,00*79
$GPGSV,3,2,09,16,30,132,34,08,18,284,35,03,17,072,00,04,08,267,00*74
$GPGSV,3,3,09,19,05,043,00*4A
$GPRMC,095020.268,A,3526.1749,S,14906.7364,E,0.00,0.00,121104,,*1E
$GPGGA,095021.268,3526.1752,S,14906.7363,E,1,04,4.9,654.8,M,12.9,M,0.0,0000*68
$GPGSA,A,3,08,16,27,23,,,,,,,,,5.9,4.9,3.3*38
$GPGSV,3,1,09,23,66,109,42,13,59,204,43,27,35,271,37,20,32,004,00*76
$GPGSV,3,2,09,16,30,132,34,08,18,284,35,03,17,072,00,04,08,267,00*74
$GPGSV,3,3,09,19,05,043,00*4A
$GPRMC,095021.268,A,3526.1752,S,14906.7363,E,0.00,0.00,121104,,*12
$GPGGA,095022.268,3526.1754,S,14906.7362,E,1,04,4.9,655.1,M,12.9,M,0.0,0000*64
$GPGSA,A,3,08,16,27,23,,,,,,,,,5.9,4.9,3.3*38
$GPGSV,3,1,09,23,66,109,42,13,59,204,43,27,35,271,37,20,32,004,00*76
$GPGSV,3,2,09,16,30,132,34,08,18,284,36,03,17,072,00,04,08,267,00*77
$GPGSV,3,3,09,19,05,043,00*4A
$GPRMC,095022.268,A,3526.1754,S,14906.7362,E,0.00,0.00,121104,,*16
$GPGGA,095023.268,3526.1757,S,14906.7361,E,1,04,4.9,655.4,M,12.9,M,0.0,0000*60
$GPGSA,A,3,08,16,27,23,,,,,,,,,5.9,4.9,3.3*38
$GPGSV,3,1,09,23,66,109,43,13,59,204,43,27,35,271,37,20,32,004,00*77
$GPGSV,3,2,09,16,30,132,35,08,18,284,36,03,17,072,00,04,08,267,00*76
$GPGSV,3,3,09,19,05,043,00*4A
$GPRMC,095023.268,A,3526.1757,S,14906.7361,E,0.00,0.00,121104,,*17
$GPGGA,095024.268,3526.1760,S,14906.7360,E,1,04,4.9,655.7,M,12.9,M,0.0,0000*61
$GPGSA,A,3,08,16,27,23,,,,,,,,,5.9,4.9,3.3*38
$GPGSV,3,1,09,23,66,109,43,13,59,204,44,27,35,271,37,20,32,004,00*70
$GPGSV,3,2,09,16,30,132,34,08,18,284,36,03,17,072,00,04,08,267,00*77
$GPGSV,3,3,09,19,05,043,00*4A
$GPRMC,095024.268,A,3526.1760,S,14906.7360,E,0.00,0.00,121104,,*15
$GPGGA,095025.268,3526.1762,S,14906.7359,E,1,04,4.9,655.8,M,12.9,M,0.0,0000*67
$GPGSA,A,3,08,16,27,23,,,,,,,,,5.9,4.9,3.3*38
$GPGSV,3,1,09,23,66,109,43,13,59,204,44,27,35,271,37,20,32,004,00*70
$GPGSV,3,2,09,16,30,132,34,08,18,284,36,03,17,072,00,04,08,267,00*77
$GPGSV,3,3,09,19,05,043,00*4A
$GPRMC,095025.268,A,3526.1762,S,14906.7359,E,0.00,0.00,121104,,*1C
$GPGGA,095026.268,3526.1765,S,14906.7358,E,1,04,4.9,655.8,M,12.9,M,0.0,0000*62
$GPGSA,A,3,08,16,27,23,,,,,,,,,5.9,4.9,3.3*38
$GPGSV,3,1,09,23,66,109,43,13,59,204,44,27,35,271,37,20,32,004,00*70
$GPGSV,3,2,09,16,30,132,34,08,18,284,35,03,17,072,00,04,08,267,00*74
$GPGSV,3,3,09,19,05,043,00*4A
$GPRMC,095026.268,A,3526.1765,S,14906.7358,E,0.00,0.00,121104,,*19
$GPGGA,095027.268,3526.1766,S,14906.7358,E,1,04,4.9,655.6,M,12.9,M,0.0,0000*6E
$GPGSA,A,3,08,16,27,23,,,,,,,,,5.9,4.9,3.3*38
$GPGSV,3,1,09,23,66,109,43,13,59,204,43,27,35,271,37,20,32,004,00*77
$GPGSV,3,2,09,16,30,132,34,08,18,284,35,03,17,072,00,04,08,267,00*74
$GPGSV,3,3,09,19,05,043,00*4A
$GPRMC,095027.268,A,3526.1766,S,14906.7358,E,0.00,0.00,121104,,*1B
$GPGGA,095028.268,3526.1767,S,14906.7359,E,1,04,4.9,655.3,M,12.9,M,0.0,0000*64
$GPGSA,A,3,08,16,27,23,,,,,,,,,5.9,4.9,3.3*38
$GPGSV,3,1,09,23,66,109,43,13,59,204,43,27,35,271,38,20,32,004,00*78
$GPGSV,3,2,09,16,30,132,34,08,18,284,35,03,17,072,00,04,08,267,00*74
$GPGSV,3,3,09,19,05,043,00*4A
$GPRMC,095028.268,A,3526.1767,S,14906.7359,E,0.00,0.00,121104,,*14
$GPGGA,095029.268,3526.1766,S,14906.7360,E,1,04,4.9,655.0,M,12.9,M,0.0,0000*6D
$GPGSA,A,3,08,16,27,23,,,,,,,,,5.9,4.9,3.3*38
$GPGSV,3,1,09,23,66,109,42,13,59,204,44,27,35,271,37,20,32,004,00*71
$GPGSV,3,2,09,16,30,132,34,08,18,284,35,03,17,072,00,04,08,267,00*74
$GPGSV,3,3,09,19,05,043,00*4A
$GPRMC,095029.268,A,3526.1766,S,14906.7360,E,0.00,0.00,121104,,*1E
$GPGGA,095030.268,3526.1759,S,14906.7366,E,1,05,2.7,653.3,M,12.9,M,0.0,0000*63
$GPGSA,A,3,08,13,16,27,23,,,,,,,,3.5,2.7,2.2*38
$GPGSV,3,1,09,23,66,108,43,13,59,204,44,27,35,271,38,20,32,004,00*7E
$GPGSV,3,2,09,16,30,132,34,08,18,284,35,03,17,072,00,04,08,267,00*74
$GPGSV,3,3,09,19,05,043,00*4A
$GPRMC,095030.268,A,3526.1759,S,14906.7366,E,0.00,0.00,121104,,*1C
$GPGGA,095031.267,3526.1751,S,14906.7372,E,1,05,2.7,651.9,M,12.9,M,0.0,0000*68
$GPGSA,A,3,08,13,16,27,23,,,,,,,,3.5,2.7,2.2*38
$GPGSV,3,1,09,23,66,108,43,13,59,204,44,27,35,271,37,20,32,004,00*71
$GPGSV,3,2,09,16,30,132,34,08,18,284,35,03,17,072,00,04,08,267,00*74
$GPGSV,3,3,09,19,05,043,00*4A
$GPRMC,095031.267,A,3526.1751,S,14906.7372,E,0.00,0.00,121104,,*1F
$GPGGA,095032.267,3526.1745,S,14906.7376,E,1,05,2.7,650.8,M,12.9,M,0.0,0000*6A
$GPGSA,A,3,08,13,16,27,23,,,,,,,,3.5,2.7,2.2*38
$GPGSV,3,1,09,23,66,108,42,13,59,204,43,27,35,271,37,20,32,004,00*77
$GPGSV,3,2,09,16,30,132,35,08,18,284,35,03,17,072,00,04,08,267,00*75
$GPGSV,3,3,09,19,05,043,00*4A
$GPRMC,095032.267,A,3526.1745,S,14906.7376,E,0.00,0.00,121104,,*1D
$GPGGA,095033.267,3526.1739,S,14906.7380,E,1,05,2.7,649.7,M,12.9,M,0.0,0000*6E
$GPGSA,A,3,08,13,16,27,23,,,,,,,,3.5,2.7,2.2*38
$GPGSV,3,1,09,23,66,108,43,13,59,204,43,27,35,271,38,20,32,004,00*79
$GPGSV,3,2,09,16,30,132,35,08,18,284,36,03,17,072,00,04,08,267,00*76
$GPGSV,3,3,09,19,05,043,00*4A
$GPRMC,095033.267,A,3526.1739,S,14906.7380,E,0.00,0.00,121104,,*1E
$GPGGA,095034.267,3526.1734,S,14906.7384,E,1,05,2.7,648.8,M,12.9,M,0.0,0000*6E
$GPGSA,A,3,08,13,16,27,23,,,,,,,,3.5,2.7,2.2*38
$GPGSV,3,1,09,23,66,108,43,13,59,204,43,27,35,271,38,20,32,004,00*79
$GPGSV,3,2,09,16,30,132,35,08,18,284,35,03,17,072,00,04,08,267,00*75
$GPGSV,3,3,09,19,05,043,00*4A
$GPRMC,095034.267,A,3526.1734,S,14906.7384,E,0.00,0.00,121104,,*10
$GPGGA,095035.267,3526.1729,S,14906.7387,E,1,05,2.6,647.9,M,12.9,M,0.0,0000*6F
$GPGSA,A,3,08,13,16,27,23,,,,,,,,3.5,2.6,2.2*39
$GPGSV,3,1,09,23,66,108,43,13,59,204,43,27,35,271,38,20,32,004,00*79
$GPGSV,3,2,09,16,30,132,35,08,18,284,35,03,17,072,00,04,08,267,00*75
$GPGSV,3,3,09,19,05,043,00*4A
$GPRMC,095035.267,A,3526.1729,S,14906.7387,E,0.00,0.00,121104,,*1E
$GPGGA,095036.267,3526.1724,S,14906.7391,E,1,05,2.6,647.0,M,12.9,M,0.0,0000*6F
$GPGSA,A,3,08,13,16,27,23,,,,,,,,3.5,2.6,2.2*39
$GPGSV,3,1,09,23,66,108,42,13,59,204,43,27,35,271,38,20,32,004,00*78
$GPGSV,3,2,09,16,30,132,35,08,18,284,34,03,17,072,00,04,08,267,00*74
$GPGSV,3,3,09,19,05,043,00*4A
$GPRMC,095036.267,A,3526.1724,S,14906.7391,E,0.00,0.00,121104,,*17
$GPGGA,095037.267,3526.1720,S,14906.7394,E,1,05,2.6,645.9,M,12.9,M,0.0,0000*64
$GPGSA,A,3,08,13,16,27,23,,,,,,,,3.5,2.6,2.2*39
$GPGSV,3,1,09,23,66,108,43,13,59,204,44,27,35,271,38,20,32,004,00*7E
$GPGSV,3,2,09,16,30,132,34,08,18,284,34,03,17,072,00,04,08,267,00*75
$GPGSV,3,3,09,19,05,043,00*4A
$GPRMC,095037.267,A,3526.1720,S,14906.7394,E,0.00,0.00,121104,,*17
$GPGGA,095038.267,3526.1717,S,14906.7396,E,1,05,2.6,644.9,M,12.9,M,0.0,0000*6C
$GPGSA,A,3,08,13,16,27,23,,,,,,,,3.5,2.6,2.2*39
$GPGSV,3,1,09,23,66,108,43,13,59,204,44,27,35,271,38,20,32,004,00*7E
$GPGSV,3,2,09,16,30,132,35,08,18,284,35,03,17,072,00,04,08,267,00*75
$GPGSV,3,3,09,19,05,043,00*4A
$GPRMC,095038.267,A,3526.1717,S,14906.7396,E,0.00,0.00,121104,,*1E
$GPGGA,095039.267,3526.1714,S,14906.7398,E,1,05,2.6,644.2,M,12.9,M,0.0,0000*6B
$GPGSA,A,3,08,13,16,27,23,,,,,,,,3.5,2.6,2.2*39
$GPGSV,3,1,09,23,66,108,44,13,59,204,45,27,35,271,38,20,32,004,00*78
$GPGSV,3,2,09,16,30,132,35,08,18,284,35,03,17,072,00,04,08,267,00*75
$GPGSV,3,3,09,19,05,043,00*4A
$GPRMC,095039.267,A,3526.1714,S,14906.7398,E,0.00,0.00,121104,,*12
$GPGGA,095040.267,3526.1711,S,14906.7399,E,1,05,2.6,643.7,M,12.9,M,0.0,0000*63
$GPGSA,A,3,08,13,16,27,23,,,,,,,,3.5,2.6,2.2*39
$GPGSV,3,1,09,23,66,108,43,13,59,204,44,27,35,271,38,20,32,004,00*7E
$GPGSV,3,2,09,16,30,132,34,08,18,284,34,03,17,072,00,04,08,267,00*75
$GPGSV,3,3,09,19,05,043,00*4A
$GPRMC,095040.267,A,3526.1711,S,14906.7399,E,0.00,0.00,121104,,*18
$GPGGA,095041.267,3526.1709,S,14906.7400,E,1,05,2.6,643.2,M,12.9,M,0.0,0000*69
$GPGSA,A,3,08,13,16,27,23,,,,,,,,3.5,2.6,2.2*39
$GPGSV,3,1,09,23,66,108,43,13,59,204,44,27,35,271,38,20,32,004,00*7E
$GPGSV,3,2,09,16,30,132,35,08,18,284,34,03,17,072,00,04,08,267,00*74
$GPGSV,3,3,09,19,05,043,00*4A
$GPRMC,095041.267,A,3526.1709,S,14906.7400,E,0.00,0.00,121104,,*17
$GPGGA,095042.267,3526.1707,S,14906.7401,E,1,05,2.6,643.1,M,12.9,M,0.0,0000*66
$GPGSA,A,3,08,13,16,27,23,,,,,,,,3.5,2.6,2.2*39
$GPGSV,3,1,09,23,66,108,43,13,59,204,44,27,35,271,38,20,32,004,00*7E
$GPGSV,3,2,09,16,30,132,36,08,18,284,35,03,17,072,00,04,08,267,00*76
$GPGSV,3,3,09,19,05,043,00*4A
$GPRMC,095042.267,A,3526.1707,S,14906.7401,E,0.00,0.00,121104,,*1B
$GPGGA,095043.267,3526.1704,S,14906.7402,E,1,05,2.6,643.1,M,12.9,M,0.0,0000*67
$GPGSA,A,3,08,13,16,27,23,,,,,,,,3.5,2.6,2.2*39
$GPGSV,3,1,09,23,66,108,42,13,59,204,44,27,35,271,38,20,32,004,00*7F
$GPGSV,3,2,09,16,30,132,35,08,18,284,34,03,17,072,00,04,08,267,00*74
$GPGSV,3,3,09,19,05,043,00*4A
$GPRMC,095043.267,A,3526.1704,S,14906.7402,E,0.00,0.00,121104,,*1A
$GPGGA,095044.267,3526.1702,S,14906.7403,E,1,05,2.6,643.3,M,12.9,M,0.0,0000*65
$GPGSA,A,3,08,13,16,27,23,,,,,,,,3.5,2.6,2.2*39
$GPGSV,3,1,09,23,66,108,42,13,59,204,44,27,35,271,38,20,32,004,00*7F
$GPGSV,3,2,09,16,30,132,35,08,18,284,34,03,17,072,00,04,08,267,00*74
$GPGSV,3,3,09,19,05,043,00*4A
$GPRMC,095044.267,A,3526.1702,S,14906.7403,E,0.00,0.00,121104,,*1A
$GPGGA,095045.267,3526.1699,S,14906.7405,E,1,05,2.6,643.5,M,12.9,M,0.0,0000*67
$GPGSA,A,3,08,13,16,27,23,,,,,,,,3.5,2.6,2.2*39
$GPGSV,3,1,09,23,66,108,42,13,59,204,44,27,35,271,38,20,32,004,00*7F
$GPGSV,3,2,09,16,30,132,35,08,18,284,34,03,17,072,00,04,08,267,00*74
$GPGSV,3,3,09,19,05,043,00*4A
$GPRMC,095045.267,A,3526.1699,S,14906.7405,E,0.00,0.00,121104,,*1E
$GPGGA,095046.267,3526.1697,S,14906.7406,E,1,05,2.6,643.8,M,12.9,M,0.0,0000*64
$GPGSA,A,3,08,13,16,27,23,,,,,,,,3.5,2.6,2.2*39
$GPGSV,3,1,09,23,66,108,42,13,59,204,43,27,35,271,38,20,32,004,00*78
$GPGSV,3,2,09,16,30,132,35,08,18,284,34,03,17,072,00,04,08,267,00*74
$GPGSV,3,3,09,19,05,043,00*4A
$GPRMC,095046.267,A,3526.1697,S,14906.7406,E,0.00,0.00,121104,,*10
$GPGGA,095047.266,3526.1695,S,14906.7407,E,1,05,2.6,644.3,M,12.9,M,0.0,0000*6B
$GPGSA,A,3,08,13,16,27,23,,,,,,,,3.5,2.6,2.2*39
$GPGSV,3,1,09,23,66,108,42,13,59,204,43,27,35,271,38,20,32,004,00*78
$GPGSV,3,2,09,16,30,132,35,08,18,284,35,03,17,072,00,04,08,267,00*75
$GPGSV,3,3,09,19,05,043,00*4A
$GPRMC,095047.266,A,3526.1695,S,14906.7407,E,0.00,0.00,121104,,*13
$GPGGA,095048.266,3526.1693,S,14906.7408,E,1,05,2.6,644.7,M,12.9,M,0.0,0000*69
$GPGSA,A,3,08,13,16,27,23,,,,,,,,3.5,2.6,2.2*39
$GPGSV,3,1,09,23,66,108,42,13,59,204,43,27,35,271,38,20,32,004,00*78
$GPGSV,3,2,09,16,30,132,35,08,18,284,35,03,17,072,00,04,08,267,00*75
$GPGSV,3,3,09,19,05,043,00*4A
$GPRMC,095048.266,A,3526.1693,S,14906.7408,E,0.00,0.00,121104,,*15
$GPGGA,095049.266,3526.1691,S,14906.7409,E,1,05,2.6,645.2,M,12.9,M,0.0,0000*6F
$GPGSA,A,3,08,13,16,27,23,,,,,,,,3.5,2.6,2.2*39
$GPGSV,3,1,09,23,66,108,42,13,59,204,43,27,35,271,39,20,32,004,00*79
$GPGSV,3,2,09,16,30,132,36,08,18,284,35,03,17,072,00,04,08,267,00*76
$GPGSV,3,3,09,19,05,043,00*4A
$GPRMC,095049.266,A,3526.1691,S,14906.7409,E,0.00,0.00,121104,,*17
$GPGGA,095050.266,3526.1690,S,14906.7409,E,1,05,2.6,645.5,M,12.9,M,0.0,0000*61
$GPGSA,A,3,08,13,16,27,23,,,,,,,,3.5,2.6,2.2*39
$GPGSV,3,1,09,23,66,108,42,13,59,204,43,27,35,271,38,20,32,004,00*78
$GPGSV,3,2,09,16,30,132,36,08,18,284,34,03,17,072,00,04,08,267,00*77
$GPGSV,3,3,09,19,05,043,00*4A
$GPRMC,095050.266,A,3526.1690,S,14906.7409,E,0.00,0.00,121104,,*1E
$GPGGA,095051.266,3526.1688,S,14906.7408,E,1,05,2.6,645.6,M,12.9,M,0.0,0000*6B
$GPGSA,A,3,08,13,16,27,23,,,,,,,,3.5,2.6,2.2*39
$GPGSV,3,1,09,23,66,108,43,13,59,204,44,27,35,271,38,20,32,004,00*7E
$GPGSV,3,2,09,16,30,132,36,08,18,284,33,03,17,072,00,04,08,267,00*70
$GPGSV,3,3,09,19,05,043,00*4A
$GPRMC,095051.266,A,3526.1688,S,14906.7408,E,0.00,0.00,121104,,*17
$GPGGA,095052.266,3526.1687,S,14906.7407,E,1,05,2.6,645.8,M,12.9,M,0.0,0000*66
$GPGSA,A,3,08,13,16,27,23,,,,,,,,3.5,2.6,2.2*39
$GPGSV,3,1,09,23,66,108,43,13,59,204,44,27,35,271,38,20,32,004,00*7E
$GPGSV,3,2,09,16,30,132,36,08,18,284,34,03,17,072,00,04,08,267,00*77
$GPGSV,3,3,09,19,05,043,00*4A
$GPRMC,095052.266,A,3526.1687,S,14906.7407,E,0.00,0.00,121104,,*14
$GPGGA,095053.266,3526.1686,S,14906.7405,E,1,05,2.6,645.9,M,12.9,M,0.0,0000*65
$GPGSA,A,3,08,13,16,27,23,,,,,,,,3.5,2.6,2.2*39
$GPGSV,3,1,09,23,66,108,43,13,59,204,44,27,35,271,38,20,32,004,00*7E
$GPGSV,3,2,09,16,30,132,36,08,18,284,34,03,17,072,00,04,08,267,00*77
$GPGSV,3,3,09,19,05,043,00*4A
$GPRMC,095053.266,A,3526.1686,S,14906.7405,E,0.00,0.00,121104,,*16
$GPGGA,095054.266,3526.1685,S,14906.7404,E,1,05,2.6,645.9,M,12.9,M,0.0,0000*60
$GPGSA,A,3,08,13,16,27,23,,,,,,,,3.5,2.6,2.2*39
$GPGSV,3,1,09,23,66,108,43,13,59,204,44,27,35,271,38,20,32,004,00*7E
$GPGSV,3,2,09,16,30,132,36,08,18,284,33,03,17,072,00,04,08,267,00*70
$GPGSV,3,3,09,19,05,043,00*4A
$GPRMC,095054.266,A,3526.1685,S,14906.7404,E,0.00,0.00,121104,,*13
$GPGGA,095055.266,3526.1684,S,14906.7402,E,1,05,2.6,645.8,M,12.9,M,0.0,0000*67
$GPGSA,A,3,08,13,16,27,23,,,,,,,,3.5,2.6,2.2*39
$GPGSV,3,1,09,23,66,108,42,13,59,204,44,27,35,271,38,20,32,004,00*7F
$GPGSV,3,2,09,16,30,132,36,08,18,284,33,03,17,072,00,04,08,267,00*70
$GPGSV,3,3,09,19,05,043,00*4A
$GPRMC,095055.266,A,3526.1684,S,14906.7402,E,0.00,0.00,121104,,*15
$GPGGA,095056.266,3526.1682,S,14906.7401,E,1,05,2.6,645.7,M,12.9,M,0.0,0000*6E
$GPGSA,A,3,08,13,16,27,23,,,,,,,,3.5,2.6,2.2*39
$GPGSV,3,1,09,23,66,108,42,13,59,204,44,27,35,271,38,20,32,004,00*7F
$GPGSV,3,2,09,16,30,132,36,08,18,284,34,03,17,072,00,04,08,267,00*77
$GPGSV,3,3,09,19,05,043,00*4A
$GPRMC,095056.266,A,3526.1682,S,14906.7401,E,0.00,0.00,121104,,*13
$GPGGA,095057.266,3526.1681,S,14906.7400,E,1,05,2.6,645.6,M,12.9,M,0.0,0000*6C
$GPGSA,A,3,08,13,16,27,23,,,,,,,,3.5,2.6,2.2*39
$GPGSV,3,1,09,23,66,108,42,13,59,204,45,27,35,271,38,20,32,004,00*7E
$GPGSV,3,2,09,16,30,132,36,08,18,284,34,03,17,072,00,04,08,267,00*77
$GPGSV,3,3,09,19,05,043,33*4A
$GPRMC,095057.266,A,3526.1681,S,14906.7400,E,0.00,0.00,121104,,*10
$GPGGA,095058.266,3526.1679,S,14906.7400,E,1,05,2.6,645.5,M,12.9,M,0.0,0000*67
$GPGSA,A,3,08,13,16,27,23,,,,,,,,3.5,2.6,2.2*39
$GPGSV,3,1,09,23,66,108,42,13,59,204,44,27,35,271,38,20,32,004,00*7F
$GPGSV,3,2,09,16,30,132,36,08,18,284,34,03,17,072,00,04,08,267,00*77
$GPGSV,3,3,09,19,05,043,32*4B
$GPRMC,095058.266,A,3526.1679,S,14906.7400,E,0.00,0.00,121104,,*18
$GPGGA,095059.266,3526.1678,S,14906.7400,E,1,05,2.6,645.5,M,12.9,M,0.0,0000*67
$GPGSA,A,3,08,13,16,27,23,,,,,,,,3.5,2.6,2.2*39
$GPGSV,3,1,09,23,66,108,42,13,59,204,44,27,35,271,38,20,32,004,00*7F
$GPGSV,3,2,09,16,30,132,36,08,18,284,34,03,17,072,00,04,08,267,00*77
$GPGSV,3,3,09,19,05,043,31*48
$GPRMC,095059.266,A,3526.1678,S,14906.7400,E,0.00,0.00,121104,,*18
$GPGGA,095100.266,3526.1676,S,14906.7400,E,1,05,2.6,645.4,M,12.9,M,0.0,0000*65
$GPGSA,A,3,08,13,16,27,23,,,,,,,,3.5,2.6,2.2*39
$GPGSV,3,1,09,23,66,108,42,13,59,204,44,27,35,271,38,20,32,004,00*7F
$GPGSV,3,2,09,16,30,132,37,08,18,284,34,03,17,072,00,04,08,267,00*76
$GPGSV,3,3,09,19,05,043,31*48
$GPRMC,095100.266,A,3526.1676,S,14906.7400,E,0.00,0.00,121104,,*1B
$GPGGA,095101.266,3526.1675,S,14906.7400,E,1,05,2.6,645.2,M,12.9,M,0.0,0000*61
$GPGSA,A,3,08,13,16,27,23,,,,,,,,3.5,2.6,2.2*39
$GPGSV,3,1,09,23,66,108,42,13,59,204,44,27,35,271,38,20,32,004,00*7F
$GPGSV,3,2,09,16,30,132,36,08,18,284,33,03,17,072,00,04,08,267,00*70
$GPGSV,3,3,09,19,05,043,31*48
$GPRMC,095101.266,A,3526.1675,S,14906.7400,E,0.00,0.00,121104,,*19
$GPGGA,095102.265,3526.1674,S,14906.7401,E,1,05,2.6,644.9,M,12.9,M,0.0,0000*6B
$GPGSA,A,3,08,13,16,27,23,,,,,,,,3.5,2.6,2.2*39
$GPGSV,3,1,09,23,66,108,42,13,59,204,45,27,35,271,38,20,32,004,00*7E
$GPGSV,3,2,09,16,30,132,36,08,18,284,34,03,17,072,00,04,08,267,00*77
$GPGSV,3,3,09,19,05,043,31*48
$GPRMC,095102.265,A,3526.1674,S,14906.7401,E,0.00,0.00,121104,,*19
$GPGGA,095103.265,3526.1674,S,14906.7401,E,1,05,2.6,644.6,M,12.9,M,0.0,0000*65
$GPGSA,A,3,08,13,16,27,23,,,,,,,,3.5,2.6,2.2*39
$GPGSV,3,1,09,23,66,108,42,13,59,204,44,27,35,271,38,20,32,004,00*7F
$GPGSV,3,2,09,16,30,132,37,08,18,284,34,03,17,072,00,04,08,267,00*76
$GPGSV,3,3,09,19,05,043,31*48
$GPRMC,095103.265,A,3526.1674,S,14906.7401,E,0.00,0.00,121104,,*18
$GPGGA,095104.265,3526.1673,S,14906.7402,E,1,05,2.6,644.2,M,12.9,M,0.0,0000*62
$GPGSA,A,3,08,13,16,27,23,,,,,,,,3.5,2.6,2.2*39
$GPGSV,3,1,09,23,66,108,42,13,59,204,44,27,35,271,37,20,32,004,00*70
$GPGSV,3,2,09,16,30,132,37,08,18,284,34,03,17,072,00,04,08,267,00*76
$GPGSV,3,3,09,19,05,043,31*48
$GPRMC,095104.265,A,3526.1673,S,14906.7402,E,0.00,0.00,121104,,*1B
$GPGGA,095105.265,3526.1672,S,14906.7402,E,1,05,2.6,643.8,M,12.9,M,0.0,0000*6F
$GPGSA,A,3,08,13,16,27,23,,,,,,,,3.4,2.6,2.2*38
$GPGSV,3,1,09,23,66,108,42,13,59,204,44,27,35,271,38,20,32,004,00*7F
$GPGSV,3,2,09,16,30,132,37,08,18,284,33,03,17,072,00,04,08,267,00*71
$GPGSV,3,3,09,19,05,043,32*4B
$GPRMC,095105.265,A,3526.1672,S,14906.7402,E,0.00,0.00,121104,,*1B
$GPGGA,095106.265,3526.1671,S,14906.7402,E,1,05,2.6,643.3,M,12.9,M,0.0,0000*64
$GPGSA,A,3,08,13,16,27,23,,,,,,,,3.4,2.6,2.2*38
$GPGSV,3,1,09,23,66,108,42,13,59,204,44,27,35,271,38,20,32,004,00*7F
$GPGSV,3,2,09,16,30,132,37,08,18,284,33,03,17,072,00,04,08,267,00*71
$GPGSV,3,3,09,19,05,043,32*4B
$GPRMC,095106.265,A,3526.1671,S,14906.7402,E,0.00,0.00,121104,,*1B
$GPGGA,095107.265,3526.1670,S,14906.7403,E,1,05,2.6,642.9,M,12.9,M,0.0,0000*6E
$GPGSA,A,3,08,13,16,27,23,,,,,,,,3.4,2.6,2.2*38
$GPGSV,3,1,09,23,66,108,42,13,59,204,44,27,35,271,38,20,32,004,00*7F
$GPGSV,3,2,09,16,30,132,37,08,18,284,33,03,17,072,00,04,08,267,00*71
$GPGSV,3,3,09,19,05,043,32*4B
$GPRMC,095107.265,A,3526.1670,S,14906.7403,E,0.00,0.00,121104,,*1A
$GPGGA,095108.265,3526.1669,S,14906.7404,E,1,05,2.6,642.7,M,12.9,M,0.0,0000*60
$GPGSA,A,3,08,13,16,27,23,,,,,,,,3.4,2.6,2.2*38
$GPGSV,3,1,09,23,66,108,41,13,59,204,44,27,35,271,39,20,32,004,00*7D
$GPGSV,3,2,09,16,30,132,37,08,18,284,33,03,17,072,00,04,08,267,00*71
$GPGSV,3,3,09,19,05,043,32*4B
$GPRMC,095108.265,A,3526.1669,S,14906.7404,E,0.00,0.00,121104,,*1A
$GPGGA,095109.265,3526.1668,S,14906.7404,E,1,05,2.6,642.7,M,12.9,M,0.0,0000*60
$GPGSA,A,3,08,13,16,27,23,,,,,,,,3.4,2.6,2.2*38
$GPGSV,3,1,09,23,66,108,42,13,59,204,44,27,35,271,39,20,32,004,00*7E
$GPGSV,3,2,09,16,30,132,38,08,18,284,33,03,17,072,00,04,08,267,00*7E
$GPGSV,3,3,09,19,05,043,31*48
$GPRMC,095109.265,A,3526.1668,S,14906.7404,E,0.00,0.00,121104,,*1A
$GPGGA,095110.265,3526.1666,S,14906.7405,E,1,05,2.6,642.7,M,12.9,M,0.0,0000*67
$GPGSA,A,3,08,13,16,27,23,,,,,,,,3.4,2.6,2.2*38
$GPGSV,3,1,09,23,66,108,42,13,59,204,45,27,35,271,39,20,32,004,00*7F
$GPGSV,3,2,09,16,30,132,38,08,18,284,32,03,17,072,00,04,08,267,00*7F
$GPGSV,3,3,09,19,05,043,31*48
$GPRMC,095110.265,A,3526.1666,S,14906.7405,E,0.00,0.00,121104,,*1D
$GPGGA,095111.265,3526.1664,S,14906.7406,E,1,05,2.6,642.7,M,12.9,M,0.0,0000*67
$GPGSA,A,3,08,13,16,27,23,,,,,,,,3.4,2.6,2.2*38
$GPGSV,3,1,09,23,66,108,41,13,59,204,44,27,35,271,39,20,32,004,00*7D
$GPGSV,3,2,09,16,30,132,38,08,18,284,32,03,17,072,00,04,08,267,00*7F
$GPGSV,3,3,09,19,05,043,30*49
$GPRMC,095111.265,A,3526.1664,S,14906.7406,E,0.00,0.00,121104,,*1D
$GPGGA,095112.265,3526.1663,S,14906.7406,E,1,05,2.6,642.7,M,12.9,M,0.0,0000*63
$GPGSA,A,3,08,13,16,27,23,,,,,,,,3.4,2.6,2.2*38
$GPGSV,3,1,09,23,66,107,41,13,60,204,44,27,35,271,39,20,32,004,00*78
$GPGSV,3,2,09,16,29,132,38,08,18,284,32,03,17,072,00,04,08,267,00*77
$GPGSV,3,3,09,19,05,043,30*49
$GPRMC,095112.265,A,3526.1663,S,14906.7406,E,0.00,0.00,121104,,*19
$GPGGA,095113.265,3526.1661,S,14906.7406,E,1,05,2.6,642.7,M,12.9,M,0.0,0000*60
$GPGSA,A,3,08,13,16,27,23,,,,,,,,3.4,2.6,2.2*38
$GPGSV,3,1,09,23,66,107,41,13,60,204,44,27,35,271,38,20,32,004,00*79
$GPGSV,3,2,09,16,29,132,38,08,18,284,33,03,17,072,00,04,08,267,00*76
$GPGSV,3,3,09,19,05,043,30*49
$GPRMC,095113.265,A,3526.1661,S,14906.7406,E,0.00,0.00,121104,,*1A
$GPGGA,095114.265,3526.1660,S,14906.7406,E,1,05,2.6,642.7,M,12.9,M,0.0,0000*66
$GPGSA,A,3,08,13,16,27,23,,,,,,,,3.4,2.6,2.2*38
$GPGSV,3,1,09,23,66,107,41,13,60,204,44,27,35,271,38,20,32,004,00*79
$GPGSV,3,2,09,16,29,132,37,08,18,284,33,03,17,072,00,04,08,267,00*79
$GPGSV,3,3,09,19,05,043,30*49
$GPRMC,095114.265,A,3526.1660,S,14906.7406,E,0.00,0.00,121104,,*1C
$GPGGA,095115.265,3526.1659,S,14906.7406,E,1,05,2.6,642.3,M,12.9,M,0.0,0000*69
$GPGSA,A,3,08,13,16,27,23,,,,,,,,3.4,2.6,2.2*38
$GPGSV,3,1,09,23,66,107,41,13,60,204,44,27,35,271,38,20,32,004,00*79
$GPGSV,3,2,09,16,29,132,38,08,18,284,33,03,17,072,00,04,08,267,00*76
$GPGSV,3,3,09,19,05,043,31*48
$GPRMC,095115.265,A,3526.1659,S,14906.7406,E,0.00,0.00,121104,,*17
$GPGGA,095116.265,3526.1659,S,14906.7406,E,1,05,2.6,641.9,M,12.9,M,0.0,0000*63
$GPGSA,A,3,08,13,16,27,23,,,,,,,,3.4,2.6,2.2*38
$GPGSV,3,1,09,23,66,107,42,13,60,204,43,27,35,271,38,20,32,004,00*7D
$GPGSV,3,2,09,16,29,132,37,08,18,284,33,03,17,072,00,04,08,267,00*79
$GPGSV,3,3,09,19,05,043,30*49
$GPRMC,095116.265,A,3526.1659,S,14906.7406,E,0.00,0.00,121104,,*14
$GPGGA,095117.264,3526.1658,S,14906.7406,E,1,05,2.6,641.3,M,12.9,M,0.0,0000*68
$GPGSA,A,3,08,13,16,27,23,,,,,,,,3.4,2.6,2.2*38
$GPGSV,3,1,09,23,66,107,41,13,60,204,44,27,35,271,38,20,32,004,00*79
$GPGSV,3,2,09,16,29,132,38,08,18,284,33,03,17,072,00,04,08,267,00*76
$GPGSV,3,3,09,19,05,043,30*49
$GPRMC,095117.264,A,3526.1658,S,14906.7406,E,0.00,0.00,121104,,*15
$GPGGA,095118.264,3526.1657,S,14906.7406,E,1,05,2.6,640.8,M,12.9,M,0.0,0000*62
$GPGSA,A,3,08,13,16,27,23,,,,,,,,3.4,2.6,2.2*38
$GPGSV,3,1,09,23,66,107,41,13,60,204,43,27,36,271,38,20,32,004,00*7D
$GPGSV,3,2,09,16,29,132,38,08,18,284,33,03,17,072,33,04,08,267,00*76
$GPGSV,3,3,09,19,06,043,30*4A
$GPRMC,095118.264,A,3526.1657,S,14906.7406,E,0.00,0.00,121104,,*15
$GPGGA,095119.264,3526.1657,S,14906.7407,E,1,05,2.6,640.3,M,12.9,M,1.9,0000*61
$GPGSA,A,3,08,13,16,27,23,,,,,,,,3.4,2.6,2.2*38
$GPGSV,3,1,09,23,66,107,41,13,60,204,43,27,36,271,38,20,32,004,00*7D
$GPGSV,3,2,09,16,29,132,38,08,18,284,33,03,17,072,33,04,08,267,00*76
$GPGSV,3,3,09,19,06,043,29*42
$GPRMC,095119.264,A,3526.1657,S,14906.7407,E,0.00,0.00,121104,,*15
$GPGGA,095120.264,3526.1656,S,14906.7408,E,1,05,2.6,639.9,M,12.9,M,1.9,0000*61
$GPGSA,A,3,08,13,16,27,23,,,,,,,,3.4,2.6,2.2*38
$GPGSV,3,1,09,23,66,107,41,13,60,204,43,27,36,271,38,20,32,004,00*7D
$GPGSV,3,2,09,16,29,132,38,08,18,284,33,03,17,072,30,04,08,267,00*75
$GPGSV,3,3,09,19,06,043,30*4A
$GPRMC,095120.264,A,3526.1656,S,14906.7408,E,0.00,0.00,121104,,*11
$GPGGA,095121.264,3526.1656,S,14906.7409,E,1,05,2.6,639.9,M,12.9,M,1.9,0000*61
$GPGSA,A,3,08,13,16,27,23,,,,,,,,3.4,2.6,2.2*38
$GPGSV,3,1,09,23,66,107,41,13,60,204,43,27,36,271,39,20,32,004,00*7C
$GPGSV,3,2,09,16,29,132,38,08,18,284,33,03,17,072,30,04,08,267,00*75
$GPGSV,3,3,09,19,06,043,30*4A
$GPRMC,095121.264,A,3526.1656,S,14906.7409,E,0.00,0.00,121104,,*11
$GPGGA,095122.264,3526.1655,S,14906.7411,E,1,05,2.6,640.3,M,12.9,M,2.9,0000*6F
$GPGSA,A,3,08,13,16,27,23,,,,,,,,3.4,2.6,2.2*38
$GPGSV,3,1,09,23,66,107,41,13,60,204,44,27,36,271,39,20,32,004,00*7B
$GPGSV,3,2,09,16,29,132,38,08,18,284,34,03,17,072,30,04,08,267,00*72
$GPGSV,3,3,09,19,06,043,30*4A
$GPRMC,095122.264,A,3526.1655,S,14906.7411,E,0.00,0.00,121104,,*18
$GPGGA,095123.264,3526.1655,S,14906.7413,E,1,05,2.6,640.8,M,12.9,M,3.9,0000*66
$GPGSA,A,3,08,13,16,27,23,,,,,,,,3.4,2.6,2.2*38
$GPGSV,3,1,09,23,66,107,41,13,60,204,43,27,36,271,39,20,32,004,00*7C
$GPGSV,3,2,09,16,29,132,38,08,18,284,34,03,17,072,29,04,08,267,00*7A
$GPGSV,3,3,09,19,06,043,30*4A
$GPRMC,095123.264,A,3526.1655,S,14906.7413,E,0.00,0.00,121104,,*1B
$GPGGA,095124.264,3526.1655,S,14906.7416,E,1,05,2.6,641.5,M,12.9,M,4.9,0000*6F
$GPGSA,A,3,08,13,16,27,23,,,,,,,,3.4,2.6,2.2*38
$GPGSV,3,1,09,23,66,107,41,13,60,204,44,27,36,271,39,20,32,004,00*7B
$GPGSV,3,2,09,16,29,132,38,08,18,284,34,03,17,072,29,04,08,267,00*7A
$GPGSV,3,3,09,19,06,043,30*4A
$GPRMC,095124.264,A,3526.1655,S,14906.7416,E,0.00,0.00,121104,,*19
$GPGGA,095125.264,3526.1655,S,14906.7418,E,1,05,2.6,642.1,M,12.9,M,1.9,0000*62
$GPGSA,A,3,08,13,16,27,23,,,,,,,,3.4,2.6,2.2*38
$GPGSV,3,1,09,23,66,107,41,13,60,204,43,27,36,271,39,20,32,004,00*7C
$GPGSV,3,2,09,16,29,132,38,08,18,284,34,03,17,072,29,04,08,267,00*7A
$GPGSV,3,3,09,19,06,043,30*4A
$GPRMC,095125.264,A,3526.1655,S,14906.7418,E,0.00,0.00,121104,,*16
$GPGGA,095126.264,3526.1655,S,14906.7421,E,1,05,2.6,642.5,M,12.9,M,1.9,0000*6F
$GPGSA,A,3,08,13,16,27,23,,,,,,,,3.4,2.6,2.2*38
$GPGSV,3,1,09,23,66,107,42,13,60,204,44,27,36,271,39,20,32,004,00*78
$GPGSV,3,2,09,16,29,132,38,08,18,284,34,03,17,072,29,04,08,267,00*7A
$GPGSV,3,3,09,19,06,043,29*42
$GPRMC,095126.264,A,3526.1655,S,14906.7421,E,0.00,0.00,121104,,*1F
$GPGGA,095127.264,3526.1655,S,14906.7422,E,1,05,2.6,643.0,M,12.9,M,1.9,0000*69
$GPGSA,A,3,08,13,16,27,23,,,,,,,,3.4,2.6,2.2*38
$GPGSV,3,1,09,23,66,107,42,13,60,204,44,27,36,271,39,20,32,004,00*78
$GPGSV,3,2,09,16,29,132,38,08,18,284,35,03,17,072,30,04,08,267,00*73
$GPGSV,3,3,09,19,06,043,29*42
$GPRMC,095127.264,A,3526.1655,S,14906.7422,E,0.00,0.00,121104,,*1D
$GPGGA,095128.264,3526.1655,S,14906.7424,E,1,05,2.6,643.3,M,12.9,M,2.9,0000*60
$GPGSA,A,3,08,13,16,27,23,,,,,,,,3.4,2.6,2.2*38
$GPGSV,3,1,09,23,66,107,42,13,60,204,44,27,36,271,39,20,32,004,00*78
$GPGSV,3,2,09,16,29,132,37,08,18,284,34,03,17,072,30,04,08,267,00*7D
$GPGSV,3,3,09,19,06,043,29*42
$GPRMC,095128.264,A,3526.1655,S,14906.7424,E,0.00,0.00,121104,,*14
$GPGGA,095129.264,3526.1655,S,14906.7425,E,1,05,2.6,643.5,M,12.9,M,3.9,0000*67
$GPGSA,A,3,08,13,16,27,23,,,,,,,,3.4,2.6,2.2*38
$GPGSV,3,1,09,23,66,107,41,13,60,204,43,27,36,271,39,20,32,004,00*7C
$GPGSV,3,2,09,16,29,132,37,08,18,284,35,03,17,072,29,04,08,267,00*74
$GPGSV,3,3,09,19,06,043,29*42
$GPRMC,095129.264,A,3526.1655,S,14906.7425,E,0.00,0.00,121104,,*14
$GPGGA,095130.264,3526.1655,S,14906.7426,E,1,05,2.6,643.5,M,12.9,M,1.9,0000*6E
$GPGSA,A,3,08,13,16,27,23,,,,,,,,3.4,2.6,2.2*38
$GPGSV,3,1,09,23,66,107,41,13,60,204,43,27,36,271,39,20,31,004,00*7F
$GPGSV,3,2,09,16,29,133,38,08,18,284,35,03,17,073,30,04,08,267,00*73
$GPGSV,3,3,09,19,06,043,29*42
$GPRMC,095130.264,A,3526.1655,S,14906.7426,E,0.00,0.00,121104,,*1F
$GPGGA,095131.264,3526.1656,S,14906.7427,E,1,05,2.6,643.6,M,12.9,M,1.9,0000*6E
$GPGSA,A,3,08,13,16,27,23,,,,,,,,3.4,2.6,2.2*38
$GPGSV,3,1,09,23,66,107,40,13,60,204,44,27,36,271,38,20,31,004,00*78
$GPGSV,3,2,09,16,29,133,38,08,18,284,34,03,17,073,30,04,08,267,00*72
$GPGSV,3,3,09,19,06,043,30*4A
$GPRMC,095131.264,A,3526.1656,S,14906.7427,E,0.00,0.00,121104,,*1C
$GPGGA,095132.263,3526.1656,S,14906.7428,E,1,05,2.6,643.7,M,12.9,M,1.9,0000*64
$GPGSA,A,3,08,13,16,27,23,,,,,,,,3.4,2.6,2.2*38
$GPGSV,3,1,09,23,66,107,40,13,60,204,44,27,36,271,38,20,31,004,00*78
$GPGSV,3,2,09,16,29,133,38,08,18,284,34,03,17,073,29,04,08,267,00*7A
$GPGSV,3,3,09,19,06,043,29*42
$GPRMC,095132.263,A,3526.1656,S,14906.7428,E,0.00,0.00,121104,,*17
$GPGGA,095133.263,3526.1655,S,14906.7428,E,1,05,2.6,644.0,M,12.9,M,1.9,0000*66
$GPGSA,A,3,08,13,16,27,23,,,,,,,,3.4,2.6,2.2*38
$GPGSV,3,1,09,23,66,107,40,13,60,204,44,27,36,271,38,20,31,004,00*78
$GPGSV,3,2,09,16,29,133,38,08,18,284,35,03,17,073,29,04,08,267,00*7B
$GPGSV,3,3,09,19,06,043,30*4A
$GPRMC,095133.263,A,3526.1655,S,14906.7428,E,0.00,0.00,121104,,*15
$GPGGA,095134.263,3526.1655,S,14906.7429,E,1,05,2.6,644.4,M,12.9,M,2.9,0000*67
$GPGSA,A,3,08,13,16,27,23,,,,,,,,3.4,2.6,2.2*38
$GPGSV,3,1,09,23,66,107,40,13,60,204,44,27,36,271,38,20,31,004,00*78
$GPGSV,3,2,09,16,29,133,38,08,18,284,35,03,17,073,29,04,08,267,00*7B
$GPGSV,3,3,09,19,06,043,30*4A
$GPRMC,095134.263,A,3526.1655,S,14906.7429,E,0.00,0.00,121104,,*13
$GPGGA,095135.263,3526.1654,S,14906.7430,E,1,05,2.6,645.0,M,12.9,M,3.9,0000*6B
$GPGSA,A,3,08,13,16,27,23,,,,,,,,3.4,2.6,2.2*38
$GPGSV,3,1,09,23,66,107,40,13,60,204,44,27,36,271,38,20,31,004,00*78
$GPGSV,3,2,09,16,29,133,39,08,18,284,35,03,17,073,28,04,08,267,00*7B
$GPGSV,3,3,09,19,06,043,31*4B
$GPRMC,095135.263,A,3526.1654,S,14906.7430,E,0.00,0.00,121104,,*1B
$GPGGA,095136.263,3526.1653,S,14906.7431,E,1,05,2.6,645.6,M,12.9,M,4.9,0000*6F
$GPGSA,A,3,08,13,16,27,23,,,,,,,,3.4,2.6,2.2*38
$GPGSV,3,1,09,23,66,107,40,13,60,204,43,27,36,271,38,20,31,004,00*7F
$GPGSV,3,2,09,16,29,133,38,08,18,284,35,03,17,073,29,04,08,267,00*7B
$GPGSV,3,3,09,19,06,043,31*4B
$GPRMC,095136.263,A,3526.1653,S,14906.7431,E,0.00,0.00,121104,,*1E
$GPGGA,095137.263,3526.1652,S,14906.7431,E,1,05,2.6,646.2,M,12.9,M,1.9,0000*6D
$GPGSA,A,3,08,13,16,27,23,,,,,,,,3.4,2.6,2.2*38
$GPGSV,3,1,09,23,66,107,40,13,60,204,44,27,36,271,39,20,31,004,00*79
$GPGSV,3,2,09,16,29,133,38,08,18,284,35,03,17,073,30,04,08,267,00*73
$GPGSV,3,3,09,19,06,043,32*48
$GPRMC,095137.263,A,3526.1652,S,14906.7431,E,0.00,0.00,121104,,*1E
$GPGGA,095138.263,3526.1651,S,14906.7432,E,1,05,2.6,646.7,M,12.9,M,1.9,0000*67
$GPGSA,A,3,08,13,16,27,23,,,,,,,,3.4,2.6,2.2*38
$GPGSV,3,1,09,23,66,107,40,13,60,204,43,27,36,271,38,20,31,004,00*7F
$GPGSV,3,2,09,16,29,133,39,08,18,284,35,03,17,073,30,04,08,267,00*72
$GPGSV,3,3,09,19,06,043,32*48
$GPRMC,095138.263,A,3526.1651,S,14906.7432,E,0.00,0.00,121104,,*11
$GPGGA,095139.263,3526.1650,S,14906.7432,E,1,05,2.6,646.8,M,12.9,M,1.9,0000*68
$GPGSA,A,3,08,13,16,27,23,,,,,,,,3.4,2.6,2.2*38
$GPGSV,3,1,09,23,66,107,40,13,60,204,44,27,36,271,38,20,31,004,00*78
$GPGSV,3,2,09,16,29,133,38,08,18,284,35,03,17,073,30,04,08,267,00*73
$GPGSV,3,3,09,19,06,043,31*4B
$GPRMC,095139.263,A,3526.1650,S,14906.7432,E,0.00,0.00,121104,,*11
$GPGGA,095140.263,3526.1649,S,14906.7432,E,1,05,2.6,646.7,M,12.9,M,2.9,0000*62
$GPGSA,A,3,08,13,16,27,23,,,,,,,,3.4,2.6,2.2*38
$GPGSV,3,1,09,23,66,107,41,13,60,204,44,27,36,271,39,20,31,004,00*78
$GPGSV,3,2,09,16,29,133,38,08,18,284,35,03,17,073,30,04,08,267,00*73
$GPGSV,3,3,09,19,06,043,32*48
$GPRMC,095140.263,A,3526.1649,S,14906.7432,E,0.00,0.00,121104,,*17
$GPGGA,095141.263,3526.1649,S,14906.7431,E,1,05,2.6,646.4,M,12.9,M,3.9,0000*62
$GPGSA,A,3,08,13,16,27,23,,,,,,,,3.4,2.6,2.2*38
$GPGSV,3,1,09,23,66,107,41,13,60,204,44,27,36,271,39,20,31,004,00*78
$GPGSV,3,2,09,16,29,133,38,08,18,284,35,03,17,073,29,04,08,267,00*7B
$GPGSV,3,3,09,19,06,043,32*48
$GPRMC,095141.263,A,3526.1649,S,14906.7431,E,0.00,0.00,121104,,*15
$GPGGA,095142.263,3526.1648,S,14906.7431,E,1,05,2.6,645.9,M,12.9,M,1.9,0000*6C
$GPGSA,A,3,08,13,16,27,23,,,,,,,,3.4,2.6,2.2*38
$GPGSV,3,1,09,23,66,107,41,13,60,204,44,27,36,271,38,20,31,004,00*79
$GPGSV,3,2,09,16,29,133,38,08,18,284,35,03,17,073,29,04,08,267,00*7B
$GPGSV,3,3,09,19,06,043,33*49
$GPRMC,095142.263,A,3526.1648,S,14906.7431,E,0.00,0.00,121104,,*17
$GPGGA,095143.263,3526.1648,S,14906.7430,E,1,05,2.6,645.4,M,12.9,M,1.9,0000*61
$GPGSA,A,3,08,13,16,27,23,,,,,,,,3.4,2.6,2.2*38
