ÆÆ†Æ™fÌ,000,00,30,02,000,*7A
$GPRMC,235956.000,V,0000.0000,N,00000.0000,E,0.00,0.00,091102,,*11
$GPGGA,235956.999,0000.0000,N,00000.0000,E,0,00,50.0,0.0,M,0.0,M,0.0,0000*71
$GPGSA,A,1,,,,,,,,,,,,,50.0,50.0,50.0*05
$GPGSV,3,1,12,18,90,000,39,04,76,000,00,22,73,000,00,24,68,000,00*7B
$GPGSV,3,2,12,11,61,000,00,14,60,000,00,23,44,000,00,03,33,000,00*7D
$GPGSV,3,3,12,09,25,000,00,26,22,000,36,08,21,000,00,30,02,000,*7F
$GPRMC,235956.999,V,0000.0000,N,00000.0000,E,0.00,0.00,091102,,*18
$GPGGA,235957.999,0000.0000,N,00000.0000,E,0,00,50.0,0.0,M,0.0,M,0.0,0000*70
$GPGSA,A,1,,,,,,,,,,,,,50.0,50.0,50.0*05
$GPGSV,3,1,12,18,90,000,38,04,76,000,00,22,73,000,00,24,68,000,00*7A
$GPGSV,3,2,12,11,61,000,00,14,60,000,00,23,44,000,00,03,33,000,00*7D
$GPGSV,3,3,12,09,25,000,00,26,22,000,29,08,21,000,00,30,02,000,*71
$GPRMC,235957.999,V,0000.0000,N,00000.0000,E,0.00,0.00,091102,,*19
$GPGGA,235958.999,0000.0000,N,00000.0000,E,0,00,50.0,0.0,M,0.0,M,0.0,0000*7F
$GPGSA,A,1,,,,,,,,,,,,,50.0,50.0,50.0*05
$GPGSV,3,1,12,18,90,000,39,04,76,000,00,22,73,000,00,24,68,000,00*7B
$GPGSV,3,2,12,11,61,000,00,14,60,000,00,23,44,000,00,03,33,000,00*7D
$GPGSV,3,3,12,09,25,000,00,26,22,000,30,08,21,000,00,30,02,000,*79
$GPRMC,235958.999,V,0000.0000,N,00000.0000,E,0.00,0.00,091102,,*16
$GPGGA,235959.999,0000.0000,N,00000.0000,E,0,00,50.0,0.0,M,0.0,M,0.0,0000*7E
$GPGSA,A,1,,,,,,,,,,,,,50.0,50.0,50.0*05
$GPGSV,3,1,12,18,90,000,39,04,76,000,00,22,73,000,00,24,68,000,00*7B
$GPGSV,3,2,12,11,61,000,00,14,60,000,00,23,44,000,00,03,33,000,00*7D
$GPGSV,3,3,12,09,25,000,00,26,22,000,30,08,21,000,00,30,02,000,*79
$GPRMC,235959.999,V,0000.0000,N,00000.0000,E,0.00,0.00,091102,,*17
$GPGGA,000000.999,0000.0000,N,00000.0000,E,0,00,50.0,0.0,M,0.0,M,0.0,0000*7F
$GPGSA,A,1,,,,,,,,,,,,,50.0,50.0,50.0*05
$GPGSV,3,1,12,18,90,000,39,04,76,000,00,22,73,000,41,24,68,000,00*7E
$GPGSV,3,2,12,11,61,000,00,14,60,000,00,23,44,000,00,03,33,000,00*7D
$GPGSV,3,3,12,09,25,000,00,26,22,000,30,08,21,000,00,30,02,000,*79
$GPRMC,000000.999,V,0000.0000,N,00000.0000,E,0.00,0.00,101102,,*1E
$GPGGA,000001.999,0000.0000,N,00000.0000,E,0,00,50.0,0.0,M,0.0,M,0.0,0000*7E
$GPGSA,A,1,,,,,,,,,,,,,50.0,50.0,50.0*05
$GPGSV,3,1,12,18,90,000,39,04,76,000,00,22,73,000,42,24,68,000,00*7D
$GPGSV,3,2,12,11,61,000,00,14,60,000,00,23,44,000,00,03,33,000,00*7D
$GPGSV,3,3,12,09,25,000,00,26,22,000,30,08,21,000,00,30,02,000,*79
$GPRMC,000001.999,V,0000.0000,N,00000.0000,E,0.00,0.00,101102,,*1F
$GPGGA,005231.095,0000.0000,N,00000.0000,E,0,00,50.0,0.0,M,0.0,M,0.0,0000*7F
$GPGSA,A,1,,,,,,,,,,,,,50.0,50.0,50.0*05
$GPGSV,3,1,12,18,90,000,39,04,76,000,00,22,73,000,41,24,68,000,00*7E
$GPGSV,3,2,12,11,61,000,00,14,60,000,00,23,44,000,00,03,33,000,00*7D
$GPGSV,3,3,12,09,25,000,00,26,22,000,32,08,21,000,00,30,02,000,*7B
$GPRMC,005231.095,V,0000.0000,N,00000.0000,E,0.00,0.00,161102,,*18
$GPGGA,005232.095,0000.0000,N,00000.0000,E,0,00,50.0,0.0,M,0.0,M,0.0,0000*7C
$GPGSA,A,1,,,,,,,,,,,,,50.0,50.0,50.0*05
$GPGSV,3,1,12,18,90,000,39,04,76,000,00,22,73,000,41,24,68,000,00*7E
$GPGSV,3,2,12,11,61,000,00,14,60,000,00,23,44,000,00,03,33,000,00*7D
$GPGSV,3,3,12,09,25,000,00,26,22,000,31,08,21,000,00,30,02,000,*78
$GPRMC,005232.095,V,0000.0000,N,00000.0000,E,0.00,0.00,161102,,*1B
$GPGGA,005233.095,0000.0000,N,00000.0000,E,0,00,50.0,0.0,M,0.0,M,0.0,0000*7D
$GPGSA,A,1,,,,,,,,,,,,,50.0,50.0,50.0*05
$GPGSV,3,1,12,18,90,000,39,04,76,000,00,22,73,000,41,24,68,000,00*7E
$GPGSV,3,2,12,11,61,000,00,14,60,000,00,23,44,000,00,03,33,000,00*7D
$GPGSV,3,3,12,09,25,000,00,26,22,000,31,08,21,000,00,30,02,000,*78
$GPRMC,005233.095,V,0000.0000,N,00000.0000,E,0.00,0.00,161102,,*1A
$GPGGA,005234.095,0000.0000,N,00000.0000,E,0,00,50.0,0.0,M,0.0,M,0.0,0000*7A
$GPGSA,A,1,,,,,,,,,,,,,50.0,50.0,50.0*05
$GPGSV,3,1,12,18,90,000,39,04,76,000,00,22,73,000,41,24,68,000,00*7E
$GPGSV,3,2,12,11,61,000,00,14,60,000,00,23,44,000,00,03,33,000,00*7D
$GPGSV,3,3,12,09,25,000,00,26,22,000,31,08,21,000,00,30,02,000,*78
$GPRMC,005234.095,V,0000.0000,N,00000.0000,E,0.00,0.00,161102,,*1D
$GPGGA,005235.095,0000.0000,N,00000.0000,E,0,00,50.0,0.0,M,0.0,M,0.0,0000*7B
$GPGSA,A,1,,,,,,,,,,,,,50.0,50.0,50.0*05
$GPGSV,3,1,12,18,90,000,40,04,76,000,00,22,73,000,41,24,68,000,00*70
$GPGSV,3,2,12,11,61,000,00,14,60,000,00,23,44,000,00,03,33,000,00*7D
$GPGSV,3,3,12,09,25,000,00,26,22,000,31,08,21,000,00,30,02,000,*78
$GPRMC,005235.095,V,0000.0000,N,00000.0000,E,0.00,0.00,161102,,*1C
$GPGGA,005236.095,0000.0000,N,00000.0000,E,0,00,50.0,0.0,M,0.0,M,0.0,0000*78
$GPGSA,A,1,,,,,,,,,,,,,50.0,50.0,50.0*05
$GPGSV,3,1,12,18,90,000,39,04,76,000,00,22,73,000,39,24,68,000,00*71
$GPGSV,3,2,12,11,61,000,00,14,60,000,00,23,44,000,00,03,33,000,00*7D
$GPGSV,3,3,12,09,25,000,00,26,22,000,31,08,21,000,00,30,02,000,*78
$GPRMC,005236.095,V,0000.0000,N,00000.0000,E,0.00,0.00,161102,,*1F
$GPGGA,005237.095,0000.0000,N,00000.0000,E,0,00,50.0,0.0,M,0.0,M,0.0,0000*79
$GPGSA,A,1,,,,,,,,,,,,,50.0,50.0,50.0*05
$GPGSV,3,1,12,18,90,000,39,04,76,000,00,22,73,000,39,24,68,000,00*71
$GPGSV,3,2,12,11,61,000,00,14,60,000,00,23,44,000,00,03,33,000,00*7D
$GPGSV,3,3,12,09,25,000,00,26,22,000,31,08,21,000,00,30,02,000,*78
$GPRMC,005237.095,V,0000.0000,N,00000.0000,E,0.00,0.00,161102,,*1E
$GPGGA,005238.095,0000.0000,N,00000.0000,E,0,00,50.0,0.0,M,0.0,M,0.0,0000*76
$GPGSA,A,1,,,,,,,,,,,,,50.0,50.0,50.0*05
$GPGSV,3,1,12,18,90,000,38,04,76,000,00,22,73,000,39,24,68,000,00*70
$GPGSV,3,2,12,11,61,000,00,14,60,000,00,23,44,000,00,03,33,000,00*7D
$GPGSV,3,3,12,09,25,000,00,26,22,000,30,08,21,000,00,30,02,000,*79
$GPRMC,005238.095,V,0000.0000,N,00000.0000,E,0.00,0.00,161102,,*11
$GPGGA,005239.095,0000.0000,N,00000.0000,E,0,00,50.0,0.0,M,0.0,M,0.0,0000*77
$GPGSA,A,1,,,,,,,,,,,,,50.0,50.0,50.0*05
$GPGSV,3,1,12,18,90,000,41,04,76,000,00,22,73,000,41,24,68,000,00*71
$GPGSV,3,2,12,11,61,000,00,14,60,000,00,23,44,000,00,03,33,000,00*7D
$GPGSV,3,3,12,09,25,000,00,26,22,000,29,08,21,000,00,30,02,000,*71
$GPRMC,005239.095,V,0000.0000,N,00000.0000,E,0.00,0.00,161102,,*10
$GPGGA,005240.095,0000.0000,N,00000.0000,E,0,00,50.0,0.0,M,0.0,M,0.0,0000*79
$GPGSA,A,1,,,,,,,,,,,,,50.0,50.0,50.0*05
$GPGSV,3,1,12,18,90,000,40,04,76,000,00,22,73,000,42,24,68,000,00*73
$GPGSV,3,2,12,11,61,000,00,14,60,000,00,23,44,000,00,03,33,000,35*7B
$GPGSV,3,3,12,09,25,000,00,26,22,000,30,08,21,000,00,30,02,000,*79
$GPRMC,005240.095,V,0000.0000,N,00000.0000,E,0.00,0.00,161102,,*1E
$GPGGA,005241.095,0000.0000,N,00000.0000,E,0,00,50.0,0.0,M,0.0,M,0.0,0000*78
$GPGSA,A,1,,,,,,,,,,,,,50.0,50.0,50.0*05
$GPGSV,3,1,12,18,90,000,40,04,76,000,00,22,73,000,41,24,68,000,00*70
$GPGSV,3,2,12,11,61,000,00,14,60,000,00,23,44,000,00,03,33,000,37*79
$GPGSV,3,3,12,09,25,000,00,26,22,000,28,08,21,000,00,30,02,000,*70
$GPRMC,005241.095,V,0000.0000,N,00000.0000,E,0.00,0.00,161102,,*1F
$GPGGA,005242.095,0000.0000,N,00000.0000,E,0,00,50.0,0.0,M,0.0,M,0.0,0000*7B
$GPGSA,A,1,,,,,,,,,,,,,50.0,50.0,50.0*05
$GPGSV,3,1,12,18,90,000,41,04,76,000,00,22,73,000,41,24,68,000,00*71
$GPGSV,3,2,12,11,61,000,00,14,60,000,37,23,44,000,00,03,33,000,38*72
$GPGSV,3,3,12,09,25,000,00,26,22,000,31,08,21,000,00,30,02,000,*78
$GPRMC,005242.095,V,0000.0000,N,00000.0000,E,0.00,0.00,161102,,*1C
$GPGGA,005243.095,0000.0000,N,00000.0000,E,0,00,50.0,0.0,M,0.0,M,0.0,0000*7A
$GPGSA,A,1,,,,,,,,,,,,,50.0,50.0,50.0*05
$GPGSV,3,1,12,18,90,000,41,04,76,000,00,22,73,000,41,24,68,000,00*71
$GPGSV,3,2,12,11,61,000,00,14,60,000,37,23,44,000,00,03,33,000,38*72
$GPGSV,3,3,12,09,25,000,00,26,22,000,30,08,21,000,00,30,02,000,*79
$GPRMC,005243.095,V,0000.0000,N,00000.0000,E,0.00,0.00,161102,,*1D
$GPGGA,005244.095,0000.0000,N,00000.0000,E,0,00,50.0,0.0,M,0.0,M,0.0,0000*7D
$GPGSA,A,1,,,,,,,,,,,,,50.0,50.0,50.0*05
$GPGSV,3,1,12,18,90,000,41,04,76,000,00,22,73,000,41,24,68,000,00*71
$GPGSV,3,2,12,11,61,000,00,14,60,000,38,23,44,000,00,03,33,000,38*7D
$GPGSV,3,3,12,09,25,000,00,26,22,000,28,08,21,000,00,30,02,000,*70
$GPRMC,005244.095,V,0000.0000,N,00000.0000,E,0.00,0.00,161102,,*1A
$GPGGA,005245.095,0000.0000,N,00000.0000,E,0,00,50.0,0.0,M,0.0,M,0.0,0000*7C
$GPGSA,A,1,,,,,,,,,,,,,50.0,50.0,50.0*05
$GPGSV,3,1,12,18,90,000,41,04,76,000,00,22,73,000,42,24,68,000,00*72
$GPGSV,3,2,12,11,61,000,00,14,60,000,36,23,44,000,00,03,33,000,38*73
$GPGSV,3,3,12,09,25,000,00,26,22,000,29,08,21,000,00,30,02,000,*71
$GPRMC,005245.095,V,0000.0000,N,00000.0000,E,0.00,0.00,161102,,*1B
$GPGGA,005246.094,0000.0000,N,00000.0000,E,0,00,50.0,0.0,M,0.0,M,0.0,0000*7E
$GPGSA,A,1,,,,,,,,,,,,,50.0,50.0,50.0*05
$GPGSV,3,1,12,18,90,000,41,04,76,000,00,22,73,000,42,24,68,000,00*72
$GPGSV,3,2,12,11,61,000,00,14,60,000,38,23,44,000,00,03,33,000,38*7D
$GPGSV,3,3,12,09,25,000,00,26,22,000,28,08,21,000,00,30,02,000,*70
$GPRMC,005246.094,V,0000.0000,N,00000.0000,E,0.00,0.00,161102,,*19
$GPGGA,005247.094,0000.0000,N,00000.0000,E,0,00,50.0,0.0,M,0.0,M,0.0,0000*7F
$GPGSA,A,1,,,,,,,,,,,,,50.0,50.0,50.0*05
$GPGSV,3,1,12,18,90,000,41,04,76,000,00,22,73,000,42,24,68,000,00*72
$GPGSV,3,2,12,11,61,000,00,14,60,000,37,23,44,000,00,03,33,000,39*73
$GPGSV,3,3,12,09,25,000,00,26,22,000,26,08,21,000,00,30,02,000,*7E
$GPRMC,005247.094,V,0000.0000,N,00000.0000,E,0.00,0.00,161102,,*18
$GPGGA,005248.094,0000.0000,N,00000.0000,E,0,00,50.0,0.0,M,0.0,M,0.0,0000*70
$GPGSA,A,1,,,,,,,,,,,,,50.0,50.0,50.0*05
$GPGSV,3,1,12,18,90,000,42,04,76,000,00,22,73,000,41,24,68,000,00*72
$GPGSV,3,2,12,11,61,000,00,14,60,000,38,23,44,000,00,03,33,000,39*7C
$GPGSV,3,3,12,09,25,000,00,26,22,000,30,08,21,000,00,30,02,000,*79
$GPRMC,005248.094,V,0000.0000,N,00000.0000,E,0.00,0.00,161102,,*17
$GPGGA,005249.094,0000.0000,N,00000.0000,E,0,00,50.0,0.0,M,0.0,M,0.0,0000*71
$GPGSA,A,1,,,,,,,,,,,,,50.0,50.0,50.0*05
$GPGSV,3,1,12,18,90,000,41,04,76,000,00,22,73,000,42,24,68,000,00*72
$GPGSV,3,2,12,11,61,000,00,14,60,000,38,23,44,000,00,03,33,000,39*7C
$GPGSV,3,3,12,09,25,000,00,26,22,000,29,08,21,000,00,30,02,000,*71
$GPRMC,005249.094,V,0000.0000,N,00000.0000,E,0.00,0.00,161102,,*16
$GPGGA,005250.094,0000.0000,N,00000.0000,E,0,00,50.0,0.0,M,0.0,M,0.0,0000*79
$GPGSA,A,1,,,,,,,,,,,,,50.0,50.0,50.0*05
$GPGSV,3,1,12,18,90,000,41,04,76,000,00,22,73,000,42,24,68,000,00*72
$GPGSV,3,2,12,11,61,000,00,14,60,000,37,23,44,000,00,03,33,000,38*72
$GPGSV,3,3,12,09,25,000,00,26,22,000,28,08,21,000,00,30,02,000,*70
$GPRMC,005250.094,V,0000.0000,N,00000.0000,E,0.00,0.00,161102,,*1E
$GPGGA,005251.094,0000.0000,N,00000.0000,E,0,00,50.0,0.0,M,0.0,M,0.0,0000*78
$GPGSA,A,1,,,,,,,,,,,,,50.0,50.0,50.0*05
$GPGSV,3,1,12,18,90,000,41,04,76,000,00,22,73,000,42,24,68,000,00*72
$GPGSV,3,2,12,11,61,000,00,14,60,000,37,23,44,000,00,03,33,000,39*73
$GPGSV,3,3,12,09,25,000,00,26,22,000,25,08,21,000,00,30,02,000,*7D
$GPRMC,005251.094,V,0000.0000,N,00000.0000,E,0.00,0.00,161102,,*1F
$GPGGA,005252.094,0000.0000,N,00000.0000,E,0,00,50.0,0.0,M,0.0,M,0.0,0000*7B
$GPGSA,A,1,,,,,,,,,,,,,50.0,50.0,50.0*05
$GPGSV,3,1,12,18,90,000,42,04,76,000,00,22,73,000,42,24,68,000,00*71
$GPGSV,3,2,12,11,61,000,00,14,60,000,36,23,44,000,00,03,33,000,39*72
$GPGSV,3,3,12,09,25,000,00,26,22,000,27,08,21,000,00,30,02,000,*7F
$GPRMC,005252.094,V,0000.0000,N,00000.0000,E,0.00,0.00,161102,,*1C
$GPGGA,005253.094,0000.0000,N,00000.0000,E,0,00,50.0,0.0,M,0.0,M,0.0,0000*7A
$GPGSA,A,1,,,,,,,,,,,,,50.0,50.0,50.0*05
$GPGSV,3,1,12,18,90,000,42,04,76,000,00,22,73,000,42,24,68,000,00*71
$GPGSV,3,2,12,11,61,000,00,14,60,000,36,23,44,000,00,03,33,000,38*73
$GPGSV,3,3,12,09,25,000,00,26,22,000,27,08,21,000,00,30,02,000,*7F
$GPRMC,005253.094,V,0000.0000,N,00000.0000,E,0.00,0.00,131104,,*1E
$GPGGA,005254.094,0000.0000,N,00000.0000,E,0,00,50.0,0.0,M,0.0,M,0.0,0000*7D
$GPGSA,A,1,,,,,,,,,,,,,50.0,50.0,50.0*05
$GPGSV,3,1,12,22,83,000,42,18,56,000,42,15,54,000,,16,45,000,*7A
$GPGSV,3,2,12,03,35,000,38,21,34,000,,06,20,000,,14,20,000,37*76
$GPGSV,3,3,12,19,06,000,,26,04,000,27,29,-02,000,,25,-06,000,*79
$GPRMC,005254.094,V,0000.0000,N,00000.0000,E,0.00,0.00,131104,,*19
$GPGGA,005255.094,0000.0000,N,00000.0000,E,0,00,50.0,0.0,M,0.0,M,0.0,0000*7C
$GPGSA,A,1,,,,,,,,,,,,,50.0,50.0,50.0*05
$GPGSV,3,1,12,22,83,000,42,18,56,000,41,15,54,000,00,16,45,000,00*79
$GPGSV,3,2,12,03,35,000,40,21,34,000,00,06,20,000,00,14,20,000,37*79
$GPGSV,3,3,12,19,06,000,,26,04,000,27,29,-02,000,,25,-06,000,*79
$GPRMC,005255.094,V,0000.0000,N,00000.0000,E,0.00,0.00,131104,,*18
$GPGGA,005256.094,0000.0000,N,00000.0000,E,0,00,50.0,0.0,M,0.0,M,0.0,0000*7F
$GPGSA,A,1,,,,,,,,,,,,,50.0,50.0,50.0*05
$GPGSV,3,1,12,22,83,000,43,18,56,000,41,15,54,000,00,16,45,000,00*78
$GPGSV,3,2,12,03,35,000,39,21,34,000,00,06,20,000,00,14,20,000,36*76
$GPGSV,3,3,12,19,06,000,,26,04,000,29,29,-02,000,,25,-06,000,*77
$GPRMC,005256.094,V,0000.0000,N,00000.0000,E,0.00,0.00,131104,,*1B
$GPGGA,005257.094,0000.0000,N,00000.0000,E,0,00,50.0,0.0,M,0.0,M,0.0,0000*7E
$GPGSA,A,1,,,,,,,,,,,,,50.0,50.0,50.0*05
$GPGSV,3,1,12,22,83,000,42,18,56,000,40,15,54,000,00,16,45,000,00*78
$GPGSV,3,2,12,03,35,000,36,21,34,000,00,06,20,000,00,14,20,000,37*78
$GPGSV,3,3,12,19,06,000,,26,04,000,31,29,-02,000,,25,-06,000,*7E
$GPRMC,005257.094,V,0000.0000,N,00000.0000,E,0.00,0.00,131104,,*1A
$GPGGA,005258.094,0000.0000,N,00000.0000,E,0,00,50.0,0.0,M,0.0,M,0.0,0000*71
$GPGSA,A,1,,,,,,,,,,,,,50.0,50.0,50.0*05
$GPGSV,3,1,12,22,83,000,42,18,56,000,40,15,54,000,00,16,45,000,00*78
$GPGSV,3,2,12,03,35,000,35,21,34,000,45,06,20,000,00,14,20,000,35*78
$GPGSV,3,3,12,19,06,000,,26,04,000,30,29,-02,000,,25,-06,000,*7F
$GPRMC,005258.094,V,0000.0000,N,00000.0000,E,0.00,0.00,131104,,*15
$GPGGA,005259.094,0000.0000,N,00000.0000,E,0,00,50.0,0.0,M,0.0,M,0.0,0000*70
$GPGSA,A,1,,,,,,,,,,,,,50.0,50.0,50.0*05
$GPGSV,3,1,12,22,83,000,43,18,56,000,40,15,54,000,00,16,45,000,00*79
$GPGSV,3,2,12,03,35,000,33,21,34,000,45,06,20,000,00,14,20,000,38*73
$GPGSV,3,3,12,19,06,000,,26,04,000,32,29,-02,000,,25,-06,000,*7D
$GPRMC,005259.094,V,0000.0000,N,00000.0000,E,0.00,0.00,131104,,*14
$GPGGA,005300.094,0000.0000,N,00000.0000,E,0,00,50.0,0.0,M,0.0,M,0.0,0000*7D
$GPGSA,A,1,,,,,,,,,,,,,50.0,50.0,50.0*05
$GPGSV,3,1,12,22,83,000,43,18,56,000,40,15,54,000,00,16,45,000,34*7E
$GPGSV,3,2,12,03,35,000,34,21,34,000,45,06,20,000,00,14,20,000,36*7A
$GPGSV,3,3,12,19,06,000,,26,04,000,33,29,-02,000,,25,-06,000,*7C
$GPRMC,005300.094,V,0000.0000,N,00000.0000,E,0.00,0.00,131104,,*19
$GPGGA,005301.094,0000.0000,N,00000.0000,E,0,00,50.0,0.0,M,0.0,M,0.0,0000*7C
$GPGSA,A,1,,,,,,,,,,,,,50.0,50.0,50.0*05
$GPGSV,3,1,12,22,83,000,42,18,56,000,38,15,54,000,00,16,45,000,32*76
$GPGSV,3,2,12,03,35,000,33,21,34,000,45,06,20,000,00,14,20,000,37*7C
$GPGSV,3,3,12,19,06,000,,26,04,000,38,29,-02,000,,25,-06,000,*77
$GPRMC,005301.094,V,0000.0000,N,00000.0000,E,0.00,0.00,131104,,*18
$GPGGA,005302.094,0000.0000,N,00000.0000,E,0,00,50.0,0.0,M,0.0,M,0.0,0000*7F
$GPGSA,A,1,,,,,,,,,,,,,50.0,50.0,50.0*05
$GPGSV,3,1,12,22,83,000,41,18,56,000,37,15,54,000,00,16,45,000,33*7B
$GPGSV,3,2,12,03,35,000,35,21,34,000,45,06,20,000,00,14,20,000,38*75
$GPGSV,3,3,12,19,06,000,,26,04,000,37,29,-02,000,,25,-06,000,*78
$GPRMC,005302.094,V,0000.0000,N,00000.0000,E,0.00,0.00,131104,,*1B
$GPGGA,005303.093,0000.0000,N,00000.0000,E,0,00,50.0,0.0,M,0.0,M,0.0,0000*79
$GPGSA,A,1,,,,,,,,,,,,,50.0,50.0,50.0*05
$GPGSV,3,1,12,22,83,000,40,18,56,000,38,15,54,000,00,16,45,000,31*77
$GPGSV,3,2,12,03,35,000,33,21,34,000,46,06,20,000,00,14,20,000,35*7D
$GPGSV,3,3,12,19,06,000,,26,04,000,37,29,-02,000,,25,-06,000,*78
$GPRMC,005303.093,V,0000.0000,N,00000.0000,E,0.00,0.00,131104,,*1D
$GPGGA,005304.093,0000.0000,N,00000.0000,E,0,00,50.0,0.0,M,0.0,M,0.0,0000*7E
$GPGSA,A,1,,,,,,,,,,,,,50.0,50.0,50.0*05
$GPGSV,3,1,12,22,83,000,40,18,56,000,39,15,54,000,00,16,45,000,35*72
$GPGSV,3,2,12,03,35,000,35,21,34,000,42,06,20,000,00,14,20,000,34*7E
$GPGSV,3,3,12,19,06,000,,26,04,000,33,29,-02,000,,25,-06,000,*7C
$GPRMC,005304.093,V,0000.0000,N,00000.0000,E,0.00,0.00,131104,,*1A
$GPGGA,005305.093,0000.0000,N,00000.0000,E,0,00,50.0,0.0,M,0.0,M,0.0,0000*7F
$GPGSA,A,1,,,,,,,,,,,,,50.0,50.0,50.0*05
$GPGSV,3,1,12,22,83,000,37,18,56,000,40,15,54,000,41,16,45,000,37*7B
$GPGSV,3,2,12,03,35,000,34,21,34,000,42,06,20,000,00,14,20,000,40*7C
$GPGSV,3,3,12,19,06,000,,26,04,000,34,29,-02,000,,25,-06,000,*7B
$GPRMC,005305.093,V,0000.0000,N,00000.0000,E,0.00,0.00,131104,,*1B
$GPGGA,005306.091,3527.0643,S,14905.1757,E,1,03,13.8,0.0,M,12.8,M,0.0,0000*5A
$GPGSA,A,2,18,22,14,,,,,,,,,,24.3,13.8,20.0*02
$GPGSV,3,1,12,22,83,000,39,18,56,000,40,15,54,000,39,16,45,000,36*7B
$GPGSV,3,2,12,03,35,000,31,21,34,000,45,06,20,000,00,14,20,000,38*71
$GPGSV,3,3,12,19,06,000,,26,04,000,37,29,-02,000,,25,-06,000,*78
$GPRMC,005306.091,A,3527.0643,S,14905.1757,E,0.00,0.00,131104,,*1F
$GPGGA,005307.091,3527.0628,S,14905.1755,E,1,03,13.8,0.0,M,12.8,M,0.0,0000*54
$GPGSA,A,2,18,22,14,,,,,,,,,,24.3,13.8,20.0*02
$GPGSV,3,1,10,18,76,183,38,21,60,122,42,22,56,286,44,15,50,222,37*79
$GPGSV,3,2,10,06,27,022,00,26,25,132,38,03,25,227,33,16,19,284,34*77
$GPGSV,3,3,10,29,16,139,,14,14,351,38*73
$GPRMC,005307.091,A,3527.0628,S,14905.1755,E,0.00,0.00,131104,,*11
$GPGGA,005308.091,3527.0626,S,14905.1759,E,1,03,13.8,0.0,M,12.8,M,0.0,0000*59
$GPGSA,A,2,18,22,14,,,,,,,,,,24.3,13.8,20.0*02
$GPGSV,3,1,10,18,76,183,40,21,60,122,37,22,56,286,42,15,50,222,37*72
$GPGSV,3,2,10,06,27,022,37,26,25,132,38,03,25,227,33,16,19,284,28*7E
$GPGSV,3,3,10,29,16,139,00,14,14,351,35*7E
$GPRMC,005308.091,A,3527.0626,S,14905.1759,E,0.00,0.00,131104,,*1C
$GPGGA,005309.091,3527.0624,S,14905.1791,E,1,03,13.8,0.0,M,12.8,M,0.0,0000*5E
$GPGSA,A,2,18,22,14,,,,,,,,,,24.3,13.8,20.0*02
$GPGSV,3,1,10,18,76,183,40,21,60,122,36,22,56,286,43,15,50,222,38*7D
$GPGSV,3,2,10,06,27,022,36,26,25,132,33,03,25,227,33,16,19,284,30*7D
$GPGSV,3,3,10,29,16,139,00,14,14,351,30*7B
$GPRMC,005309.091,A,3527.0624,S,14905.1791,E,0.00,0.00,131104,,*1B
$GPGGA,005310.091,3527.0638,S,14905.1766,E,1,03,13.8,0.0,M,12.8,M,0.0,0000*53
$GPGSA,A,2,18,22,14,,,,,,,,,,24.3,13.8,20.0*02
$GPGSV,3,1,10,18,76,183,40,21,60,122,37,22,56,286,43,15,50,222,39*7D
$GPGSV,3,2,10,06,27,022,38,26,25,132,40,03,25,227,33,16,19,284,35*72
$GPGSV,3,3,10,29,16,139,35,14,14,351,32*7F
$GPRMC,005310.091,A,3527.0638,S,14905.1766,E,0.00,0.00,131104,,*16
$GPGGA,005311.091,3527.0643,S,14905.1787,E,1,03,13.8,0.0,M,12.8,M,0.0,0000*51
$GPGSA,A,2,18,22,14,,,,,,,,,,24.3,13.8,20.0*02
$GPGSV,3,1,10,18,76,183,38,21,60,122,36,22,56,286,43,15,50,222,37*7D
$GPGSV,3,2,10,06,27,022,38,26,25,132,41,03,25,227,27,16,19,284,30*73
$GPGSV,3,3,10,29,16,139,38,14,14,351,32*72
$GPRMC,005311.091,A,3527.0643,S,14905.1787,E,0.00,0.00,131104,,*14
$GPGGA,005312.091,3527.0724,S,14905.1626,E,1,03,13.7,0.0,M,12.8,M,0.0,0000*57
$GPGSA,A,2,18,22,14,,,,,,,,,,24.3,13.7,20.0*0D
$GPGSV,3,1,10,18,76,183,36,21,60,122,35,22,56,286,33,15,50,222,39*79
$GPGSV,3,2,10,06,27,022,39,26,25,132,41,03,25,227,37,16,19,284,32*71
$GPGSV,3,3,10,29,16,139,35,14,14,351,31*7C
$GPRMC,005312.091,A,3527.0724,S,14905.1626,E,0.00,0.00,131104,,*1D
$GPGGA,005313.091,3527.0703,S,14905.1637,E,1,03,13.7,0.0,M,12.8,M,0.0,0000*53
$GPGSA,A,2,18,22,14,,,,,,,,,,24.3,13.7,20.0*0D
$GPGSV,3,1,10,18,76,183,35,21,60,122,34,22,56,286,33,15,50,222,40*75
$GPGSV,3,2,10,06,27,022,39,26,25,132,39,03,25,227,37,16,19,284,36*7A
$GPGSV,3,3,10,29,16,139,35,14,14,351,37*7A
$GPRMC,005313.091,A,3527.0703,S,14905.1637,E,0.00,0.00,131104,,*19
$GPGGA,005314.090,3527.0704,S,14905.1575,E,1,03,13.7,0.0,M,12.8,M,0.0,0000*57
$GPGSA,A,2,18,22,14,,,,,,,,,,24.3,13.7,20.0*0D
$GPGSV,3,1,10,18,76,183,35,21,60,122,36,22,56,286,34,15,50,222,40*70
$GPGSV,3,2,10,06,27,022,39,26,25,132,41,03,25,227,36,16,19,284,31*73
$GPGSV,3,3,10,29,16,139,38,14,14,351,37*77
$GPRMC,005314.090,A,3527.0704,S,14905.1575,E,0.00,0.00,131104,,*1D
$GPGGA,005315.090,3527.0737,S,14905.1493,E,1,03,13.7,0.0,M,12.8,M,0.0,0000*5F
$GPGSA,A,2,18,22,14,,,,,,,,,,24.3,13.7,20.0*0D
$GPGSV,3,1,10,18,76,183,35,21,60,122,34,22,56,286,33,15,50,222,39*7B
$GPGSV,3,2,10,06,27,022,37,26,25,132,41,03,25,227,35,16,19,284,31*7E
$GPGSV,3,3,10,29,16,139,38,14,14,351,32*72
$GPRMC,005315.090,A,3527.0737,S,14905.1493,E,0.00,0.00,131104,,*15
$GPGGA,005316.090,3527.0755,S,14905.1443,E,1,03,13.7,0.0,M,12.8,M,0.0,0000*55
$GPGSA,A,2,18,22,14,,,,,,,,,,24.3,13.7,20.0*0D
$GPGSV,3,1,10,18,76,183,37,21,60,122,30,22,56,286,36,15,50,222,41*77
$GPGSV,3,2,10,06,27,022,37,26,25,132,39,03,25,227,38,16,19,284,33*7E
$GPGSV,3,3,10,29,16,139,35,14,14,351,32*7F
$GPRMC,005316.090,A,3527.0755,S,14905.1443,E,0.00,0.00,131104,,*1F
$GPGGA,005317.090,3527.0780,S,14905.1385,E,1,03,13.7,0.0,M,12.8,M,0.0,0000*51
$GPGSA,A,2,18,22,14,,,,,,,,,,24.3,13.7,20.0*0D
$GPGSV,3,1,10,18,76,183,40,21,60,122,30,22,56,286,41,15,50,222,41*77
$GPGSV,3,2,10,06,27,022,33,26,25,132,38,03,25,227,36,16,19,284,29*7E
$GPGSV,3,3,10,29,16,139,35,14,14,351,30*7D
$GPRMC,005317.090,A,3527.0780,S,14905.1385,E,0.00,0.00,131104,,*1B
$GPGGA,005318.090,3527.0823,S,14905.1259,E,1,03,13.7,0.0,M,12.8,M,0.0,0000*58
$GPGSA,A,2,18,22,14,,,,,,,,,,24.3,13.7,20.0*0D
$GPGSV,3,1,10,18,76,183,38,21,60,122,36,22,56,286,31,15,50,222,38*77
$GPGSV,3,2,10,06,27,022,37,26,25,132,37,03,25,227,34,16,19,284,33*7C
$GPGSV,3,3,10,29,16,139,33,14,14,351,26*7C
$GPRMC,005318.090,A,3527.0823,S,14905.1259,E,0.00,0.00,131104,,*12
$GPGGA,005319.090,3527.0829,S,14905.1157,E,1,03,13.7,0.0,M,12.8,M,0.0,0000*5E
$GPGSA,A,2,18,22,14,,,,,,,,,,24.3,13.7,20.0*0D
$GPGSV,3,1,10,18,76,183,38,21,60,122,40,22,56,286,33,15,50,222,41*7A
$GPGSV,3,2,10,06,27,022,34,26,25,132,31,03,25,227,38,16,19,284,31*77
$GPGSV,3,3,10,29,16,139,34,14,14,351,28*75
$GPRMC,005319.090,A,3527.0829,S,14905.1157,E,0.00,0.00,131104,,*14
$GPGGA,005320.090,3527.0828,S,14905.1158,E,1,03,13.7,0.0,M,12.8,M,0.0,0000*5A
$GPGSA,A,2,18,22,14,,,,,,,,,,24.3,13.7,20.0*0D
$GPGSV,3,1,10,18,76,183,33,21,60,122,42,22,56,286,39,15,50,222,43*7B
$GPGSV,3,2,10,06,27,022,33,26,25,132,37,03,25,227,34,16,19,284,30*7B
$GPGSV,3,3,10,29,16,139,34,14,14,351,27*7A
$GPRMC,005320.090,A,3527.0828,S,14905.1158,E,0.00,0.00,131104,,*10
$GPGGA,005321.090,3527.0828,S,14905.1158,E,0,00,50.0,0.0,M,12.8,M,0.0,0000*59
$GPGSA,A,1,,,,,,,,,,,,,50.0,50.0,50.0*05
$GPGSV,3,1,10,18,76,183,29,21,60,122,45,22,56,286,39,15,50,222,44*70
$GPGSV,3,2,10,06,27,022,33,26,25,132,37,03,25,227,39,16,19,284,24*73
$GPGSV,3,3,10,29,16,139,35,14,14,351,27*7B
$GPRMC,005321.090,V,3527.0828,S,14905.1158,E,0.00,0.00,131104,,*06
$GPGGA,005322.090,3527.0828,S,14905.1158,E,0,00,50.0,0.0,M,12.8,M,0.0,0000*5A
$GPGSA,A,1,,,,,,,,,,,,,50.0,50.0,50.0*05
$GPGSV,3,1,10,18,76,183,29,21,60,122,46,22,56,286,36,15,50,222,44*7C
$GPGSV,3,2,10,06,27,022,38,26,25,132,34,03,25,227,36,16,19,284,24*74
$GPGSV,3,3,10,29,16,139,31,14,14,351,33*7A
$GPRMC,005322.090,V,3527.0828,S,14905.1158,E,0.00,0.00,131104,,*05
$GPGGA,005323.090,3527.0828,S,14905.1158,E,0,00,50.0,0.0,M,12.8,M,0.0,0000*5B
$GPGSA,A,1,,,,,,,,,,,,,50.0,50.0,50.0*05
$GPGSV,3,1,10,18,76,183,31,21,60,122,45,22,56,286,35,15,50,222,42*73
$GPGSV,3,2,10,06,27,022,40,26,25,132,36,03,25,227,34,16,19,284,24*7B
$GPGSV,3,3,10,29,16,139,32,14,14,351,34*7E
$GPRMC,005323.090,V,3527.0828,S,14905.1158,E,0.00,0.00,131104,,*04
$GPGGA,005324.090,3527.0828,S,14905.1158,E,0,00,50.0,0.0,M,12.8,M,0.0,0000*5C
$GPGSA,A,1,,,,,,,,,,,,,50.0,50.0,50.0*05
$GPGSV,3,1,10,18,76,183,31,21,60,122,45,22,56,286,31,15,50,222,42*77
$GPGSV,3,2,10,06,27,022,40,26,25,132,35,03,25,227,35,16,19,284,24*79
$GPGSV,3,3,10,29,16,139,34,14,14,351,35*79
$GPRMC,005324.090,V,3527.0828,S,14905.1158,E,0.00,0.00,131104,,*03
$GPGGA,005325.090,3527.0828,S,14905.1158,E,0,00,50.0,0.0,M,12.8,M,0.0,0000*5D
$GPGSA,A,1,,,,,,,,,,,,,50.0,50.0,50.0*05
$GPGSV,3,1,10,18,76,183,31,21,60,122,45,22,56,286,30,15,50,222,43*77
$GPGSV,3,2,10,06,27,022,40,26,25,132,35,03,25,227,35,16,19,284,24*79
$GPGSV,3,3,10,29,16,139,31,14,14,351,33*7A
$GPRMC,005325.090,V,3527.0828,S,14905.1158,E,0.00,0.00,131104,,*02
$GPGGA,005326.090,3527.0828,S,14905.1158,E,0,00,50.0,0.0,M,12.8,M,0.0,0000*5E
$GPGSA,A,1,,,,,,,,,,,,,50.0,50.0,50.0*05
$GPGSV,3,1,10,18,76,183,32,21,60,122,46,22,56,286,29,15,50,222,43*7F
$GPGSV,3,2,10,06,27,022,41,26,25,132,34,03,25,227,35,16,19,284,24*79
$GPGSV,3,3,10,29,16,139,33,14,14,351,35*7E
$GPRMC,005326.090,V,3527.0828,S,14905.1158,E,0.00,0.00,131104,,*01
$GPGGA,005327.090,3527.0828,S,14905.1158,E,0,00,50.0,0.0,M,12.8,M,0.0,0000*5F
$GPGSA,A,1,,,,,,,,,,,,,50.0,50.0,50.0*05
$GPGSV,3,1,10,18,76,183,32,21,60,122,45,22,56,286,28,15,50,222,43*7D
$GPGSV,3,2,10,06,27,022,41,26,25,132,34,03,25,227,35,16,19,284,21*7C
$GPGSV,3,3,10,29,16,139,35,14,14,351,36*7B
$GPRMC,005327.090,V,3527.0828,S,14905.1158,E,0.00,0.00,131104,,*00
$GPGGA,005328.090,3527.0828,S,14905.1158,E,0,00,50.0,0.0,M,12.8,M,0.0,0000*50
$GPGSA,A,1,,,,,,,,,,,,,50.0,50.0,50.0*05
$GPGSV,3,1,10,18,76,183,31,21,60,122,45,22,56,286,26,15,50,222,40*73
$GPGSV,3,2,10,06,27,022,41,26,25,132,33,03,25,227,32,16,19,284,21*7C
$GPGSV,3,3,10,29,16,139,33,14,14,351,35*7E
$GPRMC,005328.090,V,3527.0828,S,14905.1158,E,0.00,0.00,131104,,*0F
$GPGGA,005329.090,3527.0828,S,14905.1158,E,0,00,50.0,0.0,M,12.8,M,0.0,0000*51
$GPGSA,A,1,,,,,,,,,,,,,50.0,50.0,50.0*05
$GPGSV,3,1,10,18,76,183,35,21,60,122,44,22,56,286,35,15,50,222,45*71
$GPGSV,3,2,10,06,27,022,39,26,25,132,36,03,25,227,36,16,19,284,23*70
$GPGSV,3,3,10,29,16,139,36,14,14,351,31*7F
$GPRMC,005329.090,V,3527.0828,S,14905.1158,E,0.00,0.00,131104,,*0E
$GPGGA,005330.090,3527.0828,S,14905.1158,E,0,00,50.0,0.0,M,-6.2,M,0.0,0000*4B
$GPGSA,A,1,,,,,,,,,,,,,50.0,50.0,50.0*05
$GPGSV,3,1,10,18,75,183,35,21,60,122,38,22,56,286,36,15,50,222,44*7B
$GPGSV,3,2,10,06,27,022,37,26,25,133,40,03,25,227,37,16,19,284,34*79
$GPGSV,3,3,10,29,16,139,34,14,14,351,33*7F
$GPRMC,005330.090,V,3527.0828,S,14905.1158,E,0.00,0.00,131104,,*06
$GPGGA,005331.090,3527.0828,S,14905.1158,E,0,00,50.0,0.0,M,-6.2,M,0.0,0000*4A
$GPGSA,A,1,,,,,,,,,,,,,50.0,50.0,50.0*05
$GPGSV,3,1,10,18,75,183,36,21,60,122,39,22,56,286,42,15,50,222,46*78
$GPGSV,3,2,10,06,27,022,37,26,25,133,35,03,25,227,39,16,19,284,25*75
$GPGSV,3,3,10,29,16,139,38,14,14,351,28*79
$GPRMC,005331.090,V,3527.0828,S,14905.1158,E,0.00,0.00,131104,,*07
$GPGGA,005332.089,3527.0828,S,14905.1158,E,0,00,50.0,0.0,M,-6.2,M,0.0,0000*41
$GPGSA,A,1,,,,,,,,,,,,,50.0,50.0,50.0*05
$GPGSV,3,1,10,18,75,183,35,21,60,122,41,22,56,286,39,15,50,222,45*7B
$GPGSV,3,2,10,06,27,022,39,26,25,133,38,03,25,227,37,16,19,284,30*7C
$GPGSV,3,3,10,29,16,139,36,14,14,351,31*7F
$GPRMC,005332.089,V,3527.0828,S,14905.1158,E,0.00,0.00,131104,,*0C
$GPGGA,005333.089,3527.0828,S,14905.1158,E,0,00,50.0,0.0,M,-6.2,M,0.0,0000*40
$GPGSA,A,1,,,,,,,,,,,,,50.0,50.0,50.0*05
$GPGSV,3,1,10,18,75,183,37,21,60,122,37,22,56,286,34,15,50,222,40*70
$GPGSV,3,2,10,06,27,022,37,26,25,133,37,03,25,227,36,16,19,284,30*7C
$GPGSV,3,3,10,29,16,139,33,14,14,351,31*7A
$GPRMC,005333.089,V,3527.0828,S,14905.1158,E,0.00,0.00,131104,,*0D
$GPGGA,005334.089,3527.0851,S,14904.9864,E,1,03,18.2,0.0,M,12.8,M,0.0,0000*58
$GPGSA,A,2,18,22,21,,,,,,,,,,27.0,18.2,20.0*05
$GPGSV,3,1,10,18,75,183,39,21,60,122,37,22,56,286,40,15,50,222,37*7D
$GPGSV,3,2,10,06,27,022,37,26,25,133,39,03,25,227,31,16,19,284,30*75
$GPGSV,3,3,10,29,16,139,36,14,14,351,33*7D
$GPRMC,005334.089,A,3527.0851,S,14904.9864,E,0.00,0.00,131104,,*1C
$GPGGA,005335.089,3527.0346,S,14905.0129,E,1,04,13.1,48.8,M,12.8,M,0.0,0000*67
$GPGSA,A,3,18,22,21,14,,,,,,,,,23.1,13.1,19.1*07
$GPGSV,3,1,10,18,75,183,36,21,60,122,38,22,56,286,44,15,50,222,36*78
$GPGSV,3,2,10,06,27,022,37,26,25,133,40,03,25,227,29,16,19,284,33*71
$GPGSV,3,3,10,29,16,139,36,14,14,351,34*7A
$GPRMC,005335.089,A,3527.0346,S,14905.0129,E,0.00,0.00,131104,,*18
$GPGGA,005336.089,3526.8476,S,14905.1019,E,1,05,2.3,606.4,M,12.8,M,0.0,0000*69
$GPGSA,A,3,18,15,22,21,14,,,,,,,,4.3,2.3,3.6*3A
$GPGSV,3,1,10,18,75,182,34,21,60,122,40,22,56,286,43,15,50,222,37*72
$GPGSV,3,2,10,06,27,022,36,26,25,133,34,03,25,227,34,16,19,284,34*78
$GPGSV,3,3,10,29,16,139,33,14,14,351,37*7C
$GPRMC,005336.089,A,3526.8476,S,14905.1019,E,12.23,207.97,131104,,*2C
$GPGGA,005337.089,3526.8484,S,14905.1013,E,1,05,2.3,607.0,M,12.8,M,0.0,0000*6A
$GPGSA,A,3,18,15,22,21,14,,,,,,,,4.3,2.3,3.6*3A
$GPGSV,3,1,10,18,75,182,33,21,60,122,42,22,56,286,44,15,50,222,34*73
$GPGSV,3,2,10,06,27,022,36,26,25,133,34,03,25,227,37,16,19,284,37*78
$GPGSV,3,3,10,29,16,139,34,14,14,351,36*7A
$GPRMC,005337.089,A,3526.8484,S,14905.1013,E,9.97,204.28,131104,,*18
$GPGGA,005338.089,3526.8491,S,14905.1006,E,1,05,2.3,609.2,M,12.8,M,0.0,0000*69
$GPGSA,A,3,18,15,22,21,14,,,,,,,,4.3,2.3,3.6*3A
$GPGSV,3,1,10,18,75,182,35,21,60,122,38,22,56,286,44,15,50,222,37*7B
$GPGSV,3,2,10,06,27,022,37,26,25,133,39,03,25,227,29,16,19,284,29*74
$GPGSV,3,3,10,29,16,139,36,14,14,351,31*7F
$GPRMC,005338.089,A,3526.8491,S,14905.1006,E,7.91,215.87,131104,,*1A
$GPGGA,005339.089,3526.8509,S,14905.0971,E,1,05,2.3,607.2,M,12.8,M,0.0,0000*6E
$GPGSA,A,3,18,15,22,21,14,,,,,,,,4.3,2.3,3.6*3A
$GPGSV,3,1,10,18,75,182,37,21,60,122,33,22,56,286,36,15,50,222,39*79
$GPGSV,3,2,10,06,27,022,37,26,25,133,38,03,25,227,34,16,19,284,28*78
$GPGSV,3,3,10,29,16,139,35,14,14,351,32*7F
$GPRMC,005339.089,A,3526.8509,S,14905.0971,E,6.22,247.64,131104,,*10
$GPGGA,005340.089,3526.8508,S,14905.0944,E,1,05,2.3,609.1,M,12.8,M,0.0,0000*6A
$GPGSA,A,3,18,15,22,21,14,,,,,,,,4.3,2.3,3.6*3A
$GPGSV,3,1,10,18,75,182,33,21,60,122,40,22,56,286,38,15,50,222,44*7D
$GPGSV,3,2,10,06,27,022,37,26,25,133,36,03,25,227,37,16,19,284,30*7C
$GPGSV,3,3,10,29,16,139,37,14,14,351,30*7F
$GPRMC,005340.089,A,3526.8508,S,14905.0944,E,6.06,296.19,131104,,*19
$GPGGA,005341.089,3526.8495,S,14905.0932,E,1,05,2.3,609.5,M,12.8,M,0.0,0000*6B
$GPGSA,A,3,18,15,22,21,14,,,,,,,,4.3,2.3,3.6*3A
$GPGSV,3,1,10,18,75,182,32,21,60,122,39,22,56,286,43,15,50,222,42*78
$GPGSV,3,2,10,06,27,022,33,26,25,133,37,03,25,227,39,16,19,284,31*76
$GPGSV,3,3,10,29,16,139,36,14,14,351,24*7B
$GPRMC,005341.089,A,3526.8495,S,14905.0932,E,6.38,331.62,131104,,*11
$GPGGA,005342.089,3526.8478,S,14905.0932,E,1,04,3.0,609.5,M,12.8,M,0.0,0000*68
$GPGSA,A,3,18,15,22,21,,,,,,,,,9.1,3.0,8.6*39
$GPGSV,3,1,10,18,75,182,38,21,60,122,38,22,56,286,41,15,50,222,39*7D
$GPGSV,3,2,10,06,27,022,30,26,25,133,37,03,25,227,34,16,19,284,35*7C
$GPGSV,3,3,10,29,16,139,34,14,14,351,24*79
$GPRMC,005342.089,A,3526.8478,S,14905.0932,E,5.61,14.68,131104,,*20
$GPGGA,005343.089,3526.8463,S,14905.0943,E,1,04,3.0,609.1,M,12.8,M,0.0,0000*61
$GPGSA,A,3,18,15,22,21,,,,,,,,,9.1,3.0,8.6*39
$GPGSV,3,1,10,18,75,182,36,21,60,122,43,22,56,286,39,15,50,222,41*7F
$GPGSV,3,2,10,06,27,022,32,26,25,133,38,03,25,227,37,16,19,284,35*72
$GPGSV,3,3,10,29,16,139,32,14,14,351,25*7E
$GPRMC,005343.089,A,3526.8463,S,14905.0943,E,5.27,39.63,131104,,*2B
$GPGGA,005344.089,3526.8452,S,14905.0964,E,1,05,2.3,607.8,M,12.8,M,0.0,0000*65
$GPGSA,A,3,18,15,22,21,14,,,,,,,,4.3,2.3,3.6*3A
$GPGSV,3,1,10,18,75,182,37,21,60,122,44,22,56,286,35,15,50,222,38*7B
$GPGSV,3,2,10,06,27,022,36,26,25,133,38,03,25,227,37,16,19,284,36*75
$GPGSV,3,3,10,29,16,139,34,14,14,351,26*7B
$GPRMC,005344.089,A,3526.8452,S,14905.0964,E,7.47,54.49,131104,,*2C
$GPGGA,005345.089,3526.8437,S,14905.0993,E,1,05,2.3,606.7,M,12.8,M,0.0,0000*61
$GPGSA,A,3,18,15,22,21,14,,,,,,,,4.3,2.3,3.6*3A
$GPGSV,3,1,10,18,75,182,37,21,60,122,44,22,56,286,39,15,50,222,39*76
$GPGSV,3,2,10,06,27,022,35,26,25,133,38,03,25,227,37,16,19,284,34*74
$GPGSV,3,3,10,29,16,139,33,14,14,351,29*73
$GPRMC,005345.089,A,3526.8437,S,14905.0993,E,10.89,51.56,131104,,*19
$GPGGA,005346.089,3526.8416,S,14905.1028,E,1,05,2.3,605.5,M,12.8,M,0.0,0000*68
$GPGSA,A,3,18,15,22,21,14,,,,,,,,4.3,2.3,3.6*3A
$GPGSV,3,1,10,18,75,182,38,21,60,122,44,22,56,286,42,15,50,222,39*75
$GPGSV,3,2,10,06,27,022,32,26,25,133,37,03,25,227,36,16,19,284,35*7C
$GPGSV,3,3,10,29,16,139,33,14,14,351,31*7A
$GPRMC,005346.089,A,3526.8416,S,14905.1028,E,13.38,50.78,131104,,*15
$GPGGA,005347.089,3526.8394,S,14905.1065,E,1,05,2.3,604.1,M,12.8,M,0.0,0000*68
$GPGSA,A,3,18,15,22,21,14,,,,,,,,4.3,2.3,3.6*3A
$GPGSV,3,1,10,18,75,182,38,21,60,122,45,22,56,286,42,15,50,222,40*7A
$GPGSV,3,2,10,06,27,022,34,26,25,133,37,03,25,227,35,16,19,284,37*7B
$GPGSV,3,3,10,29,16,139,31,14,14,351,31*78
$GPRMC,005347.089,A,3526.8394,S,14905.1065,E,12.47,50.36,131104,,*13
$GPGGA,005348.089,3526.8371,S,14905.1098,E,1,05,2.3,603.3,M,12.8,M,0.0,0000*6B
$GPGSA,A,3,18,15,22,21,14,,,,,,,,4.3,2.3,3.6*3A
$GPGSV,3,1,10,18,75,182,38,21,60,122,43,22,56,286,40,15,51,222,43*7C
$GPGSV,3,2,10,06,27,022,35,03,25,227,37,26,25,133,39,16,19,284,38*79
$GPGSV,3,3,10,29,16,139,33,14,14,351,27*7D
$GPRMC,005348.089,A,3526.8371,S,14905.1098,E,11.82,43.31,131104,,*1A
$GPGGA,005349.089,3526.8343,S,14905.1121,E,1,05,2.3,603.1,M,12.8,M,0.0,0000*6A
$GPGSA,A,3,18,15,22,21,14,,,,,,,,4.3,2.3,3.6*3A
$GPGSV,3,1,10,18,75,182,30,21,60,122,41,22,56,286,42,15,51,222,40*77
$GPGSV,3,2,10,06,27,022,30,03,25,227,34,26,25,133,37,16,19,284,38*71
$GPGSV,3,3,10,29,16,139,36,14,14,351,29*76
$GPRMC,005349.089,A,3526.8343,S,14905.1121,E,11.87,23.79,131104,,*16
$GPGGA,005350.088,3526.8306,S,14905.1128,E,1,05,2.3,603.4,M,12.8,M,0.0,0000*6E
$GPGSA,A,3,18,15,22,21,14,,,,,,,,4.3,2.3,3.6*3A
$GPGSV,3,1,10,18,75,182,33,21,60,122,38,22,56,286,45,15,51,222,43*7E
$GPGSV,3,2,10,06,27,022,35,03,25,227,38,26,25,133,40,16,19,284,33*73
$GPGSV,3,3,10,29,16,139,36,14,14,351,28*77
$GPRMC,005350.088,A,3526.8306,S,14905.1128,E,14.91,355.80,131104,,*21
$GPGGA,005351.088,3526.8259,S,14905.1122,E,1,05,2.3,604.0,M,12.8,M,0.0,0000*6D
$GPGSA,A,3,18,15,22,21,14,,,,,,,,4.3,2.3,3.6*3A
$GPGSV,3,1,10,18,75,182,33,21,60,122,37,22,56,286,44,15,51,222,41*72
$GPGSV,3,2,10,06,27,022,34,03,25,227,38,26,25,133,39,16,19,284,32*7D
$GPGSV,3,3,10,29,16,139,37,14,14,351,30*7F
$GPRMC,005351.088,A,3526.8259,S,14905.1122,E,17.71,352.71,131104,,*25
$GPGGA,005352.088,3526.8204,S,14905.1116,E,1,04,3.0,604.9,M,12.8,M,0.0,0000*6B
$GPGSA,A,3,18,15,22,21,,,,,,,,,9.1,3.0,8.6*39
$GPGSV,3,1,10,18,75,182,36,21,60,122,37,22,56,286,46,15,51,222,42*76
$GPGSV,3,2,10,06,27,022,37,03,25,227,37,26,25,133,35,16,19,284,37*78
$GPGSV,3,3,10,29,16,139,37,14,14,351,21*7F
$GPRMC,005352.088,A,3526.8204,S,14905.1116,E,20.37,358.21,131104,,*20
$GPGGA,005353.088,3526.8145,S,14905.1114,E,1,04,3.0,605.7,M,12.8,M,0.0,0000*61
$GPGSA,A,3,18,15,22,21,,,,,,,,,9.1,3.0,8.6*39
$GPGSV,3,1,10,18,75,182,36,21,60,122,37,22,56,286,47,15,51,222,43*76
$GPGSV,3,2,10,06,27,022,37,03,25,227,33,26,25,133,34,16,19,284,35*7F
$GPGSV,3,3,10,29,16,139,36,14,14,351,28*77
$GPRMC,005353.088,A,3526.8145,S,14905.1114,E,20.45,359.99,131104,,*22
$GPGGA,005354.088,3526.8089,S,14905.1113,E,1,05,2.3,607.0,M,12.8,M,0.0,0000*66
$GPGSA,A,3,18,15,22,21,14,,,,,,,,4.3,2.3,3.6*3A
$GPGSV,3,1,10,18,75,182,35,21,60,122,38,22,56,286,46,15,51,222,43*7B
$GPGSV,3,2,10,06,27,022,37,03,25,227,31,26,25,133,34,16,19,284,34*7C
$GPGSV,3,3,10,29,16,139,37,14,14,351,30*7F
$GPRMC,005354.088,A,3526.8089,S,14905.1113,E,17.79,0.61,131104,,*20
$GPGGA,005355.088,3526.8046,S,14905.1111,E,1,05,2.3,608.0,M,12.8,M,0.0,0000*69
$GPGSA,A,3,18,15,22,21,14,,,,,,,,4.3,2.3,3.6*3A
$GPGSV,3,1,10,18,75,182,32,21,60,122,36,22,56,286,46,15,51,222,41*70
$GPGSV,3,2,10,06,27,022,37,03,25,227,35,26,25,133,34,16,19,284,37*7B
$GPGSV,3,3,10,29,16,139,35,14,14,351,27*7B
$GPRMC,005355.088,A,3526.8046,S,14905.1111,E,12.88,1.81,131104,,*24
$GPGGA,005356.088,3526.8019,S,14905.1109,E,1,05,2.3,608.6,M,12.8,M,0.0,0000*6F
$GPGSA,A,3,18,15,22,21,14,,,,,,,,4.3,2.3,3.6*3A
$GPGSV,3,1,10,18,75,182,32,21,60,122,39,22,56,286,42,15,51,222,42*78
$GPGSV,3,2,10,06,27,022,34,03,25,227,38,26,25,133,37,16,19,284,34*75
$GPGSV,3,3,10,29,16,139,36,14,14,351,31*7F
$GPRMC,005356.088,A,3526.8019,S,14905.1109,E,6.39,352.23,131104,,*16
$GPGGA,005357.088,3526.8006,S,14905.1105,E,1,05,2.3,609.0,M,12.8,M,0.0,0000*6B
$GPGSA,A,3,18,15,22,21,14,,,,,,,,4.3,2.3,3.6*3A
$GPGSV,3,1,10,18,75,182,33,21,60,122,42,22,56,286,42,15,51,222,43*74
$GPGSV,3,2,10,06,27,022,30,03,25,227,41,26,25,133,38,16,19,284,35*71
$GPGSV,3,3,10,29,16,139,34,14,14,351,34*78
$GPRMC,005357.088,A,3526.8006,S,14905.1105,E,2.89,342.17,131104,,*1C
$GPGGA,005358.088,3526.7994,S,14905.1098,E,1,04,3.0,609.7,M,12.8,M,0.0,0000*68
$GPGSA,A,3,18,15,22,21,,,,,,,,,9.1,3.0,8.6*39
$GPGSV,3,1,10,18,75,182,29,21,60,122,40,22,56,286,43,15,51,222,42*7D
$GPGSV,3,2,10,06,27,022,33,03,25,227,40,26,25,133,37,16,19,284,35*7C
$GPGSV,3,3,10,29,16,139,35,14,14,351,28*74
$GPRMC,005358.088,A,3526.7994,S,14905.1098,E,5.86,337.46,131104,,*15
$GPGGA,005359.088,3526.7978,S,14905.1081,E,1,04,3.0,610.4,M,12.8,M,0.0,0000*68
$GPGSA,A,3,18,15,22,21,,,,,,,,,9.1,3.0,8.6*39
$GPGSV,3,1,10,18,75,182,34,21,60,122,38,22,56,286,41,15,51,222,44*7A
$GPGSV,3,2,10,06,27,022,38,03,25,227,36,26,25,133,36,16,19,284,31*73
$GPGSV,3,3,10,29,16,139,35,14,14,351,28*74
$GPRMC,005359.088,A,3526.7978,S,14905.1081,E,8.82,313.29,131104,,*18
$GPGGA,005400.088,3526.7964,S,14905.1041,E,1,07,1.6,612.7,M,12.8,M,0.0,0000*64
$GPGSA,A,3,18,15,22,21,14,29,26,,,,,,2.3,1.6,1.7*36
$GPGSV,3,1,10,18,75,182,36,21,60,122,42,22,56,285,34,15,51,221,43*70
$GPGSV,3,2,10,06,27,022,37,03,25,227,38,26,25,133,32,16,19,284,29*7F
$GPGSV,3,3,10,29,16,139,34,14,14,351,33*7F
$GPRMC,005400.088,A,3526.7964,S,14905.1041,E,12.03,283.96,131104,,*2C
$GPGGA,005401.088,3526.7962,S,14905.0988,E,1,07,1.6,614.1,M,12.8,M,0.0,0000*6E
$GPGSA,A,3,18,15,22,21,14,29,26,,,,,,2.3,1.6,1.7*36
$GPGSV,3,1,10,18,75,182,37,21,60,122,33,22,56,285,32,15,51,221,36*73
$GPGSV,3,2,10,06,27,022,38,03,25,227,31,26,25,133,37,16,19,284,31*75
$GPGSV,3,3,10,29,16,139,30,14,14,351,32*7A
$GPRMC,005401.088,A,3526.7962,S,14905.0988,E,15.88,265.64,131104,,*27
$GPGGA,005402.088,3526.7970,S,14905.0922,E,1,07,1.6,614.4,M,12.8,M,0.0,0000*6B
$GPGSA,A,3,18,15,22,21,14,29,26,,,,,,2.3,1.6,1.7*36
$GPGSV,3,1,10,18,75,182,37,21,60,122,35,22,56,285,28,15,51,221,31*79
$GPGSV,3,2,10,06,27,022,38,03,25,227,35,26,25,133,37,16,19,284,29*78
$GPGSV,3,3,10,29,16,139,32,14,14,351,26*7D
$GPRMC,005402.088,A,3526.7970,S,14905.0922,E,20.04,259.38,131104,,*23
$GPGGA,005403.088,3526.7984,S,14905.0845,E,1,07,1.6,614.4,M,12.8,M,0.0,0000*61
$GPGSA,A,3,18,15,22,21,14,29,26,,,,,,2.3,1.6,1.7*36
$GPGSV,3,1,10,18,75,182,37,21,60,122,36,22,56,285,31,15,51,221,35*76
$GPGSV,3,2,10,06,27,022,36,03,25,227,35,26,25,133,37,16,19,284,34*7A
$GPGSV,3,3,10,29,16,139,34,14,14,351,33*7F
$GPRMC,005403.088,A,3526.7984,S,14905.0845,E,23.83,256.61,131104,,*26
$GPGGA,005404.088,3526.8003,S,14905.0762,E,1,07,1.6,614.5,M,12.8,M,0.0,0000*64
$GPGSA,A,3,18,15,22,21,14,29,26,,,,,,2.3,1.6,1.7*36
$GPGSV,3,1,10,18,75,182,37,21,60,122,29,22,56,285,36,15,51,221,41*7C
$GPGSV,3,2,10,06,27,022,35,03,25,227,35,26,25,133,36,16,19,284,33*7F
$GPGSV,3,3,10,29,16,139,35,14,14,351,29*75
$GPRMC,005404.088,A,3526.8003,S,14905.0762,E,25.11,252.82,131104,,*26
$GPGGA,005405.088,3526.8029,S,14905.0675,E,1,07,1.6,614.7,M,12.8,M,0.0,0000*68
$GPGSA,A,3,18,15,22,21,14,29,26,,,,,,2.3,1.6,1.7*36
$GPGSV,3,1,10,18,75,182,37,21,60,122,27,22,56,285,39,15,51,221,40*7C
$GPGSV,3,2,10,06,27,022,36,03,25,227,37,26,25,133,41,16,19,284,32*7F
$GPGSV,3,3,10,29,16,139,37,14,14,351,30*7F
$GPRMC,005405.088,A,3526.8029,S,14905.0675,E,27.38,248.63,131104,,*25
$GPGGA,005406.088,3526.8063,S,14905.0583,E,1,07,1.6,614.4,M,12.8,M,0.0,0000*6C
$GPGSA,A,3,18,15,22,21,14,29,26,,,,,,2.3,1.6,1.7*36
$GPGSV,3,1,10,18,75,182,38,21,60,122,36,22,56,285,32,15,51,221,38*77
$GPGSV,3,2,10,06,27,022,38,03,25,227,37,26,25,133,41,16,19,284,32*71
$GPGSV,3,3,10,29,16,139,36,14,14,351,32*7C
$GPRMC,005406.088,A,3526.8063,S,14905.0583,E,28.93,243.85,131104,,*2F
$GPGGA,005407.088,3526.8103,S,14905.0491,E,1,07,1.6,613.9,M,12.8,M,0.0,0000*62
$GPGSA,A,3,18,15,22,21,14,29,26,,,,,,2.3,1.6,1.7*36
$GPGSV,3,1,10,18,75,182,39,21,60,122,35,22,56,285,36,15,51,221,33*7A
$GPGSV,3,2,10,06,27,022,39,03,25,227,32,26,25,133,38,16,19,284,28*70
$GPGSV,3,3,10,29,16,139,33,14,14,351,36*7D
$GPRMC,005407.088,A,3526.8103,S,14905.0491,E,28.80,239.98,131104,,*28
$GPGGA,005408.087,3526.8148,S,14905.0405,E,1,07,1.6,613.3,M,12.8,M,0.0,0000*6A
$GPGSA,A,3,18,15,22,21,14,29,26,,,,,,2.3,1.6,1.7*36
$GPGSV,3,1,10,18,75,182,40,21,60,122,37,22,56,285,41,15,51,221,34*71
$GPGSV,3,2,10,06,27,022,36,03,25,227,32,26,25,133,39,16,19,284,28*7E
$GPGSV,3,3,10,29,16,139,37,14,14,351,33*7C
$GPRMC,005408.087,A,3526.8148,S,14905.0405,E,27.99,235.18,131104,,*29
$GPGGA,005409.087,3526.8195,S,14905.0329,E,1,07,1.6,612.7,M,12.8,M,0.0,0000*67
$GPGSA,A,3,18,15,22,21,14,29,26,,,,,,2.3,1.6,1.7*36
$GPGSV,3,1,10,18,75,182,40,21,60,122,39,22,56,285,38,15,51,221,37*72
$GPGSV,3,2,10,06,27,022,37,03,25,227,28,26,25,133,41,16,19,284,31*73
$GPGSV,3,3,10,29,16,139,33,14,14,351,33*78
$GPRMC,005409.087,A,3526.8195,S,14905.0329,E,25.81,231.58,131104,,*2A
$GPGGA,005410.087,3526.8240,S,14905.0262,E,1,07,1.6,612.1,M,12.8,M,0.0,0000*6C
$GPGSA,A,3,18,15,22,21,14,29,26,,,,,,2.3,1.6,1.7*36
$GPGSV,3,1,10,18,75,182,40,21,60,122,39,22,56,285,40,15,51,221,38*72
$GPGSV,3,2,10,06,27,022,38,03,25,227,31,26,25,133,41,16,19,284,35*70
$GPGSV,3,3,10,29,16,139,33,14,14,351,32*79
$GPRMC,005410.087,A,3526.8240,S,14905.0262,E,23.10,229.66,131104,,*2D
$GPGGA,005411.087,3526.8282,S,14905.0204,E,1,07,1.6,611.6,M,12.8,M,0.0,0000*67
$GPGSA,A,3,18,15,22,21,14,29,26,,,,,,2.3,1.6,1.7*36
$GPGSV,3,1,10,18,75,182,40,21,60,122,39,22,56,285,42,15,51,221,38*70
$GPGSV,3,2,10,06,27,022,37,03,25,227,32,26,25,133,41,16,19,284,35*7C
$GPGSV,3,3,10,29,16,139,34,14,14,351,32*7E
$GPRMC,005411.087,A,3526.8282,S,14905.0204,E,20.65,228.45,131104,,*23
$GPGGA,005412.087,3526.8318,S,14905.0156,E,1,07,1.6,611.2,M,12.8,M,0.0,0000*66
$GPGSA,A,3,18,15,22,21,14,29,26,,,,,,2.3,1.6,1.7*36
$GPGSV,3,1,10,18,75,182,39,21,60,122,38,22,56,285,42,15,51,221,38*7F
$GPGSV,3,2,10,06,27,022,37,03,25,227,31,26,25,133,40,16,19,284,37*7C
$GPGSV,3,3,10,29,16,139,34,14,14,351,32*7E
$GPRMC,005412.087,A,3526.8318,S,14905.0156,E,16.70,227.98,131104,,*28
$GPGGA,005413.087,3526.8344,S,14905.0122,E,1,07,1.6,610.7,M,12.8,M,0.0,0000*69
$GPGSA,A,3,18,15,22,21,14,29,26,,,,,,2.3,1.6,1.7*36
$GPGSV,3,1,10,18,75,182,38,21,60,122,36,22,56,285,40,15,51,221,38*72
$GPGSV,3,2,10,06,27,022,39,03,25,227,32,26,25,133,42,16,19,284,35*71
$GPGSV,3,3,10,29,16,139,36,14,14,351,31*7F
$GPRMC,005413.087,A,3526.8344,S,14905.0122,E,10.92,227.77,131104,,*28
$GPGGA,005414.087,3526.8359,S,14905.0102,E,1,07,1.6,610.2,M,12.8,M,0.0,0000*65
$GPGSA,A,3,18,15,22,21,14,29,26,,,,,,2.3,1.6,1.7*36
$GPGSV,3,1,10,18,75,182,39,21,60,122,37,22,56,285,42,15,51,221,37*7F
$GPGSV,3,2,10,06,27,022,39,03,25,227,32,26,25,133,43,16,19,284,31*74
$GPGSV,3,3,10,29,16,139,34,14,14,351,32*7E
$GPRMC,005414.087,A,3526.8359,S,14905.0102,E,5.13,228.76,131104,,*12
$GPGGA,005415.087,3526.8369,S,14905.0088,E,1,07,1.6,609.8,M,12.8,M,0.0,0000*66
$GPGSA,A,3,18,15,22,21,14,29,26,,,,,,2.3,1.6,1.7*36
$GPGSV,3,1,10,18,75,182,40,21,60,122,37,22,56,285,43,15,51,221,39*7E
$GPGSV,3,2,10,06,27,022,37,03,25,227,28,26,25,133,41,16,19,284,30*72
$GPGSV,3,3,10,29,16,139,35,14,14,351,34*79
$GPRMC,005415.087,A,3526.8369,S,14905.0088,E,5.92,230.59,131104,,*1E
$GPGGA,005416.087,3526.8379,S,14905.0065,E,1,07,1.6,609.6,M,12.8,M,0.0,0000*69
$GPGSA,A,3,18,15,22,21,14,29,26,,,,,,2.3,1.6,1.7*36
$GPGSV,3,1,10,18,75,182,39,21,60,122,33,22,56,285,32,15,51,221,37*7C
$GPGSV,3,2,10,06,27,022,38,03,25,227,33,26,25,133,40,16,19,284,31*77
$GPGSV,3,3,10,29,16,139,36,14,14,351,33*7D
$GPRMC,005416.087,A,3526.8379,S,14905.0065,E,9.73,249.15,131104,,*1A
$GPGGA,005417.087,3526.8382,S,14905.0025,E,1,07,1.6,609.6,M,12.8,M,0.0,0000*68
$GPGSA,A,3,18,15,22,21,14,29,26,,,,,,2.3,1.6,1.7*36
$GPGSV,3,1,10,18,75,182,36,21,60,122,40,22,56,285,34,15,51,221,43*72
$GPGSV,3,2,10,06,27,022,37,03,25,227,37,26,25,133,34,16,19,284,30*7E
$GPGSV,3,3,10,29,16,139,34,14,14,351,34*78
$GPRMC,005417.087,A,3526.8382,S,14905.0025,E,13.70,273.38,131104,,*25
$GPGGA,005418.087,3526.8371,S,14904.9978,E,1,07,1.6,609.8,M,12.8,M,0.0,0000*6C
$GPGSA,A,3,18,15,22,21,14,29,26,,,,,,2.3,1.6,1.7*36
$GPGSV,3,1,10,18,75,182,34,21,59,121,39,22,56,285,40,15,51,221,46*71
$GPGSV,3,2,10,06,27,022,39,03,25,227,39,26,25,133,38,16,19,285,34*77
$GPGSV,3,3,10,29,16,139,38,14,14,351,28*79
$GPRMC,005418.087,A,3526.8371,S,14904.9978,E,15.54,296.13,131104,,*2D
$GPGGA,005419.087,3526.8344,S,14904.9928,E,1,06,2.7,610.5,M,12.8,M,0.0,0000*68
$GPGSA,A,3,18,15,22,21,29,26,,,,,,,3.8,2.7,2.7*38
$GPGSV,3,1,10,18,75,182,33,21,59,121,37,22,56,285,38,15,51,221,43*72
$GPGSV,3,2,10,06,27,022,40,03,25,227,37,26,25,133,39,16,19,285,35*77
$GPGSV,3,3,10,29,16,139,36,14,14,351,28*77
$GPRMC,005419.087,A,3526.8344,S,14904.9928,E,19.05,306.09,131104,,*24
$GPGGA,005420.087,3526.8309,S,14904.9867,E,1,06,2.7,611.6,M,12.8,M,0.0,0000*63
$GPGSA,A,3,18,15,22,21,29,26,,,,,,,3.8,2.7,2.7*38
$GPGSV,3,1,10,18,75,182,33,21,59,121,40,22,56,285,38,15,51,221,44*75
$GPGSV,3,2,10,06,27,022,40,03,25,227,36,26,25,133,38,16,19,285,33*71
$GPGSV,3,3,10,29,16,139,39,14,14,351,28*78
$GPRMC,005420.087,A,3526.8309,S,14904.9867,E,23.61,302.86,131104,,*25
$GPGGA,005421.087,3526.8273,S,14904.9792,E,1,06,2.7,612.6,M,12.8,M,0.0,0000*68
$GPGSA,A,3,18,15,22,21,29,26,,,,,,,3.8,2.7,2.7*38
$GPGSV,3,1,10,18,75,182,34,21,59,121,43,22,56,285,33,15,51,221,45*7B
$GPGSV,3,2,10,06,27,022,39,03,25,227,39,26,25,133,37,16,19,285,30*7C
$GPGSV,3,3,10,29,16,139,39,14,14,351,28*78
$GPRMC,005421.087,A,3526.8273,S,14904.9792,E,26.67,298.17,131104,,*24
$GPGGA,005422.087,3526.8238,S,14904.9707,E,1,06,1.7,613.2,M,12.8,M,0.0,0000*6E
$GPGSA,A,3,18,15,21,14,29,26,,,,,,,2.4,1.7,1.7*30
$GPGSV,3,1,10,18,75,182,33,21,59,121,45,22,56,285,22,15,51,221,47*78
$GPGSV,3,2,10,06,27,022,41,03,25,227,38,26,25,133,35,16,19,285,33*73
$GPGSV,3,3,10,29,16,139,35,14,14,351,32*7F
$GPRMC,005422.087,A,3526.8238,S,14904.9707,E,27.92,294.46,131104,,*27
$GPGGA,005423.087,3526.8208,S,14904.9615,E,1,06,1.7,613.3,M,12.8,M,0.0,0000*6F
$GPGSA,A,3,18,15,21,14,29,26,,,,,,,2.4,1.7,1.7*30
$GPGSV,3,1,10,18,75,182,32,21,59,121,45,22,56,285,22,15,51,221,45*7B
$GPGSV,3,2,10,06,27,022,41,03,25,227,36,26,25,133,34,16,19,285,28*76
$GPGSV,3,3,10,29,16,139,32,14,14,351,30*7A
$GPRMC,005423.087,A,3526.8208,S,14904.9615,E,30.00,289.36,131104,,*21
$GPGGA,005424.087,3526.8182,S,14904.9513,E,1,08,1.3,612.9,M,12.8,M,0.0,0000*6D
$GPGSA,A,3,18,15,22,21,14,06,29,26,,,,,2.1,1.3,1.7*37
$GPGSV,3,1,10,18,75,181,30,21,59,121,43,22,56,285,33,15,51,221,45*7C
$GPGSV,3,2,10,06,27,022,35,03,25,227,36,26,25,133,37,16,19,285,28*76
$GPGSV,3,3,10,29,16,139,30,14,14,351,32*7A
$GPRMC,005424.087,A,3526.8182,S,14904.9513,E,31.49,283.61,131104,,*26
$GPGGA,005425.087,3526.8163,S,14904.9406,E,1,08,1.3,612.4,M,12.8,M,0.0,0000*6B
$GPGSA,A,3,18,15,22,21,14,06,29,26,,,,,2.1,1.3,1.7*37
$GPGSV,3,1,10,18,75,181,36,21,59,121,41,22,56,285,37,15,51,221,44*7D
$GPGSV,3,2,10,06,27,022,36,03,25,227,38,26,25,133,31,16,19,285,32*76
$GPGSV,3,3,10,29,16,139,32,14,14,351,31*7B
$GPRMC,005425.087,A,3526.8163,S,14904.9406,E,31.77,279.45,131104,,*23
$GPGGA,005426.086,3526.8150,S,14904.9296,E,1,08,1.3,611.7,M,12.8,M,0.0,0000*66
$GPGSA,A,3,18,15,22,21,14,06,29,26,,,,,2.1,1.3,1.7*37
$GPGSV,3,1,10,18,75,181,37,21,59,121,39,22,56,285,39,15,51,221,44*7D
$GPGSV,3,2,10,06,27,022,38,03,25,227,39,26,25,133,27,16,19,285,31*7D
$GPGSV,3,3,10,29,16,139,33,14,14,351,35*7E
$GPRMC,005426.086,A,3526.8150,S,14904.9296,E,32.04,274.30,131104,,*26
$GPGGA,005427.086,3526.8146,S,14904.9185,E,1,08,1.3,611.3,M,12.8,M,0.0,0000*65
$GPGSA,A,3,18,15,22,21,14,06,29,26,,,,,2.1,1.3,1.7*37
$GPGSV,3,1,10,18,75,181,36,21,59,121,37,22,56,285,37,15,51,221,42*7A
$GPGSV,3,2,10,06,27,022,36,03,25,227,38,26,25,133,38,16,19,285,30*7D
$GPGSV,3,3,10,29,16,139,33,14,14,351,34*7F
$GPRMC,005427.086,A,3526.8146,S,14904.9185,E,32.00,268.45,131104,,*2A
$GPGGA,005428.086,3526.8152,S,14904.9074,E,1,08,1.3,611.2,M,12.8,M,0.0,0000*61
$GPGSA,A,3,18,15,22,21,14,06,29,26,,,,,2.1,1.3,1.7*37
$GPGSV,3,1,10,18,75,181,36,21,59,121,33,22,56,285,28,15,51,221,36*73
$GPGSV,3,2,10,06,27,022,36,03,25,227,31,26,25,133,38,16,19,285,32*76
$GPGSV,3,3,10,29,16,139,33,14,14,351,30*7B
$GPRMC,005428.086,A,3526.8152,S,14904.9074,E,32.03,261.64,131104,,*26
$GPGGA,005429.086,3526.8170,S,14904.8965,E,1,08,1.3,611.0,M,12.8,M,0.0,0000*6A
$GPGSA,A,3,18,15,22,21,14,06,29,26,,,,,2.1,1.3,1.7*37
$GPGSV,3,1,10,18,75,181,36,21,59,121,34,22,56,285,35,15,51,221,40*79
$GPGSV,3,2,10,06,27,022,36,03,25,227,36,26,25,133,40,16,19,285,35*79
$GPGSV,3,3,10,29,16,139,39,14,14,351,31*70
$GPRMC,005429.086,A,3526.8170,S,14904.8965,E,32.34,254.32,131104,,*2E
$GPGGA,005430.086,3526.8196,S,14904.8857,E,1,08,1.3,610.6,M,12.8,M,0.0,0000*6D
$GPGSA,A,3,18,15,22,21,14,06,29,26,,,,,2.1,1.3,1.7*37
$GPGSV,3,1,10,18,75,181,36,21,59,121,29,22,56,285,40,15,51,221,42*75
$GPGSV,3,2,10,06,27,022,34,03,25,227,35,26,25,133,39,16,19,285,36*75
$GPGSV,3,3,10,29,16,139,41,14,14,351,31*7F
$GPRMC,005430.086,A,3526.8196,S,14904.8857,E,32.94,250.70,131104,,*26
$GPGGA,005431.086,3526.8227,S,14904.8752,E,1,08,1.3,610.6,M,12.8,M,0.0,0000*6F
$GPGSA,A,3,18,15,22,21,14,06,29,26,,,,,2.1,1.3,1.7*37
$GPGSV,3,1,10,18,75,181,35,21,59,121,26,22,56,285,39,15,51,221,41*74
$GPGSV,3,2,10,06,27,022,36,03,25,227,35,26,25,133,40,16,19,285,37*78
$GPGSV,3,3,10,29,16,139,40,14,14,351,25*7B
$GPRMC,005431.086,A,3526.8227,S,14904.8752,E,32.91,249.41,131104,,*2B
$GPGGA,005432.086,3526.8260,S,14904.8648,E,1,07,1.5,610.6,M,12.8,M,0.0,0000*6C
$GPGSA,A,3,18,15,22,14,06,29,26,,,,,,2.6,1.5,2.1*30
$GPGSV,3,1,10,18,75,181,34,21,59,121,26,22,56,285,40,15,51,221,40*7A
$GPGSV,3,2,10,06,27,022,37,03,25,227,36,26,25,133,40,16,19,285,36*7B
$GPGSV,3,3,10,29,16,139,38,14,14,351,29*78
$GPRMC,005432.086,A,3526.8260,S,14904.8648,E,32.44,248.38,131104,,*26
$GPGGA,005433.086,3526.8294,S,14904.8547,E,1,07,1.5,610.6,M,12.8,M,0.0,0000*6A
$GPGSA,A,3,18,15,22,14,06,29,26,,,,,,2.6,1.5,2.1*30
$GPGSV,3,1,10,18,75,181,35,21,59,121,26,22,56,285,42,15,51,221,39*77
$GPGSV,3,2,10,06,27,022,36,03,25,227,36,26,25,133,42,16,19,285,36*78
$GPGSV,3,3,10,29,16,139,36,14,14,351,26*79
$GPRMC,005433.086,A,3526.8294,S,14904.8547,E,31.58,248.53,131104,,*23
$GPGGA,005434.086,3526.8325,S,14904.8447,E,1,07,1.5,610.7,M,12.8,M,0.0,0000*66
$GPGSA,A,3,18,15,22,14,06,29,26,,,,,,2.6,1.5,2.1*30
$GPGSV,3,1,10,18,75,181,35,21,59,121,26,22,56,285,39,15,51,221,39*7B
$GPGSV,3,2,10,06,27,022,35,03,25,227,34,26,25,133,37,16,19,285,32*7F
$GPGSV,3,3,10,29,16,139,32,14,14,351,28*73
$GPRMC,005434.086,A,3526.8325,S,14904.8447,E,30.89,251.07,131104,,*2A
$GPGGA,005435.086,3526.8350,S,14904.8348,E,1,08,1.3,610.9,M,12.8,M,0.0,0000*6A
$GPGSA,A,3,18,15,22,21,14,06,29,26,,,,,2.1,1.3,1.7*37
$GPGSV,3,1,10,18,75,181,35,21,59,121,29,22,56,285,29,15,51,221,39*75
$GPGSV,3,2,10,06,27,022,36,03,25,227,31,26,25,133,38,16,19,285,31*75
$GPGSV,3,3,10,29,16,139,33,14,14,351,31*7A
$GPRMC,005435.086,A,3526.8350,S,14904.8348,E,29.82,254.91,131104,,*28
$GPGGA,005436.086,3526.8369,S,14904.8248,E,1,09,0.9,610.7,M,12.8,M,0.0,0000*66
$GPGSA,A,3,18,15,22,21,14,06,03,29,26,,,,1.7,0.9,1.4*39
$GPGSV,3,1,10,18,75,181,36,21,59,121,34,22,56,285,26,15,51,221,35*79
$GPGSV,3,2,10,06,27,022,37,03,26,227,34,26,25,133,38,16,19,285,33*70
$GPGSV,3,3,10,29,16,139,31,14,14,351,26*7E
$GPRMC,005436.086,A,3526.8369,S,14904.8248,E,30.25,260.17,131104,,*2C
$GPGGA,005437.086,3526.8379,S,14904.8146,E,1,08,1.0,610.4,M,12.8,M,0.0,0000*61
$GPGSA,A,3,18,15,22,21,14,06,03,26,,,,,1.9,1.0,1.6*36
$GPGSV,3,1,10,18,75,181,36,21,59,121,35,22,56,285,26,15,51,221,37*7A
$GPGSV,3,2,10,06,27,022,36,03,26,227,39,26,25,133,33,16,19,285,33*77
$GPGSV,3,3,10,29,16,139,21,14,14,351,34*7C
$GPRMC,005437.086,A,3526.8379,S,14904.8146,E,29.31,265.92,131104,,*24
$GPGGA,005438.086,3526.8380,S,14904.8045,E,1,09,0.9,610.6,M,12.8,M,0.0,0000*61
$GPGSA,A,3,18,15,22,21,14,06,03,29,26,,,,1.7,0.9,1.4*39
$GPGSV,3,1,10,18,75,181,37,21,59,121,36,22,56,285,30,15,51,221,39*71
$GPGSV,3,2,10,06,27,022,33,03,26,227,40,26,25,133,38,16,19,285,32*76
$GPGSV,3,3,10,29,16,139,35,14,14,351,37*7A
$GPRMC,005438.086,A,3526.8380,S,14904.8045,E,28.41,270.23,131104,,*27
$GPGGA,005439.086,3526.8377,S,14904.7947,E,1,09,0.9,611.0,M,12.8,M,0.0,0000*6B
$GPGSA,A,3,18,15,22,21,14,06,03,29,26,,,,1.7,0.9,1.4*39
$GPGSV,3,1,10,18,75,181,36,21,59,121,35,22,56,285,33,15,51,221,41*7F
$GPGSV,3,2,10,06,27,022,30,03,26,227,39,26,25,133,35,16,19,285,31*75
$GPGSV,3,3,10,29,16,139,33,14,14,351,35*7E
$GPRMC,005439.086,A,3526.8377,S,14904.7947,E,27.49,271.32,131104,,*2C
$GPGGA,005440.086,3526.8373,S,14904.7855,E,1,09,0.9,611.7,M,12.8,M,0.0,0000*64
$GPGSA,A,3,18,15,22,21,14,06,03,29,26,,,,1.7,0.9,1.4*39
$GPGSV,3,1,10,18,75,181,36,21,59,121,31,22,56,285,34,15,51,221,41*7C
$GPGSV,3,2,10,06,27,022,33,03,26,227,38,26,25,133,39,16,19,285,30*7A
$GPGSV,3,3,10,29,16,139,32,14,14,351,32*78
$GPRMC,005440.086,A,3526.8373,S,14904.7855,E,25.34,270.81,131104,,*25
$GPGGA,005441.086,3526.8370,S,14904.7774,E,1,09,0.9,612.1,M,12.8,M,0.0,0000*6F
$GPGSA,A,3,18,15,22,21,14,06,03,29,26,,,,1.7,0.9,1.4*39
$GPGSV,3,1,10,18,75,181,37,21,59,121,29,22,56,285,36,15,51,221,41*76
$GPGSV,3,2,10,06,27,022,37,03,26,227,39,26,25,133,39,16,19,285,30*7F
$GPGSV,3,3,10,29,16,139,31,14,14,351,33*7A
$GPRMC,005441.086,A,3526.8370,S,14904.7774,E,21.43,269.08,131104,,*26
$GPGGA,005442.086,3526.8370,S,14904.7707,E,1,09,0.9,612.5,M,12.8,M,0.0,0000*6C
$GPGSA,A,3,18,15,22,21,14,06,03,29,26,,,,1.7,0.9,1.4*39
$GPGSV,3,1,10,18,75,181,37,21,59,121,31,22,56,285,37,15,51,221,40*7F
$GPGSV,3,2,10,06,27,022,38,03,26,227,38,26,25,133,38,16,19,285,33*73
$GPGSV,3,3,10,29,16,139,31,14,14,351,36*7F
$GPRMC,005442.086,A,3526.8370,S,14904.7707,E,17.77,268.01,131104,,*2B
$GPGGA,005443.086,3526.8371,S,14904.7655,E,1,09,0.9,612.6,M,12.8,M,0.0,0000*69
$GPGSA,A,3,18,15,22,21,14,06,03,29,26,,,,1.7,0.9,1.4*39
$GPGSV,3,1,10,18,75,181,37,21,59,121,35,22,56,285,36,15,51,221,39*74
$GPGSV,3,2,10,06,27,022,38,03,26,227,38,26,25,133,39,16,19,285,34*75
$GPGSV,3,3,10,29,16,139,32,14,14,351,37*7D
$GPRMC,005443.086,A,3526.8371,S,14904.7655,E,12.94,268.26,131104,,*20
$GPGGA,005444.085,3526.8371,S,14904.7621,E,1,09,0.9,612.8,M,12.8,M,0.0,0000*60
$GPGSA,A,3,18,15,22,21,14,06,03,29,26,,,,1.7,0.9,1.4*39
$GPGSV,3,1,10,18,75,181,36,21,59,121,36,22,56,285,33,15,51,221,40*7D
$GPGSV,3,2,10,06,27,022,36,03,26,227,39,26,25,133,39,16,19,285,35*7B
$GPGSV,3,3,10,29,16,139,34,14,14,351,37*7B
$GPRMC,005444.085,A,3526.8371,S,14904.7621,E,7.33,269.16,131104,,*1C
$GPGGA,005445.085,3526.8369,S,14904.7603,E,1,09,0.9,613.2,M,12.8,M,1.7,0000*65
$GPGSA,A,3,18,15,22,21,14,06,03,29,26,,,,1.7,0.9,1.4*39
$GPGSV,3,1,10,18,75,181,34,21,59,121,37,22,56,285,36,15,51,221,44*7F
$GPGSV,3,2,10,06,27,022,35,03,26,227,40,26,25,133,34,16,19,285,36*78
$GPGSV,3,3,10,29,16,139,36,14,14,351,36*78
$GPRMC,005445.085,A,3526.8369,S,14904.7603,E,3.69,271.98,131104,,*10
$GPGGA,005446.085,3526.8367,S,14904.7596,E,1,09,0.9,613.6,M,12.8,M,2.7,0000*60
$GPGSA,A,3,18,15,22,21,14,06,03,29,26,,,,1.7,0.9,1.4*39
$GPGSV,3,1,10,18,75,181,34,21,59,121,39,22,56,285,36,15,51,221,44*71
$GPGSV,3,2,10,06,27,022,38,03,26,227,40,26,25,133,28,16,19,285,36*78
$GPGSV,3,3,10,29,16,139,35,14,14,351,37*7A
$GPRMC,005446.085,A,3526.8367,S,14904.7596,E,1.47,275.62,131104,,*1D
$GPGGA,005447.085,3526.8364,S,14904.7594,E,1,08,1.0,614.0,M,12.8,M,3.7,0000*69
$GPGSA,A,3,18,15,22,21,14,06,03,29,,,,,1.7,1.0,1.4*35
$GPGSV,3,1,10,18,75,181,34,21,59,121,39,22,56,285,36,15,51,221,44*71
$GPGSV,3,2,10,06,27,022,39,03,26,227,39,26,25,133,28,16,19,285,35*74
$GPGSV,3,3,10,29,16,139,36,14,14,351,37*79
$GPRMC,005447.085,A,3526.8364,S,14904.7594,E,0.00,275.62,131104,,*1F
$GPGGA,005448.085,3526.8362,S,14904.7594,E,1,08,1.0,614.4,M,12.8,M,1.7,0000*66
$GPGSA,A,3,18,15,22,21,14,06,03,29,,,,,1.7,1.0,1.4*35
$GPGSV,3,1,10,18,75,181,33,21,59,121,39,22,56,285,36,15,51,221,44*76
$GPGSV,3,2,10,06,26,022,39,03,26,227,39,26,25,133,28,16,19,285,36*76
$GPGSV,3,3,10,29,16,139,36,14,15,351,36*79
$GPRMC,005448.085,A,3526.8362,S,14904.7594,E,0.00,275.62,131104,,*16
$GPGGA,005449.085,3526.8361,S,14904.7596,E,1,08,1.0,614.7,M,12.8,M,1.7,0000*65
$GPGSA,A,3,18,15,22,21,14,06,03,29,,,,,1.7,1.0,1.4*35
$GPGSV,3,1,10,18,75,181,34,21,59,121,39,22,56,285,36,15,51,221,44*71
$GPGSV,3,2,10,06,26,022,38,03,26,227,39,26,25,133,28,16,19,285,35*74
$GPGSV,3,3,10,29,16,139,36,14,15,351,36*79
$GPRMC,005449.085,A,3526.8361,S,14904.7596,E,0.00,275.62,131104,,*16
$GPGGA,005450.085,3526.8359,S,14904.7597,E,1,09,0.9,615.0,M,12.8,M,1.7,0000*68
$GPGSA,A,3,18,15,22,21,14,06,03,29,26,,,,1.7,0.9,1.4*39
$GPGSV,3,1,10,18,75,181,34,21,59,121,38,22,56,285,36,15,51,221,44*70
$GPGSV,3,2,10,06,26,022,38,03,26,227,40,26,25,133,30,16,19,285,36*70
$GPGSV,3,3,10,29,16,139,35,14,15,351,36*7A
$GPRMC,005450.085,A,3526.8359,S,14904.7597,E,0.00,275.62,131104,,*14
$GPGGA,005451.085,3526.8357,S,14904.7598,E,1,09,0.9,615.3,M,12.8,M,2.7,0000*68
$GPGSA,A,3,18,15,22,21,14,06,03,29,26,,,,1.7,0.9,1.4*39
$GPGSV,3,1,10,18,75,181,33,21,59,121,38,22,56,285,36,15,51,221,43*70
$GPGSV,3,2,10,06,26,022,38,03,26,227,40,26,25,133,27,16,19,285,35*75
$GPGSV,3,3,10,29,16,139,36,14,15,351,38*77
$GPRMC,005451.085,A,3526.8357,S,14904.7598,E,0.00,275.62,131104,,*14
$GPGGA,005452.085,3526.8356,S,14904.7600,E,1,09,0.9,615.4,M,12.8,M,1.7,0000*6C
$GPGSA,A,3,18,15,22,21,14,06,03,29,26,,,,1.7,0.9,1.4*39
$GPGSV,3,1,10,18,75,181,33,21,59,121,39,22,56,285,36,15,51,221,43*71
$GPGSV,3,2,10,06,26,022,39,03,26,227,39,26,25,133,28,16,19,285,35*75
$GPGSV,3,3,10,29,16,139,36,14,15,351,38*77
$GPRMC,005452.085,A,3526.8356,S,14904.7600,E,0.00,275.62,131104,,*14
$GPGGA,005453.085,3526.8355,S,14904.7602,E,1,09,0.9,615.6,M,12.8,M,1.7,0000*6E
$GPGSA,A,3,18,15,22,21,14,06,03,29,26,,,,1.7,0.9,1.4*39
$GPGSV,3,1,10,18,75,181,33,21,59,121,39,22,56,285,36,15,51,221,43*71
$GPGSV,3,2,10,06,26,022,39,03,26,227,39,26,25,133,26,16,19,285,34*7A
$GPGSV,3,3,10,29,16,139,36,14,15,351,38*77
$GPRMC,005453.085,A,3526.8355,S,14904.7602,E,0.00,275.62,131104,,*14
$GPGGA,005454.085,3526.8354,S,14904.7604,E,1,09,0.9,616.2,M,12.8,M,1.7,0000*69
$GPGSA,A,3,18,15,22,21,14,06,03,29,26,,,,1.7,0.9,1.4*39
$GPGSV,3,1,10,18,75,181,33,21,59,121,39,22,56,285,36,15,51,221,43*71
$GPGSV,3,2,10,06,26,022,39,03,26,227,38,26,25,133,26,16,19,285,34*7B
$GPGSV,3,3,10,29,16,139,36,14,15,351,37*78
$GPRMC,005454.085,A,3526.8354,S,14904.7604,E,0.00,275.62,131104,,*14
$GPGGA,005455.085,3526.8354,S,14904.7604,E,1,09,0.9,616.7,M,12.8,M,1.7,0000*6D
$GPGSA,A,3,18,15,22,21,14,06,03,29,26,,,,1.7,0.9,1.4*39
$GPGSV,3,1,10,18,75,181,34,21,59,121,39,22,56,285,36,15,51,221,43*76
$GPGSV,3,2,10,06,26,022,40,03,26,227,39,26,25,133,27,16,19,285,34*75
$GPGSV,3,3,10,29,16,139,36,14,15,351,37*78
$GPRMC,005455.085,A,3526.8354,S,14904.7604,E,0.00,275.62,131104,,*15
$GPGGA,005456.085,3526.8354,S,14904.7604,E,1,08,1.0,616.8,M,12.8,M,1.7,0000*68
$GPGSA,A,3,18,15,22,21,14,06,03,29,,,,,1.7,1.0,1.4*35
$GPGSV,3,1,10,18,75,181,35,21,59,121,37,22,56,285,38,15,51,221,42*76
$GPGSV,3,2,10,06,26,022,39,03,26,227,41,26,25,133,27,16,19,285,35*75
$GPGSV,3,3,10,29,16,139,37,14,15,351,35*7B
$GPRMC,005456.085,A,3526.8354,S,14904.7604,E,0.30,277.13,131104,,*11
$GPGGA,005457.085,3526.8354,S,14904.7604,E,1,08,1.0,616.8,M,12.8,M,2.7,0000*6A
$GPGSA,A,3,18,15,22,21,14,06,03,29,,,,,1.7,1.0,1.4*35
$GPGSV,3,1,10,18,75,181,36,21,59,121,37,22,56,285,37,15,51,221,41*79
$GPGSV,3,2,10,06,26,022,40,03,26,227,41,26,25,133,27,16,19,285,35*7B
$GPGSV,3,3,10,29,16,139,38,14,15,351,34*75
$GPRMC,005457.085,A,3526.8354,S,14904.7604,E,0.00,277.13,131104,,*13
$GPGGA,005458.085,3526.8353,S,14904.7604,E,1,08,1.0,616.7,M,12.8,M,3.7,0000*6C
$GPGSA,A,3,18,15,22,21,14,06,03,29,,,,,1.7,1.0,1.4*35
$GPGSV,3,1,10,18,75,181,36,21,59,121,38,22,56,285,36,15,51,221,42*74
$GPGSV,3,2,10,06,26,022,40,03,26,227,41,26,25,133,27,16,19,285,35*7B
$GPGSV,3,3,10,29,16,139,38,14,15,351,36*77
$GPRMC,005458.085,A,3526.8353,S,14904.7604,E,0.00,277.13,131104,,*1B
$GPGGA,005459.085,3526.8352,S,14904.7604,E,1,08,1.0,616.7,M,12.8,M,4.7,0000*6B
$GPGSA,A,3,18,15,22,21,14,06,03,29,,,,,1.7,1.0,1.4*35
$GPGSV,3,1,10,18,75,181,36,21,59,121,36,22,56,285,36,15,51,221,42*7A
