$GPGGA,000005.999,0000.0000,N,00000.0000,E,0,00,50.0,0.0,M,0.0,M,0.0,0000*7A
$GPGSA,A,1,,,,,,,,,,,,,50.0,50.0,50.0*05
$GPRMC,000005.999,V,0000.0000,N,00000.0000,E,0.00,0.00,101102,,*1B
$GPGGA,000006.999,0000.0000,N,00000.0000,E,0,00,50.0,0.0,M,0.0,M,0.0,0000*79
$GPGSA,A,1,,,,,,,,,,,,,50.0,50.0,50.0*05
$GPRMC,000006.999,V,0000.0000,N,00000.0000,E,0.00,0.00,101102,,*18
$GPGGA,000007.999,0000.0000,N,00000.0000,E,0,00,50.0,0.0,M,0.0,M,0.0,0000*78
$GPGSA,A,1,,,,,,,,,,,,,50.0,50.0,50.0*05
$GPRMC,000007.999,V,0000.0000,N,00000.0000,E,0.00,0.00,101102,,*19
$GPGGA,000008.999,0000.0000,N,00000.0000,E,0,00,50.0,0.0,M,0.0,M,0.0,0000*77
$GPGSA,A,1,,,,,,,,,,,,,50.0,50.0,50.0*05
$GPRMC,000008.999,V,0000.0000,N,00000.0000,E,0.00,0.00,101102,,*16
$GPGGA,000009.999,0000.0000,N,00000.0000,E,0,00,50.0,0.0,M,0.0,M,0.0,0000*76
$GPGSA,A,1,,,,,,,,,,,,,50.0,50.0,50.0*05
$GPRMC,000009.999,V,0000.0000,N,00000.0000,E,0.00,0.00,101102,,*17
$GPGGA,000010.999,0000.0000,N,00000.0000,E,0,00,50.0,0.0,M,0.0,M,0.0,0000*7E
$GPGSA,A,1,,,,,,,,,,,,,50.0,50.0,50.0*05
$GPRMC,000010.999,V,0000.0000,N,00000.0000,E,0.00,0.00,101102,,*1F
$GPGGA,000011.999,0000.0000,N,00000.0000,E,0,00,50.0,0.0,M,0.0,M,0.0,0000*7F
$GPGSA,A,1,,,,,,,,,,,,,50.0,50.0,50.0*05
$GPRMC,000011.999,V,0000.0000,N,00000.0000,E,0.00,0.00,101102,,*1E
$GPGGA,000012.998,0000.0000,N,00000.0000,E,0,00,50.0,0.0,M,0.0,M,0.0,0000*7D
$GPGSA,A,1,,,,,,,,,,,,,50.0,50.0,50.0*05
$GPRMC,000012.998,V,0000.0000,N,00000.0000,E,0.00,0.00,101102,,*1C
$GPGGA,000013.998,0000.0000,N,00000.0000,E,0,00,50.0,0.0,M,0.0,M,0.0,0000*7C
$GPGSA,A,1,,,,,,,,,,,,,50.0,50.0,50.0*05
$GPRMC,000013.998,V,0000.0000,N,00000.0000,E,0.00,0.00,101102,,*1D
$GPGGA,000014.998,0000.0000,N,00000.0000,E,0,00,50.0,0.0,M,0.0,M,0.0,0000*7B
$GPGSA,A,1,,,,,,,,,,,,,50.0,50.0,50.0*05
$GPRMC,000014.998,V,0000.0000,N,00000.0000,E,0.00,0.00,101102,,*1A
$GPGGA,000015.998,0000.0000,N,00000.0000,E,0,00,50.0,0.0,M,0.0,M,0.0,0000*7A
$GPGSA,A,1,,,,,,,,,,,,,50.0,50.0,50.0*05
$GPRMC,000015.998,V,0000.0000,N,00000.0000,E,0.00,0.00,101102,,*1B
$GPGGA,000016.998,0000.0000,N,00000.0000,E,0,00,50.0,0.0,M,0.0,M,0.0,0000*79
$GPGSA,A,1,,,,,,,,,,,,,50.0,50.0,50.0*05
$GPRMC,000016.998,V,0000.0000,N,00000.0000,E,0.00,0.00,101102,,*18
$GPGGA,000017.998,0000.0000,N,00000.0000,E,0,00,50.0,0.0,M,0.0,M,0.0,0000*78
$GPGSA,A,1,,,,,,,,,,,,,50.0,50.0,50.0*05
$GPRMC,000017.998,V,0000.0000,N,00000.0000,E,0.00,0.00,101102,,*19
$GPGGA,000018.998,0000.0000,N,00000.0000,E,0,00,50.0,0.0,M,0.0,M,0.0,0000*77
$GPGSA,A,1,,,,,,,,,,,,,50.0,50.0,50.0*05
$GPRMC,000018.998,V,0000.0000,N,00000.0000,E,0.00,0.00,101102,,*16
$GPGGA,000019.998,0000.0000,N,00000.0000,E,0,00,50.0,0.0,M,0.0,M,0.0,0000*76
$GPGSA,A,1,,,,,,,,,,,,,50.0,50.0,50.0*05
$GPRMC,000019.998,V,0000.0000,N,00000.0000,E,0.00,0.00,101102,,*17
$GPGGA,000020.998,0000.0000,N,00000.0000,E,0,00,50.0,0.0,M,0.0,M,0.0,0000*7C
$GPGSA,A,1,,,,,,,,,,,,,50.0,50.0,50.0*05
$GPRMC,000020.998,V,0000.0000,N,00000.0000,E,0.00,0.00,101102,,*1D
$GPGGA,000021.998,0000.0000,N,00000.0000,E,0,00,50.0,0.0,M,0.0,M,0.0,0000*7D
$GPGSA,A,1,,,,,,,,,,,,,50.0,50.0,50.0*05
$GPRMC,000021.998,V,0000.0000,N,00000.0000,E,0.00,0.00,101102,,*1C
$GPGGA,000022.998,0000.0000,N,00000.0000,E,0,00,50.0,0.0,M,0.0,M,0.0,0000*7E
$GPGSA,A,1,,,,,,,,,,,,,50.0,50.0,50.0*05
$GPRMC,000022.998,V,0000.0000,N,00000.0000,E,0.00,0.00,101102,,*1F
$GPGGA,000023.998,0000.0000,N,00000.0000,E,0,00,50.0,0.0,M,0.0,M,0.0,0000*7F
$GPGSA,A,1,,,,,,,,,,,,,50.0,50.0,50.0*05
$GPRMC,000023.998,V,0000.0000,N,00000.0000,E,0.00,0.00,101102,,*1E
$GPGGA,000024.998,0000.0000,N,00000.0000,E,0,00,50.0,0.0,M,0.0,M,0.0,0000*78
$GPGSA,A,1,,,,,,,,,,,,,50.0,50.0,50.0*05
$GPRMC,000024.998,V,0000.0000,N,00000.0000,E,0.00,0.00,101102,,*19
$GPGGA,000025.998,0000.0000,N,00000.0000,E,0,00,50.0,0.0,M,0.0,M,0.0,0000*79
$GPGSA,A,1,,,,,,,,,,,,,50.0,50.0,50.0*05
$GPRMC,000025.998,V,0000.0000,N,00000.0000,E,0.00,0.00,101102,,*18
$GPGGA,000026.998,0000.0000,N,00000.0000,E,0,00,50.0,0.0,M,0.0,M,0.0,0000*7A
$GPGSA,A,1,,,,,,,,,,,,,50.0,50.0,50.0*05
$GPRMC,000026.998,V,0000.0000,N,00000.0000,E,0.00,0.00,101102,,*1B
$GPGGA,000027.998,0000.0000,N,00000.0000,E,0,00,50.0,0.0,M,0.0,M,0.0,0000*7B
$GPGSA,A,1,,,,,,,,,,,,,50.0,50.0,50.0*05
$GPRMC,000027.998,V,0000.0000,N,00000.0000,E,0.00,0.00,101102,,*1A
$GPGGA,000028.998,0000.0000,N,00000.0000,E,0,00,50.0,0.0,M,0.0,M,0.0,0000*74
$GPGSA,A,1,,,,,,,,,,,,,50.0,50.0,50.0*05
$GPRMC,000028.998,V,0000.0000,N,00000.0000,E,0.00,0.00,101102,,*15
$GPGGA,000029.997,0000.0000,N,00000.0000,E,0,00,50.0,0.0,M,0.0,M,0.0,0000*7A
$GPGSA,A,1,,,,,,,,,,,,,50.0,50.0,50.0*05
$GPGSV,3,1,12,14,90,000,00,23,74,000,00,09,73,000,,08,68,000,*7D
$GPGSV,3,2,12,18,59,000,,22,57,000,00,16,36,000,00,24,31,000,*7A
$GPGSV,3,3,12,04,26,000,00,11,10,000,,26,10,000,,30,08,000,00*75
$GPRMC,000029.997,V,0000.0000,N,00000.0000,E,0.00,0.00,101102,,*1B
$GPGGA,000030.997,0000.0000,N,00000.0000,E,0,00,50.0,0.0,M,0.0,M,0.0,0000*72
$GPGSA,A,1,,,,,,,,,,,,,50.0,50.0,50.0*05
$GPGSV,3,1,12,14,90,000,41,23,74,000,00,09,73,000,,08,68,000,*78
$GPGSV,3,2,12,18,59,000,,22,57,000,00,16,36,000,00,24,31,000,*7A
$GPGSV,3,3,12,04,26,000,00,11,10,000,,26,10,000,,30,08,000,00*75
$GPRMC,000030.997,V,0000.0000,N,00000.0000,E,0.00,0.00,101102,,*13
$GPGGA,000031.997,0000.0000,N,00000.0000,E,0,00,50.0,0.0,M,0.0,M,0.0,0000*73
$GPGSA,A,1,,,,,,,,,,,,,50.0,50.0,50.0*05
$GPGSV,3,1,12,14,90,000,41,23,74,000,00,09,73,000,,08,68,000,*78
$GPGSV,3,2,12,18,59,000,,22,57,000,00,16,36,000,00,24,31,000,*7A
$GPGSV,3,3,12,04,26,000,00,11,10,000,,26,10,000,,30,08,000,00*75
$GPRMC,000031.997,V,0000.0000,N,00000.0000,E,0.00,0.00,101102,,*12
$GPGGA,000032.997,0000.0000,N,00000.0000,E,0,00,50.0,0.0,M,0.0,M,0.0,0000*70
$GPGSA,A,1,,,,,,,,,,,,,50.0,50.0,50.0*05
$GPGSV,3,1,12,14,90,000,41,23,74,000,00,09,73,000,,08,68,000,*78
$GPGSV,3,2,12,18,59,000,,22,57,000,43,16,36,000,00,24,31,000,*7D
$GPGSV,3,3,12,04,26,000,00,11,10,000,,26,10,000,,30,08,000,00*75
$GPRMC,000032.997,V,0000.0000,N,00000.0000,E,0.00,0.00,101102,,*11
$GPGGA,000033.997,0000.0000,N,00000.0000,E,0,00,50.0,0.0,M,0.0,M,0.0,0000*71
$GPGSA,A,1,,,,,,,,,,,,,50.0,50.0,50.0*05
$GPGSV,3,1,12,14,90,000,41,23,74,000,00,09,73,000,,08,68,000,*78
$GPGSV,3,2,12,18,59,000,,22,57,000,43,16,36,000,00,24,31,000,*7D
$GPGSV,3,3,12,04,26,000,00,11,10,000,,26,10,000,,30,08,000,00*75
$GPRMC,000033.997,V,0000.0000,N,00000.0000,E,0.00,0.00,101102,,*10
$GPGGA,000034.997,0000.0000,N,00000.0000,E,0,00,50.0,0.0,M,0.0,M,0.0,0000*76
$GPGSA,A,1,,,,,,,,,,,,,50.0,50.0,50.0*05
$GPGSV,3,1,12,14,90,000,41,23,74,000,00,09,73,000,,08,68,000,*78
$GPGSV,3,2,12,18,59,000,,22,57,000,43,16,36,000,00,24,31,000,*7D
$GPGSV,3,3,12,04,26,000,00,11,10,000,,26,10,000,,30,08,000,00*75
$GPRMC,000034.997,V,0000.0000,N,00000.0000,E,0.00,0.00,101102,,*17
$GPGGA,000035.997,0000.0000,N,00000.0000,E,0,00,50.0,0.0,M,0.0,M,0.0,0000*77
$GPGSA,A,1,,,,,,,,,,,,,50.0,50.0,50.0*05
$GPGSV,3,1,12,14,90,000,40,23,74,000,00,09,73,000,,08,68,000,*79
$GPGSV,3,2,12,18,59,000,,22,57,000,43,16,36,000,00,24,31,000,*7D
$GPGSV,3,3,12,04,26,000,00,11,10,000,,26,10,000,,30,08,000,00*75
$GPRMC,000035.997,V,0000.0000,N,00000.0000,E,0.00,0.00,101102,,*16
$GPGGA,000036.997,0000.0000,N,00000.0000,E,0,00,50.0,0.0,M,0.0,M,0.0,0000*74
$GPGSA,A,1,,,,,,,,,,,,,50.0,50.0,50.0*05
$GPGSV,3,1,12,14,90,000,40,23,74,000,00,09,73,000,,08,68,000,*79
$GPGSV,3,2,12,18,59,000,,22,57,000,43,16,36,000,00,24,31,000,*7D
$GPGSV,3,3,12,04,26,000,00,11,10,000,,26,10,000,,30,08,000,00*75
$GPRMC,000036.997,V,0000.0000,N,00000.0000,E,0.00,0.00,101102,,*15
$GPGGA,000037.997,0000.0000,N,00000.0000,E,0,00,50.0,0.0,M,0.0,M,0.0,0000*75
$GPGSA,A,1,,,,,,,,,,,,,50.0,50.0,50.0*05
$GPGSV,3,1,12,14,90,000,40,23,74,000,00,09,73,000,,08,68,000,*79
$GPGSV,3,2,12,18,59,000,,22,57,000,43,16,36,000,00,24,31,000,*7D
$GPGSV,3,3,12,04,26,000,00,11,10,000,,26,10,000,,30,08,000,00*75
$GPRMC,000037.997,V,0000.0000,N,00000.0000,E,0.00,0.00,101102,,*14
$GPGGA,000038.997,0000.0000,N,00000.0000,E,0,00,50.0,0.0,M,0.0,M,0.0,0000*7A
$GPGSA,A,1,,,,,,,,,,,,,50.0,50.0,50.0*05
$GPGSV,3,1,12,14,90,000,40,23,74,000,00,09,73,000,,08,68,000,*79
$GPGSV,3,2,12,18,59,000,,22,57,000,45,16,36,000,00,24,31,000,*7B
$GPGSV,3,3,12,04,26,000,00,11,10,000,,26,10,000,,30,08,000,00*75
$GPRMC,000038.997,V,0000.0000,N,00000.0000,E,0.00,0.00,101102,,*1B
$GPGGA,000039.997,0000.0000,N,00000.0000,E,0,00,50.0,0.0,M,0.0,M,0.0,0000*7B
$GPGSA,A,1,,,,,,,,,,,,,50.0,50.0,50.0*05
$GPGSV,3,1,12,14,90,000,40,23,74,000,00,09,73,000,,08,68,000,*79
$GPGSV,3,2,12,18,59,000,,22,57,000,45,16,36,000,00,24,31,000,*7B
$GPGSV,3,3,12,04,26,000,00,11,10,000,,26,10,000,,30,08,000,00*75
$GPRMC,000039.997,V,0000.0000,N,00000.0000,E,0.00,0.00,101102,,*1A
$GPGGA,000040.997,0000.0000,N,00000.0000,E,0,00,50.0,0.0,M,0.0,M,0.0,0000*75
$GPGSA,A,1,,,,,,,,,,,,,50.0,50.0,50.0*05
$GPGSV,3,1,12,14,90,000,40,23,74,000,00,09,73,000,,08,68,000,*79
$GPGSV,3,2,12,18,59,000,,22,57,000,45,16,36,000,00,24,31,000,*7B
$GPGSV,3,3,12,04,26,000,00,11,10,000,,26,10,000,,30,08,000,00*75
$GPRMC,000040.997,V,0000.0000,N,00000.0000,E,0.00,0.00,101102,,*14
$GPGGA,000041.997,0000.0000,N,00000.0000,E,0,00,50.0,0.0,M,0.0,M,0.0,0000*74
$GPGSA,A,1,,,,,,,,,,,,,50.0,50.0,50.0*05
$GPGSV,3,1,12,14,90,000,40,23,74,000,00,09,73,000,,08,68,000,*79
$GPGSV,3,2,12,18,59,000,,22,57,000,45,16,36,000,00,24,31,000,*7B
$GPGSV,3,3,12,04,26,000,00,11,10,000,,26,10,000,,30,08,000,00*75
$GPRMC,000041.997,V,0000.0000,N,00000.0000,E,0.00,0.00,101102,,*15
$GPGGA,034901.184,0000.0000,N,00000.0000,E,0,00,50.0,0.0,M,0.0,M,0.0,0000*74
$GPGSA,A,1,,,,,,,,,,,,,50.0,50.0,50.0*05
$GPGSV,3,1,12,14,90,000,40,23,74,000,00,09,73,000,,08,68,000,*79
$GPGSV,3,2,12,18,59,000,,22,57,000,45,16,36,000,00,24,31,000,*7B
$GPGSV,3,3,12,04,26,000,00,11,10,000,,26,10,000,,30,08,000,00*75
$GPRMC,034901.184,V,0000.0000,N,00000.0000,E,0.00,0.00,161102,,*13
$GPGGA,034902.184,0000.0000,N,00000.0000,E,0,00,50.0,0.0,M,0.0,M,0.0,0000*77
$GPGSA,A,1,,,,,,,,,,,,,50.0,50.0,50.0*05
$GPGSV,3,1,12,14,90,000,40,23,74,000,00,09,73,000,,08,68,000,*79
$GPGSV,3,2,12,18,59,000,,22,57,000,44,16,36,000,00,24,31,000,*7A
$GPGSV,3,3,12,04,26,000,00,11,10,000,,26,10,000,,30,08,000,00*75
$GPRMC,034902.184,V,0000.0000,N,00000.0000,E,0.00,0.00,161102,,*10
$GPGGA,034903.184,0000.0000,N,00000.0000,E,0,00,50.0,0.0,M,0.0,M,0.0,0000*76
$GPGSA,A,1,,,,,,,,,,,,,50.0,50.0,50.0*05
$GPGSV,3,1,12,14,90,000,40,23,74,000,00,09,73,000,,08,68,000,*79
$GPGSV,3,2,12,18,59,000,,22,57,000,44,16,36,000,00,24,31,000,*7A
$GPGSV,3,3,12,04,26,000,00,11,10,000,,26,10,000,,30,08,000,00*75
$GPRMC,034903.184,V,0000.0000,N,00000.0000,E,0.00,0.00,161102,,*11
$GPGGA,034904.184,0000.0000,N,00000.0000,E,0,00,50.0,0.0,M,0.0,M,0.0,0000*71
$GPGSA,A,1,,,,,,,,,,,,,50.0,50.0,50.0*05
$GPGSV,3,1,12,14,90,000,40,23,74,000,00,09,73,000,,08,68,000,*79
$GPGSV,3,2,12,18,59,000,,22,57,000,44,16,36,000,00,24,31,000,*7A
$GPGSV,3,3,12,04,26,000,00,11,10,000,,26,10,000,,30,08,000,00*75
$GPRMC,034904.184,V,0000.0000,N,00000.0000,E,0.00,0.00,161102,,*16
$GPGGA,034905.184,0000.0000,N,00000.0000,E,0,00,50.0,0.0,M,0.0,M,0.0,0000*70
$GPGSA,A,1,,,,,,,,,,,,,50.0,50.0,50.0*05
$GPGSV,3,1,12,14,90,000,40,23,74,000,00,09,73,000,,08,68,000,*79
$GPGSV,3,2,12,18,59,000,,22,57,000,43,16,36,000,00,24,31,000,*7D
$GPGSV,3,3,12,04,26,000,00,11,10,000,,26,10,000,,30,08,000,00*75
$GPRMC,034905.184,V,0000.0000,N,00000.0000,E,0.00,0.00,161102,,*17
$GPGGA,034906.184,0000.0000,N,00000.0000,E,0,00,50.0,0.0,M,0.0,M,0.0,0000*73
$GPGSA,A,1,,,,,,,,,,,,,50.0,50.0,50.0*05
$GPGSV,3,1,12,14,90,000,40,23,74,000,00,09,73,000,,08,68,000,*79
$GPGSV,3,2,12,18,59,000,,22,57,000,43,16,36,000,00,24,31,000,*7D
$GPGSV,3,3,12,04,26,000,00,11,10,000,,26,10,000,,30,08,000,00*75
$GPRMC,034906.184,V,0000.0000,N,00000.0000,E,0.00,0.00,161102,,*14
$GPGGA,034907.184,0000.0000,N,00000.0000,E,0,00,50.0,0.0,M,0.0,M,0.0,0000*72
$GPGSA,A,1,,,,,,,,,,,,,50.0,50.0,50.0*05
$GPGSV,3,1,12,14,90,000,40,23,74,000,00,09,73,000,,08,68,000,*79
$GPGSV,3,2,12,18,59,000,,22,57,000,43,16,36,000,00,24,31,000,*7D
$GPGSV,3,3,12,04,26,000,00,11,10,000,,26,10,000,,30,08,000,00*75
$GPRMC,034907.184,V,0000.0000,N,00000.0000,E,0.00,0.00,161102,,*15
$GPGGA,034908.184,0000.0000,N,00000.0000,E,0,00,50.0,0.0,M,0.0,M,0.0,0000*7D
$GPGSA,A,1,,,,,,,,,,,,,50.0,50.0,50.0*05
$GPGSV,3,1,12,14,90,000,40,23,74,000,00,09,73,000,,08,68,000,*79
$GPGSV,3,2,12,18,59,000,,22,57,000,43,16,36,000,00,24,31,000,*7D
$GPGSV,3,3,12,04,26,000,00,11,10,000,,26,10,000,,30,08,000,00*75
$GPRMC,034908.184,V,0000.0000,N,00000.0000,E,0.00,0.00,161102,,*1A
$GPGGA,034909.184,0000.0000,N,00000.0000,E,0,00,50.0,0.0,M,0.0,M,0.0,0000*7C
$GPGSA,A,1,,,,,,,,,,,,,50.0,50.0,50.0*05
$GPGSV,3,1,12,14,90,000,40,23,74,000,00,09,73,000,,08,68,000,*79
$GPGSV,3,2,12,18,59,000,,22,57,000,43,16,36,000,00,24,31,000,*7D
$GPGSV,3,3,12,04,26,000,00,11,10,000,,26,10,000,,30,08,000,00*75
$GPRMC,034909.184,V,0000.0000,N,00000.0000,E,0.00,0.00,161102,,*1B
$GPGGA,034910.184,0000.0000,N,00000.0000,E,0,00,50.0,0.0,M,0.0,M,0.0,0000*74
$GPGSA,A,1,,,,,,,,,,,,,50.0,50.0,50.0*05
$GPGSV,3,1,12,14,90,000,40,23,74,000,00,09,73,000,,08,68,000,*79
$GPGSV,3,2,12,18,59,000,,22,57,000,44,16,36,000,00,24,31,000,*7A
$GPGSV,3,3,12,04,26,000,00,11,10,000,,26,10,000,,30,08,000,00*75
$GPRMC,034910.184,V,0000.0000,N,00000.0000,E,0.00,0.00,161102,,*13
$GPGGA,034911.183,0000.0000,N,00000.0000,E,0,00,50.0,0.0,M,0.0,M,0.0,0000*72
$GPGSA,A,1,,,,,,,,,,,,,50.0,50.0,50.0*05
$GPGSV,3,1,12,14,90,000,40,23,74,000,00,09,73,000,,08,68,000,*79
$GPGSV,3,2,12,18,59,000,,22,57,000,44,16,36,000,00,24,31,000,*7A
$GPGSV,3,3,12,04,26,000,00,11,10,000,,26,10,000,,30,08,000,00*75
$GPRMC,034911.183,V,0000.0000,N,00000.0000,E,0.00,0.00,161102,,*15
$GPGGA,034912.183,0000.0000,N,00000.0000,E,0,00,50.0,0.0,M,0.0,M,0.0,0000*71
$GPGSA,A,1,,,,,,,,,,,,,50.0,50.0,50.0*05
$GPGSV,3,1,12,14,90,000,40,23,74,000,00,09,73,000,,08,68,000,*79
$GPGSV,3,2,12,18,59,000,,22,57,000,44,16,36,000,00,24,31,000,*7A
$GPGSV,3,3,12,04,26,000,00,11,10,000,,26,10,000,,30,08,000,00*75
$GPRMC,034912.183,V,0000.0000,N,00000.0000,E,0.00,0.00,161102,,*16
$GPGGA,034913.183,0000.0000,N,00000.0000,E,0,00,50.0,0.0,M,0.0,M,0.0,0000*70
$GPGSA,A,1,,,,,,,,,,,,,50.0,50.0,50.0*05
$GPGSV,3,1,12,14,90,000,41,23,74,000,00,09,73,000,,08,68,000,*78
$GPGSV,3,2,12,18,59,000,,22,57,000,44,16,36,000,00,24,31,000,*7A
$GPGSV,3,3,12,04,26,000,00,11,10,000,,26,10,000,,30,08,000,00*75
$GPRMC,034913.183,V,0000.0000,N,00000.0000,E,0.00,0.00,161102,,*17
$GPGGA,034914.183,0000.0000,N,00000.0000,E,0,00,50.0,0.0,M,0.0,M,0.0,0000*77
$GPGSA,A,1,,,,,,,,,,,,,50.0,50.0,50.0*05
$GPGSV,3,1,12,14,90,000,41,23,74,000,00,09,73,000,,08,68,000,*78
$GPGSV,3,2,12,18,59,000,,22,57,000,44,16,36,000,00,24,31,000,*7A
$GPGSV,3,3,12,04,26,000,00,11,10,000,,26,10,000,,30,08,000,00*75
$GPRMC,034914.183,V,0000.0000,N,00000.0000,E,0.00,0.00,161102,,*10
$GPGGA,034915.183,0000.0000,N,00000.0000,E,0,00,50.0,0.0,M,0.0,M,0.0,0000*76
$GPGSA,A,1,,,,,,,,,,,,,50.0,50.0,50.0*05
$GPGSV,3,1,12,14,90,000,40,23,74,000,00,09,73,000,,08,68,000,*79
$GPGSV,3,2,12,18,59,000,,22,57,000,44,16,36,000,00,24,31,000,*7A
$GPGSV,3,3,12,04,26,000,00,11,10,000,,26,10,000,,30,08,000,00*75
$GPRMC,034915.183,V,0000.0000,N,00000.0000,E,0.00,0.00,161102,,*11
$GPGGA,034916.183,0000.0000,N,00000.0000,E,0,00,50.0,0.0,M,0.0,M,0.0,0000*75
$GPGSA,A,1,,,,,,,,,,,,,50.0,50.0,50.0*05
$GPGSV,3,1,12,14,90,000,40,23,74,000,00,09,73,000,,08,68,000,*79
$GPGSV,3,2,12,18,59,000,,22,57,000,43,16,36,000,00,24,31,000,*7D
$GPGSV,3,3,12,04,26,000,00,11,10,000,,26,10,000,,30,08,000,00*75
$GPRMC,034916.183,V,0000.0000,N,00000.0000,E,0.00,0.00,161102,,*12
$GPGGA,034917.183,0000.0000,N,00000.0000,E,0,00,50.0,0.0,M,0.0,M,0.0,0000*74
$GPGSA,A,1,,,,,,,,,,,,,50.0,50.0,50.0*05
$GPGSV,3,1,12,14,90,000,41,23,74,000,00,09,73,000,,08,68,000,*78
$GPGSV,3,2,12,18,59,000,,22,57,000,45,16,36,000,00,24,31,000,*7B
$GPGSV,3,3,12,04,26,000,00,11,10,000,,26,10,000,,30,08,000,00*75
$GPRMC,034917.183,V,0000.0000,N,00000.0000,E,0.00,0.00,161102,,*13
$GPGGA,034918.183,0000.0000,N,00000.0000,E,0,00,50.0,0.0,M,0.0,M,0.0,0000*7B
$GPGSA,A,1,,,,,,,,,,,,,50.0,50.0,50.0*05
$GPGSV,3,1,12,14,90,000,41,23,74,000,00,09,73,000,,08,68,000,*78
$GPGSV,3,2,12,18,59,000,,22,57,000,44,16,36,000,00,24,31,000,*7A
$GPGSV,3,3,12,04,26,000,00,11,10,000,,26,10,000,,30,08,000,00*75
$GPRMC,034918.183,V,0000.0000,N,00000.0000,E,0.00,0.00,161102,,*1C
$GPGGA,034919.183,0000.0000,N,00000.0000,E,0,00,50.0,0.0,M,0.0,M,0.0,0000*7A
$GPGSA,A,1,,,,,,,,,,,,,50.0,50.0,50.0*05
$GPGSV,3,1,12,14,90,000,41,23,74,000,00,09,73,000,,08,68,000,*78
$GPGSV,3,2,12,18,59,000,,22,57,000,44,16,36,000,00,24,31,000,*7A
$GPGSV,3,3,12,04,26,000,00,11,10,000,,26,10,000,,30,08,000,00*75
$GPRMC,034919.183,V,0000.0000,N,00000.0000,E,0.00,0.00,161102,,*1D
$GPGGA,034920.183,0000.0000,N,00000.0000,E,0,00,50.0,0.0,M,0.0,M,0.0,0000*70
$GPGSA,A,1,,,,,,,,,,,,,50.0,50.0,50.0*05
$GPGSV,3,1,12,14,90,000,40,23,74,000,00,09,73,000,,08,68,000,*79
$GPGSV,3,2,12,18,59,000,,22,57,000,43,16,36,000,00,24,31,000,*7D
$GPGSV,3,3,12,04,26,000,00,11,10,000,,26,10,000,,30,08,000,00*75
$GPRMC,034920.183,V,0000.0000,N,00000.0000,E,0.00,0.00,161102,,*17
$GPGGA,034921.183,0000.0000,N,00000.0000,E,0,00,50.0,0.0,M,0.0,M,0.0,0000*71
$GPGSA,A,1,,,,,,,,,,,,,50.0,50.0,50.0*05
$GPGSV,3,1,12,14,90,000,40,23,74,000,00,09,73,000,,08,68,000,*79
$GPGSV,3,2,12,18,59,000,,22,57,000,43,16,36,000,00,24,31,000,*7D
$GPGSV,3,3,12,04,26,000,00,11,10,000,,26,10,000,,30,08,000,00*75
$GPRMC,034921.183,V,0000.0000,N,00000.0000,E,0.00,0.00,161102,,*16
$GPGGA,034922.183,0000.0000,N,00000.0000,E,0,00,50.0,0.0,M,0.0,M,0.0,0000*72
$GPGSA,A,1,,,,,,,,,,,,,50.0,50.0,50.0*05
$GPGSV,3,1,12,14,90,000,40,23,74,000,00,09,73,000,,08,68,000,*79
$GPGSV,3,2,12,18,59,000,,22,57,000,42,16,36,000,00,24,31,000,*7C
$GPGSV,3,3,12,04,26,000,00,11,10,000,,26,10,000,,30,08,000,00*75
$GPRMC,034922.183,V,0000.0000,N,00000.0000,E,0.00,0.00,161102,,*15
$GPGGA,034923.183,0000.0000,N,00000.0000,E,0,00,50.0,0.0,M,0.0,M,0.0,0000*73
$GPGSA,A,1,,,,,,,,,,,,,50.0,50.0,50.0*05
$GPGSV,3,1,12,14,90,000,40,23,74,000,00,09,73,000,,08,68,000,*79
$GPGSV,3,2,12,18,59,000,,22,57,000,43,16,36,000,00,24,31,000,*7D
$GPGSV,3,3,12,04,26,000,00,11,10,000,,26,10,000,,30,08,000,00*75
$GPRMC,034923.183,V,0000.0000,N,00000.0000,E,0.00,0.00,131104,,*17
$GPGGA,034924.183,0000.0000,N,00000.0000,E,0,00,50.0,0.0,M,0.0,M,0.0,0000*74
$GPGSA,A,1,,,,,,,,,,,,,50.0,50.0,50.0*05
$GPGSV,3,1,12,14,68,000,39,22,65,000,43,15,60,000,40,18,37,000,*76
$GPGSV,3,2,12,01,27,000,,09,22,000,,25,17,000,,21,17,000,*72
$GPGSV,3,3,12,19,14,000,00,05,11,000,,03,08,000,,30,08,000,00*72
$GPRMC,034924.183,V,0000.0000,N,00000.0000,E,0.00,0.00,131104,,*10
$GPGGA,034925.183,0000.0000,N,00000.0000,E,0,00,50.0,0.0,M,0.0,M,0.0,0000*75
$GPGSA,A,1,,,,,,,,,,,,,50.0,50.0,50.0*05
$GPGSV,3,1,12,14,68,000,40,22,65,000,43,15,60,000,40,18,37,000,00*78
$GPGSV,3,2,12,01,27,000,00,09,22,000,00,25,17,000,00,21,17,000,00*72
$GPGSV,3,3,12,19,14,000,00,05,11,000,,03,08,000,,30,08,000,00*72
$GPRMC,034925.183,V,0000.0000,N,00000.0000,E,0.00,0.00,131104,,*11
$GPGGA,034926.183,0000.0000,N,00000.0000,E,0,00,50.0,0.0,M,0.0,M,0.0,0000*76
$GPGSA,A,1,,,,,,,,,,,,,50.0,50.0,50.0*05
$GPGSV,3,1,12,14,68,000,40,22,65,000,43,15,60,000,39,18,37,000,00*76
$GPGSV,3,2,12,01,27,000,00,09,22,000,00,25,17,000,00,21,17,000,00*72
$GPGSV,3,3,12,19,14,000,00,05,11,000,,03,08,000,,30,08,000,00*72
$GPRMC,034926.183,V,0000.0000,N,00000.0000,E,0.00,0.00,131104,,*12
$GPGGA,034927.183,0000.0000,N,00000.0000,E,0,00,50.0,0.0,M,0.0,M,0.0,0000*77
$GPGSA,A,1,,,,,,,,,,,,,50.0,50.0,50.0*05
$GPGSV,3,1,12,14,68,000,40,22,65,000,43,15,60,000,40,18,37,000,00*78
$GPGSV,3,2,12,01,27,000,00,09,22,000,00,25,17,000,00,21,17,000,00*72
$GPGSV,3,3,12,19,14,000,00,05,11,000,,03,08,000,,30,08,000,00*72
$GPRMC,034927.183,V,0000.0000,N,00000.0000,E,0.00,0.00,131104,,*13
$GPGGA,034928.182,0000.0000,N,00000.0000,E,0,00,50.0,0.0,M,0.0,M,0.0,0000*79
$GPGSA,A,1,,,,,,,,,,,,,50.0,50.0,50.0*05
$GPGSV,3,1,12,14,68,000,40,22,65,000,43,15,60,000,40,18,37,000,00*78
$GPGSV,3,2,12,01,27,000,00,09,22,000,00,25,17,000,00,21,17,000,00*72
$GPGSV,3,3,12,19,14,000,00,05,11,000,,03,08,000,,30,08,000,00*72
$GPRMC,034928.182,V,0000.0000,N,00000.0000,E,0.00,0.00,131104,,*1D
$GPGGA,034929.182,0000.0000,N,00000.0000,E,0,00,50.0,0.0,M,0.0,M,0.0,0000*78
$GPGSA,A,1,,,,,,,,,,,,,50.0,50.0,50.0*05
$GPGSV,3,1,12,14,68,000,40,22,65,000,42,15,60,000,39,18,37,000,00*77
$GPGSV,3,2,12,01,27,000,00,09,22,000,00,25,17,000,00,21,17,000,00*72
$GPGSV,3,3,12,19,14,000,00,05,11,000,,03,08,000,,30,08,000,00*72
$GPRMC,034929.182,V,0000.0000,N,00000.0000,E,0.00,0.00,131104,,*1C
$GPGGA,034930.180,3526.8596,S,14905.0582,E,1,03,11.1,0.0,M,12.8,M,0.0,0000*54
$GPGSA,A,2,14,22,15,,,,,,,,,,22.9,11.1,20.0*08
$GPGSV,3,1,12,14,68,000,40,22,65,000,42,15,60,000,37,18,37,000,00*79
$GPGSV,3,2,12,01,27,000,00,09,22,000,00,25,17,000,00,21,17,000,00*72
$GPGSV,3,3,12,19,14,000,00,05,11,000,,03,08,000,,30,08,000,00*72
$GPRMC,034930.180,A,3526.8596,S,14905.0582,E,0.00,0.00,131104,,*1A
$GPGGA,034931.180,3526.8575,S,14905.0572,E,1,03,11.1,0.0,M,12.8,M,0.0,0000*57
$GPGSA,A,2,14,22,15,,,,,,,,,,22.9,11.1,20.0*08
$GPGSV,3,1,11,14,77,152,41,15,50,045,39,01,47,311,00,22,45,120,41*71
$GPGSV,3,2,11,19,36,278,00,03,25,314,,25,20,005,00,11,17,226,*7A
$GPGSV,3,3,11,18,16,100,00,09,08,141,00,21,05,044,00*45
$GPRMC,034931.180,A,3526.8575,S,14905.0572,E,0.00,0.00,131104,,*19
$GPGGA,034932.180,3526.8591,S,14905.0559,E,1,03,11.1,0.0,M,12.8,M,0.0,0000*57
$GPGSA,A,2,14,22,15,,,,,,,,,,22.9,11.1,20.0*08
$GPGSV,3,1,10,14,77,152,41,15,50,045,40,01,47,311,00,22,45,120,40*7F
$GPGSV,3,2,10,19,36,278,00,03,25,314,00,25,20,005,00,11,17,226,00*7B
$GPGSV,3,3,10,18,16,100,00,09,08,141,00*72
$GPRMC,034932.180,A,3526.8591,S,14905.0559,E,0.00,0.00,131104,,*19
$GPGGA,034933.180,3526.8573,S,14905.0570,E,1,03,11.1,0.0,M,12.8,M,0.0,0000*51
$GPGSA,A,2,14,22,15,,,,,,,,,,22.9,11.1,20.0*08
$GPGSV,3,1,10,14,77,152,41,15,50,045,41,01,47,311,00,22,45,120,40*7E
$GPGSV,3,2,10,19,36,278,00,03,25,314,00,25,20,005,00,11,17,226,00*7B
$GPGSV,3,3,10,18,16,100,00,09,08,141,00*72
$GPRMC,034933.180,A,3526.8573,S,14905.0570,E,0.00,0.00,131104,,*1F
$GPGGA,034934.180,3526.8577,S,14905.0582,E,1,03,11.1,0.0,M,12.8,M,0.0,0000*5F
$GPGSA,A,2,14,22,15,,,,,,,,,,22.9,11.1,20.0*08
$GPGSV,3,1,10,14,77,152,41,15,50,045,41,01,47,311,00,22,45,120,41*7F
$GPGSV,3,2,10,19,36,278,00,03,25,314,00,25,20,005,00,11,17,226,00*7B
$GPGSV,3,3,10,18,16,100,00,09,08,141,00*72
$GPRMC,034934.180,A,3526.8577,S,14905.0582,E,0.00,0.00,131104,,*11
$GPGGA,034935.180,3526.8578,S,14905.0590,E,1,03,11.1,0.0,M,12.8,M,0.0,0000*52
$GPGSA,A,2,14,22,15,,,,,,,,,,22.9,11.1,20.0*08
$GPGSV,3,1,10,14,77,152,41,15,50,045,41,01,47,311,00,22,45,120,40*7E
$GPGSV,3,2,10,19,36,278,00,03,25,314,00,25,20,005,00,11,17,226,32*7A
$GPGSV,3,3,10,18,16,100,00,09,08,141,00*72
$GPRMC,034935.180,A,3526.8578,S,14905.0590,E,0.00,0.00,131104,,*1C
$GPGGA,034936.180,3526.8582,S,14905.0584,E,1,03,11.1,0.0,M,12.8,M,0.0,0000*51
$GPGSA,A,2,14,22,15,,,,,,,,,,22.9,11.1,20.0*08
$GPGSV,3,1,10,14,77,152,41,15,50,045,41,01,47,311,00,22,45,120,40*7E
$GPGSV,3,2,10,19,36,278,00,03,25,314,00,25,20,005,00,11,17,226,31*79
$GPGSV,3,3,10,18,16,100,00,09,08,141,00*72
$GPRMC,034936.180,A,3526.8582,S,14905.0584,E,0.00,0.00,131104,,*1F
$GPGGA,034937.180,3526.8581,S,14905.0563,E,1,03,11.1,0.0,M,12.8,M,0.0,0000*5A
$GPGSA,A,2,14,22,15,,,,,,,,,,22.9,11.1,20.0*08
$GPGSV,3,1,10,14,77,152,40,15,50,045,41,01,47,311,00,22,45,120,40*7F
$GPGSV,3,2,10,19,36,278,00,03,25,314,00,25,20,005,00,11,17,226,30*78
$GPGSV,3,3,10,18,16,100,00,09,08,141,00*72
$GPRMC,034937.180,A,3526.8581,S,14905.0563,E,0.00,0.00,131104,,*14
$GPGGA,034938.179,3526.8581,S,14905.0529,E,1,03,11.1,0.0,M,12.8,M,0.0,0000*5D
$GPGSA,A,2,14,22,15,,,,,,,,,,22.9,11.1,20.0*08
$GPGSV,3,1,10,14,77,152,41,15,50,045,41,01,47,311,00,22,45,120,40*7E
$GPGSV,3,2,10,19,36,278,00,03,25,314,00,25,20,005,00,11,17,226,31*79
$GPGSV,3,3,10,18,16,100,00,09,08,141,00*72
$GPRMC,034938.179,A,3526.8581,S,14905.0529,E,0.00,0.00,131104,,*13
$GPGGA,034939.179,3526.8583,S,14905.0540,E,1,03,11.1,0.0,M,12.8,M,0.0,0000*51
$GPGSA,A,2,14,22,15,,,,,,,,,,22.9,11.1,20.0*08
$GPGSV,3,1,10,14,77,152,41,15,50,045,41,01,47,311,00,22,45,120,40*7E
$GPGSV,3,2,10,19,36,278,00,03,25,314,00,25,20,005,00,11,17,226,29*70
$GPGSV,3,3,10,18,16,100,00,09,08,141,00*72
$GPRMC,034939.179,A,3526.8583,S,14905.0540,E,0.00,0.00,131104,,*1F
$GPGGA,034940.179,3526.8567,S,14905.0547,E,1,03,11.1,0.0,M,12.8,M,0.0,0000*52
$GPGSA,A,2,14,22,15,,,,,,,,,,22.9,11.1,20.0*08
$GPGSV,3,1,10,14,77,152,40,15,50,045,40,01,47,311,00,22,45,120,40*7E
$GPGSV,3,2,10,19,36,278,00,03,25,314,00,25,20,005,00,11,17,226,32*7A
$GPGSV,3,3,10,18,16,100,00,09,08,141,00*72
$GPRMC,034940.179,A,3526.8567,S,14905.0547,E,0.00,0.00,131104,,*1C
$GPGGA,034941.179,3526.8587,S,14905.0552,E,1,03,11.1,0.0,M,12.8,M,0.0,0000*59
$GPGSA,A,2,14,22,15,,,,,,,,,,22.9,11.1,20.0*08
$GPGSV,3,1,10,14,77,152,41,15,50,045,40,01,47,311,00,22,45,120,40*7F
$GPGSV,3,2,10,19,36,278,00,03,25,314,00,25,20,005,00,11,17,226,33*7B
$GPGSV,3,3,10,18,16,100,00,09,08,141,00*72
$GPRMC,034941.179,A,3526.8587,S,14905.0552,E,0.00,0.00,131104,,*17
$GPGGA,034942.179,3526.8589,S,14905.0547,E,1,03,11.1,0.0,M,12.8,M,0.0,0000*50
$GPGSA,A,2,14,22,15,,,,,,,,,,22.9,11.1,20.0*08
$GPGSV,3,1,10,14,77,152,40,15,50,045,41,01,47,311,00,22,45,120,40*7F
$GPGSV,3,2,10,19,36,278,00,03,25,314,35,25,20,005,00,11,17,226,31*7F
$GPGSV,3,3,10,18,16,100,00,09,08,141,00*72
$GPRMC,034942.179,A,3526.8589,S,14905.0547,E,0.00,0.00,131104,,*1E
$GPGGA,034943.179,3526.8581,S,14905.0563,E,1,03,11.1,0.0,M,12.8,M,0.0,0000*5F
$GPGSA,A,2,14,22,15,,,,,,,,,,22.9,11.1,20.0*08
$GPGSV,3,1,10,14,77,152,41,15,50,045,41,01,47,311,40,22,45,120,40*7A
$GPGSV,3,2,10,19,36,278,00,03,25,314,36,25,20,005,00,11,17,226,30*7D
$GPGSV,3,3,10,18,16,100,00,09,08,141,00*72
$GPRMC,034943.179,A,3526.8581,S,14905.0563,E,0.00,0.00,131104,,*11
$GPGGA,034944.179,3526.8597,S,14905.0559,E,1,03,11.1,0.0,M,12.8,M,0.0,0000*56
$GPGSA,A,2,14,22,15,,,,,,,,,,22.9,11.1,20.0*08
$GPGSV,3,1,10,14,77,152,41,15,50,045,41,01,47,311,38,22,45,120,40*75
$GPGSV,3,2,10,19,36,278,00,03,25,314,34,25,20,005,00,11,17,226,30*7F
$GPGSV,3,3,10,18,16,100,00,09,08,141,00*72
$GPRMC,034944.179,A,3526.8597,S,14905.0559,E,0.00,0.00,131104,,*18
$GPGGA,034945.179,3526.8599,S,14905.0572,E,1,03,11.1,0.0,M,12.8,M,0.0,0000*50
$GPGSA,A,2,14,22,15,,,,,,,,,,22.9,11.1,20.0*08
$GPGSV,3,1,10,14,77,152,40,15,50,045,41,01,47,311,39,22,45,120,40*75
$GPGSV,3,2,10,19,36,278,00,03,25,314,34,25,20,005,00,11,17,226,33*7C
$GPGSV,3,3,10,18,16,100,00,09,08,141,00*72
$GPRMC,034945.179,A,3526.8599,S,14905.0572,E,0.00,0.00,131104,,*1E
$GPGGA,034946.179,3526.8599,S,14905.0580,E,1,03,11.1,0.0,M,12.8,M,0.0,0000*5E
$GPGSA,A,2,14,22,15,,,,,,,,,,22.9,11.1,20.0*08
$GPGSV,3,1,10,14,77,152,40,15,50,045,40,01,47,311,39,22,45,120,40*74
$GPGSV,3,2,10,19,36,278,00,03,25,314,34,25,20,005,00,11,17,226,33*7C
$GPGSV,3,3,10,18,16,100,00,09,08,141,00*72
$GPRMC,034946.179,A,3526.8599,S,14905.0580,E,0.00,0.00,131104,,*10
$GPGGA,034947.179,3526.8603,S,14905.0565,E,1,03,11.1,0.0,M,12.8,M,0.0,0000*54
$GPGSA,A,2,14,22,15,,,,,,,,,,22.9,11.1,20.0*08
$GPGSV,3,1,10,14,77,152,40,15,50,045,40,01,47,311,39,22,45,120,40*74
$GPGSV,3,2,10,19,36,278,00,03,25,314,34,25,20,005,00,11,17,226,32*7D
$GPGSV,3,3,10,18,16,100,00,09,08,141,00*72
$GPRMC,034947.179,A,3526.8603,S,14905.0565,E,0.00,0.00,131104,,*1A
$GPGGA,034948.179,3526.8603,S,14905.0602,E,1,03,11.1,0.0,M,12.8,M,0.0,0000*59
$GPGSA,A,2,14,22,15,,,,,,,,,,22.9,11.1,20.0*08
$GPGSV,3,1,10,14,77,152,40,15,50,045,40,01,47,311,39,22,45,120,40*74
$GPGSV,3,2,10,19,36,278,00,03,25,314,35,25,20,005,00,11,17,226,32*7C
$GPGSV,3,3,10,18,16,100,00,09,08,141,00*72
$GPRMC,034948.179,A,3526.8603,S,14905.0602,E,0.00,0.00,131104,,*17
$GPGGA,034949.179,3526.8601,S,14905.0603,E,1,03,11.1,0.0,M,12.8,M,0.0,0000*5B
$GPGSA,A,2,14,22,15,,,,,,,,,,22.9,11.1,20.0*08
$GPGSV,3,1,10,14,77,152,41,15,50,045,41,01,47,311,40,22,45,120,40*7A
$GPGSV,3,2,10,19,36,278,00,03,25,314,35,25,20,005,00,11,17,226,31*7F
$GPGSV,3,3,10,18,16,100,00,09,08,141,00*72
$GPRMC,034949.179,A,3526.8601,S,14905.0603,E,0.00,0.00,131104,,*15
$GPGGA,034950.179,3526.8612,S,14905.0581,E,1,03,11.1,0.0,M,12.8,M,0.0,0000*58
$GPGSA,A,2,14,22,15,,,,,,,,,,22.9,11.1,20.0*08
$GPGSV,3,1,10,14,77,152,40,15,50,045,41,01,47,311,39,22,45,120,41*74
$GPGSV,3,2,10,19,36,278,44,03,25,314,35,25,20,005,39,11,17,226,29*7C
$GPGSV,3,3,10,18,16,100,00,09,08,141,00*72
$GPRMC,034950.179,A,3526.8612,S,14905.0581,E,0.00,0.00,131104,,*16
$GPGGA,034951.179,3526.8623,S,14905.0547,E,1,03,11.1,0.0,M,12.8,M,0.0,0000*51
$GPGSA,A,2,14,22,15,,,,,,,,,,22.9,11.1,20.0*08
$GPGSV,3,1,10,14,77,152,40,15,50,045,42,01,47,311,39,22,45,120,40*76
$GPGSV,3,2,10,19,36,278,43,03,25,314,35,25,20,005,40,11,17,226,30*7D
$GPGSV,3,3,10,18,16,100,00,09,08,141,00*72
$GPRMC,034951.179,A,3526.8623,S,14905.0547,E,0.00,0.00,131104,,*1F
$GPGGA,034952.179,3526.8618,S,14905.0559,E,1,03,11.1,0.0,M,12.8,M,0.0,0000*55
$GPGSA,A,2,14,22,15,,,,,,,,,,22.9,11.1,20.0*08
$GPGSV,3,1,10,14,77,152,40,15,50,045,42,01,47,311,39,22,45,120,40*76
$GPGSV,3,2,10,19,36,278,43,03,25,314,36,25,20,005,40,11,17,226,33*7D
$GPGSV,3,3,10,18,16,100,00,09,08,141,00*72
$GPRMC,034952.179,A,3526.8618,S,14905.0559,E,0.00,0.00,131104,,*1B
$GPGGA,034953.179,3526.8601,S,14905.0559,E,1,03,11.1,0.0,M,12.8,M,0.0,0000*5C
$GPGSA,A,2,14,22,15,,,,,,,,,,22.9,11.1,20.0*08
$GPGSV,3,1,10,14,77,152,40,15,50,045,41,01,47,311,39,22,45,120,40*75
$GPGSV,3,2,10,19,36,278,43,03,25,314,35,25,20,005,40,11,17,226,33*7E
$GPGSV,3,3,10,18,16,100,00,09,08,141,00*72
$GPRMC,034953.179,A,3526.8601,S,14905.0559,E,0.00,0.00,131104,,*12
$GPGGA,034954.179,3526.8613,S,14905.0543,E,1,03,11.1,0.0,M,12.8,M,0.0,0000*53
$GPGSA,A,2,14,22,15,,,,,,,,,,22.9,11.1,20.0*08
$GPGSV,3,1,10,14,77,152,40,15,50,045,41,01,47,311,39,22,45,120,40*75
$GPGSV,3,2,10,19,36,278,43,03,25,314,35,25,20,005,40,11,17,226,31*7C
$GPGSV,3,3,10,18,16,100,00,09,08,141,00*72
$GPRMC,034954.179,A,3526.8613,S,14905.0543,E,0.00,0.00,131104,,*1D
$GPGGA,034955.178,3526.8606,S,14905.0527,E,1,03,11.1,0.0,M,12.8,M,0.0,0000*55
$GPGSA,A,2,14,22,15,,,,,,,,,,22.9,11.1,20.0*08
$GPGSV,3,1,10,14,77,152,40,15,50,045,41,01,47,311,39,22,45,120,40*75
$GPGSV,3,2,10,19,36,278,43,03,25,314,35,25,20,005,40,11,17,226,31*7C
$GPGSV,3,3,10,18,16,100,00,09,08,141,00*72
$GPRMC,034955.178,A,3526.8606,S,14905.0527,E,0.00,0.00,131104,,*1B
$GPGGA,034956.178,3526.8614,S,14905.0536,E,1,03,11.1,0.0,M,12.8,M,0.0,0000*55
$GPGSA,A,2,14,22,15,,,,,,,,,,22.9,11.1,20.0*08
$GPGSV,3,1,10,14,77,152,40,15,50,045,42,01,47,311,39,22,45,120,40*76
$GPGSV,3,2,10,19,36,278,43,03,25,314,35,25,20,005,40,11,17,226,29*75
$GPGSV,3,3,10,18,16,100,00,09,08,141,00*72
$GPRMC,034956.178,A,3526.8614,S,14905.0536,E,0.00,0.00,131104,,*1B
$GPGGA,034957.178,3526.8607,S,14905.0569,E,1,03,11.1,0.0,M,12.8,M,0.0,0000*5C
$GPGSA,A,2,14,22,15,,,,,,,,,,22.9,11.1,20.0*08
$GPGSV,3,1,10,14,77,152,40,15,50,045,41,01,47,311,38,22,45,120,40*74
$GPGSV,3,2,10,19,36,278,43,03,25,314,35,25,20,005,40,11,17,226,31*7C
$GPGSV,3,3,10,18,16,100,00,09,08,141,00*72
$GPRMC,034957.178,A,3526.8607,S,14905.0569,E,0.00,0.00,131104,,*12
$GPGGA,034958.178,3526.8617,S,14905.0524,E,1,03,11.1,0.0,M,12.8,M,0.0,0000*5B
$GPGSA,A,2,14,22,15,,,,,,,,,,22.9,11.1,20.0*08
$GPGSV,3,1,10,14,77,152,40,15,50,045,42,01,47,311,38,22,45,120,40*77
$GPGSV,3,2,10,19,36,278,43,03,25,314,36,25,20,005,39,11,17,226,33*73
$GPGSV,3,3,10,18,16,100,00,09,08,141,00*72
$GPRMC,034958.178,A,3526.8617,S,14905.0524,E,0.00,0.00,131104,,*15
$GPGGA,034959.178,3526.8615,S,14905.0522,E,1,03,11.1,0.0,M,12.8,M,0.0,0000*5E
$GPGSA,A,2,14,22,15,,,,,,,,,,22.9,11.1,20.0*08
$GPGSV,3,1,10,14,77,152,40,15,50,045,41,01,47,311,39,22,45,120,40*75
$GPGSV,3,2,10,19,36,278,43,03,25,314,35,25,20,005,39,11,17,226,33*70
$GPGSV,3,3,10,18,16,100,00,09,08,141,00*72
$GPRMC,034959.178,A,3526.8615,S,14905.0522,E,0.00,0.00,131104,,*10
$GPGGA,035000.178,3526.8624,S,14905.0537,E,1,03,11.1,0.0,M,12.8,M,0.0,0000*5C
$GPGSA,A,2,14,22,15,,,,,,,,,,22.9,11.1,20.0*08
$GPGSV,3,1,10,14,77,152,40,15,50,045,42,01,47,311,39,22,45,120,40*76
$GPGSV,3,2,10,19,36,278,43,03,25,314,35,25,20,005,39,11,17,226,32*71
$GPGSV,3,3,10,18,16,100,00,09,08,141,00*72
$GPRMC,035000.178,A,3526.8624,S,14905.0537,E,0.00,0.00,131104,,*12
$GPGGA,035001.178,3526.8616,S,14905.0533,E,1,03,11.1,0.0,M,12.8,M,0.0,0000*58
$GPGSA,A,2,14,22,15,,,,,,,,,,22.9,11.1,20.0*08
$GPGSV,3,1,10,14,77,152,40,15,50,045,42,01,47,311,38,22,45,120,40*77
$GPGSV,3,2,10,19,36,278,43,03,25,314,35,25,20,005,40,11,17,226,32*7F
$GPGSV,3,3,10,18,16,100,00,09,08,141,00*72
$GPRMC,035001.178,A,3526.8616,S,14905.0533,E,0.00,0.00,131104,,*16
$GPGGA,035002.178,3526.8605,S,14905.0554,E,1,03,11.1,0.0,M,12.8,M,0.0,0000*58
$GPGSA,A,2,14,22,15,,,,,,,,,,22.9,11.1,20.0*08
$GPGSV,3,1,10,14,77,152,40,15,50,045,40,01,47,311,39,22,45,120,40*74
$GPGSV,3,2,10,19,36,278,43,03,25,314,35,25,20,005,40,11,17,226,32*7F
$GPGSV,3,3,10,18,16,100,00,09,08,141,00*72
$GPRMC,035002.178,A,3526.8605,S,14905.0554,E,0.00,0.00,131104,,*16
$GPGGA,035003.178,3526.8609,S,14905.0541,E,1,03,11.1,0.0,M,12.8,M,0.0,0000*51
$GPGSA,A,2,14,22,15,,,,,,,,,,22.9,11.1,20.0*08
$GPGSV,3,1,10,14,77,152,40,15,50,045,41,01,47,311,39,22,45,120,40*75
$GPGSV,3,2,10,19,36,278,43,03,25,314,36,25,20,005,40,11,17,226,32*7C
$GPGSV,3,3,10,18,16,100,00,09,08,141,00*72
$GPRMC,035003.178,A,3526.8609,S,14905.0541,E,0.00,0.00,131104,,*1F
$GPGGA,035004.178,3526.8602,S,14905.0546,E,1,03,11.1,0.0,M,12.8,M,0.0,0000*5A
$GPGSA,A,2,14,22,15,,,,,,,,,,22.9,11.1,20.0*08
$GPGSV,3,1,10,14,77,152,41,15,50,045,40,01,47,311,38,22,45,120,41*75
$GPGSV,3,2,10,19,36,278,43,03,25,314,36,25,20,005,41,11,17,226,30*7F
$GPGSV,3,3,10,18,16,100,00,09,08,141,00*72
$GPRMC,035004.178,A,3526.8602,S,14905.0546,E,0.00,0.00,131104,,*14
$GPGGA,035005.178,3526.8610,S,14905.0559,E,1,03,11.1,0.0,M,12.8,M,0.0,0000*56
$GPGSA,A,2,14,22,15,,,,,,,,,,22.9,11.1,20.0*08
$GPGSV,3,1,10,14,77,152,40,15,50,045,40,01,47,311,38,22,45,120,40*75
$GPGSV,3,2,10,19,36,278,42,03,25,314,35,25,20,005,40,11,17,226,31*7D
$GPGSV,3,3,10,18,16,100,00,09,08,141,00*72
$GPRMC,035005.178,A,3526.8610,S,14905.0559,E,0.00,0.00,131104,,*18
$GPGGA,035006.178,3526.8535,S,14905.2693,E,1,06,1.4,614.2,M,12.8,M,0.0,0000*66
$GPGSA,A,3,14,22,03,01,11,15,,,,,,,2.9,1.4,2.6*3B
$GPGSV,3,1,10,14,77,152,40,15,50,045,41,01,47,311,39,22,45,119,41*7E
$GPGSV,3,2,10,19,36,279,42,03,25,314,35,25,20,005,40,11,17,226,31*7C
$GPGSV,3,3,10,18,15,100,00,09,08,141,00*71
$GPRMC,035006.178,A,3526.8535,S,14905.2693,E,0.00,0.00,131104,,*18
$GPGGA,035007.178,3526.8545,S,14905.2694,E,1,06,1.4,608.8,M,12.8,M,0.0,0000*60
$GPGSA,A,3,14,22,03,01,11,15,,,,,,,2.9,1.4,2.6*3B
$GPGSV,3,1,10,14,77,152,40,15,50,045,41,01,47,311,38,22,45,119,41*7F
$GPGSV,3,2,10,19,36,279,43,03,25,314,35,25,20,005,39,11,17,226,31*73
$GPGSV,3,3,10,18,15,100,00,09,08,141,00*71
$GPRMC,035007.178,A,3526.8545,S,14905.2694,E,0.00,0.00,131104,,*19
$GPGGA,035008.178,3526.8542,S,14905.2694,E,1,06,1.4,610.1,M,12.8,M,0.0,0000*68
$GPGSA,A,3,14,22,03,01,11,15,,,,,,,2.9,1.4,2.6*3B
$GPGSV,3,1,10,14,77,152,40,15,50,045,41,01,47,311,39,22,45,119,41*7E
$GPGSV,3,2,10,19,36,279,42,03,25,314,36,25,20,005,39,11,17,226,33*73
$GPGSV,3,3,10,18,15,100,00,09,08,141,00*71
$GPRMC,035008.178,A,3526.8542,S,14905.2694,E,0.00,0.00,131104,,*11
$GPGGA,035009.178,3526.8535,S,14905.2696,E,1,06,1.4,610.1,M,12.8,M,0.0,0000*6B
$GPGSA,A,3,14,22,03,01,11,15,,,,,,,2.9,1.4,2.6*3B
$GPGSV,3,1,10,14,77,152,40,15,50,045,41,01,47,311,39,22,45,119,41*7E
$GPGSV,3,2,10,19,36,279,43,03,25,314,36,25,20,005,40,11,17,226,32*7D
$GPGSV,3,3,10,18,15,100,00,09,08,141,00*71
$GPRMC,035009.178,A,3526.8535,S,14905.2696,E,0.00,0.00,131104,,*12
$GPGGA,035010.178,3526.8532,S,14905.2695,E,1,06,1.4,610.4,M,12.8,M,0.0,0000*62
$GPGSA,A,3,14,22,03,01,11,15,,,,,,,2.9,1.4,2.6*3B
$GPGSV,3,1,10,14,77,152,40,15,50,045,41,01,47,311,38,22,45,119,40*7E
$GPGSV,3,2,10,19,36,279,44,03,25,314,35,25,20,005,40,11,17,226,32*79
$GPGSV,3,3,10,18,15,100,00,09,08,141,00*71
$GPRMC,035010.178,A,3526.8532,S,14905.2695,E,0.00,0.00,131104,,*1E
$GPGGA,035011.178,3526.8531,S,14905.2694,E,1,06,1.4,611.1,M,12.8,M,0.0,0000*65
$GPGSA,A,3,14,22,03,01,11,15,,,,,,,2.9,1.4,2.6*3B
$GPGSV,3,1,10,14,77,152,40,15,50,045,41,01,47,311,37,22,45,119,40*71
$GPGSV,3,2,10,19,36,279,44,03,25,314,35,25,20,005,41,11,17,226,30*7A
$GPGSV,3,3,10,18,15,100,00,09,08,141,00*71
$GPRMC,035011.178,A,3526.8531,S,14905.2694,E,0.00,0.00,131104,,*1D
$GPGGA,035012.177,3526.8531,S,14905.2693,E,1,06,1.4,611.5,M,12.8,M,0.0,0000*6A
$GPGSA,A,3,14,22,03,01,11,15,,,,,,,2.9,1.4,2.6*3B
$GPGSV,3,1,10,14,77,152,40,15,50,045,41,01,47,311,38,22,45,119,41*7F
$GPGSV,3,2,10,19,36,279,43,03,25,314,34,25,20,005,40,11,17,226,31*7C
$GPGSV,3,3,10,18,15,100,00,09,08,141,00*71
$GPRMC,035012.177,A,3526.8531,S,14905.2693,E,0.00,0.00,131104,,*16
$GPGGA,035013.177,3526.8532,S,14905.2693,E,1,06,1.4,611.6,M,12.8,M,0.0,0000*6B
$GPGSA,A,3,14,22,03,01,11,15,,,,,,,2.9,1.4,2.6*3B
$GPGSV,3,1,10,14,77,152,40,15,50,045,42,01,47,311,38,22,45,119,40*7D
$GPGSV,3,2,10,19,36,279,43,03,25,314,35,25,20,005,40,11,17,226,30*7C
$GPGSV,3,3,10,18,15,100,00,09,08,141,00*71
$GPRMC,035013.177,A,3526.8532,S,14905.2693,E,0.00,0.00,131104,,*14
$GPGGA,035014.177,3526.8532,S,14905.2692,E,1,06,1.4,611.5,M,12.8,M,0.0,0000*6E
$GPGSA,A,3,14,22,03,01,11,15,,,,,,,2.9,1.4,2.6*3B
$GPGSV,3,1,10,14,77,152,40,15,50,045,41,01,47,311,37,22,45,119,41*70
$GPGSV,3,2,10,19,36,279,43,03,25,314,34,25,20,005,40,11,17,226,31*7C
$GPGSV,3,3,10,18,15,100,00,09,08,141,00*71
$GPRMC,035014.177,A,3526.8532,S,14905.2692,E,0.00,0.00,131104,,*12
$GPGGA,035015.177,3526.8533,S,14905.2692,E,1,06,1.4,611.7,M,12.8,M,0.0,0000*6C
$GPGSA,A,3,14,22,03,01,11,15,,,,,,,2.9,1.4,2.6*3B
$GPGSV,3,1,10,14,77,152,40,15,50,045,41,01,47,311,38,22,45,119,40*7E
$GPGSV,3,2,10,19,36,279,43,03,25,314,34,25,20,005,39,11,17,226,31*72
$GPGSV,3,3,10,18,15,100,00,09,08,141,00*71
$GPRMC,035015.177,A,3526.8533,S,14905.2692,E,0.00,0.00,131104,,*12
$GPGGA,035016.177,3526.8533,S,14905.2692,E,1,06,1.4,611.8,M,12.8,M,0.0,0000*60
$GPGSA,A,3,14,22,03,01,11,15,,,,,,,2.9,1.4,2.6*3B
$GPGSV,3,1,10,14,77,152,40,15,50,045,41,01,47,311,38,22,45,119,40*7E
$GPGSV,3,2,10,19,36,279,43,03,25,314,35,25,20,005,39,11,17,226,32*70
$GPGSV,3,3,10,18,15,100,00,09,08,141,00*71
$GPRMC,035016.177,A,3526.8533,S,14905.2692,E,0.00,0.00,131104,,*11
$GPGGA,035017.177,3526.8533,S,14905.2693,E,1,06,1.4,611.7,M,12.8,M,0.0,0000*6F
$GPGSA,A,3,14,22,03,01,11,15,,,,,,,2.9,1.4,2.6*3B
$GPGSV,3,1,10,14,77,152,40,15,50,045,41,01,47,311,38,22,45,119,41*7F
$GPGSV,3,2,10,19,36,279,42,03,25,314,35,25,20,005,39,11,17,226,34*77
$GPGSV,3,3,10,18,15,100,00,09,08,141,00*71
$GPRMC,035017.177,A,3526.8533,S,14905.2693,E,0.00,0.00,131104,,*11
$GPGGA,035018.177,3526.8533,S,14905.2693,E,1,06,1.4,611.4,M,12.8,M,0.0,0000*63
$GPGSA,A,3,14,22,03,01,11,15,,,,,,,2.9,1.4,2.6*3B
$GPGSV,3,1,10,14,76,152,40,15,50,045,41,01,47,310,37,22,45,119,41*70
$GPGSV,3,2,10,19,36,279,43,03,25,314,36,25,20,005,39,11,17,226,32*73
$GPGSV,3,3,10,18,15,100,00,09,08,141,00*71
$GPRMC,035018.177,A,3526.8533,S,14905.2693,E,0.00,0.00,131104,,*1E
$GPGGA,035019.177,3526.8533,S,14905.2694,E,1,06,1.4,611.1,M,12.8,M,0.0,0000*60
$GPGSA,A,3,14,22,03,01,11,15,,,,,,,2.9,1.4,2.6*3B
$GPGSV,3,1,10,14,76,152,40,15,50,045,41,01,47,310,37,22,45,119,41*70
$GPGSV,3,2,10,19,36,279,43,03,25,314,35,25,20,005,40,11,17,226,33*7F
$GPGSV,3,3,10,18,15,100,00,09,08,141,00*71
$GPRMC,035019.177,A,3526.8533,S,14905.2694,E,0.00,0.00,131104,,*18
$GPGGA,035020.177,3526.8533,S,14905.2694,E,1,06,1.4,610.7,M,12.8,M,0.0,0000*6D
$GPGSA,A,3,14,22,03,01,11,15,,,,,,,2.9,1.4,2.6*3B
$GPGSV,3,1,10,14,76,152,40,15,50,045,41,01,47,310,38,22,45,119,40*7E
$GPGSV,3,2,10,19,36,279,42,03,25,314,35,25,20,005,39,11,17,226,30*73
$GPGSV,3,3,10,18,15,100,00,09,08,141,00*71
$GPRMC,035020.177,A,3526.8533,S,14905.2694,E,0.00,0.00,131104,,*12
$GPGGA,035021.177,3526.8533,S,14905.2693,E,1,06,1.4,610.2,M,12.8,M,0.0,0000*6E
$GPGSA,A,3,14,22,03,01,11,15,,,,,,,2.9,1.4,2.6*3B
$GPGSV,3,1,10,14,76,152,40,15,50,045,40,01,47,310,37,22,45,119,40*70
$GPGSV,3,2,10,19,36,279,43,03,25,314,36,25,20,005,40,11,17,226,34*7B
$GPGSV,3,3,10,18,15,100,00,09,08,141,00*71
$GPRMC,035021.177,A,3526.8533,S,14905.2693,E,0.00,0.00,131104,,*14
$GPGGA,035022.177,3526.8533,S,14905.2693,E,1,06,1.4,609.9,M,12.8,M,0.0,0000*6E
$GPGSA,A,3,14,22,03,01,11,15,,,,,,,2.9,1.4,2.6*3B
$GPGSV,3,1,10,14,76,152,39,15,50,045,41,01,47,310,37,22,45,119,41*7E
$GPGSV,3,2,10,19,36,279,43,03,25,314,36,25,20,005,41,11,17,226,32*7C
$GPGSV,3,3,10,18,15,100,00,09,08,141,00*71
$GPRMC,035022.177,A,3526.8533,S,14905.2693,E,0.00,0.00,131104,,*17
$GPGGA,035023.177,3526.8533,S,14905.2692,E,1,06,1.4,609.8,M,12.8,M,0.0,0000*6F
$GPGSA,A,3,14,22,03,01,11,15,,,,,,,2.9,1.4,2.6*3B
$GPGSV,3,1,10,14,76,152,39,15,50,045,41,01,47,310,38,22,45,119,41*71
$GPGSV,3,2,10,19,36,279,42,03,25,314,35,25,20,005,40,11,17,226,29*75
$GPGSV,3,3,10,18,15,100,00,09,08,141,00*71
$GPRMC,035023.177,A,3526.8533,S,14905.2692,E,0.00,0.00,131104,,*17
$GPGGA,035024.177,3526.8533,S,14905.2691,E,1,08,1.1,609.8,M,12.8,M,0.0,0000*60
$GPGSA,A,3,14,22,03,01,11,19,25,15,,,,,2.1,1.1,1.9*35
$GPGSV,3,1,10,14,76,152,40,15,50,045,42,01,47,310,37,22,45,119,41*73
$GPGSV,3,2,10,19,36,279,43,03,25,314,36,25,20,005,39,11,17,226,31*70
$GPGSV,3,3,10,18,15,100,00,09,08,141,00*71
$GPRMC,035024.177,A,3526.8533,S,14905.2691,E,0.00,0.00,131104,,*13
$GPGGA,035025.177,3526.8534,S,14905.2689,E,1,08,1.1,609.9,M,12.8,M,0.0,0000*6E
$GPGSA,A,3,14,22,03,01,11,19,25,15,,,,,2.1,1.1,1.9*35
$GPGSV,3,1,10,14,76,152,39,15,50,045,42,01,47,310,38,22,45,119,40*73
$GPGSV,3,2,10,19,36,279,42,03,25,314,35,25,20,005,40,11,17,226,28*74
$GPGSV,3,3,10,18,15,100,00,09,08,141,00*71
$GPRMC,035025.177,A,3526.8534,S,14905.2689,E,0.00,0.00,131104,,*1C
$GPGGA,035026.177,3526.8534,S,14905.2687,E,1,08,1.1,610.1,M,12.8,M,0.0,0000*63
$GPGSA,A,3,14,22,03,01,11,19,25,15,,,,,2.1,1.1,1.9*35
$GPGSV,3,1,10,14,76,152,39,15,50,045,42,01,47,310,38,22,45,119,40*73
$GPGSV,3,2,10,19,36,279,43,03,25,314,35,25,20,005,40,11,17,226,33*7F
$GPGSV,3,3,10,18,15,100,00,09,08,141,00*71
$GPRMC,035026.177,A,3526.8534,S,14905.2687,E,0.00,0.00,131104,,*11
$GPGGA,035027.177,3526.8535,S,14905.2685,E,1,08,1.1,610.2,M,12.8,M,0.0,0000*62
$GPGSA,A,3,14,22,03,01,11,19,25,15,,,,,2.1,1.1,1.9*35
$GPGSV,3,1,10,14,76,152,40,15,50,045,42,01,47,310,38,22,45,119,41*7C
$GPGSV,3,2,10,19,36,279,43,03,25,314,34,25,20,005,40,11,17,226,29*75
$GPGSV,3,3,10,18,15,100,00,09,08,141,00*71
$GPRMC,035027.177,A,3526.8535,S,14905.2685,E,0.00,0.00,131104,,*13
$GPGGA,035028.177,3526.8537,S,14905.2683,E,1,08,1.1,610.3,M,12.8,M,0.0,0000*68
$GPGSA,A,3,14,22,03,01,11,19,25,15,,,,,2.1,1.1,1.9*35
$GPGSV,3,1,10,14,76,152,39,15,50,045,41,01,47,310,38,22,45,119,41*71
$GPGSV,3,2,10,19,36,279,43,03,25,314,35,25,20,005,41,11,17,226,33*7E
$GPGSV,3,3,10,18,15,100,00,09,08,141,00*71
$GPRMC,035028.177,A,3526.8537,S,14905.2683,E,0.00,0.00,131104,,*18
$GPGGA,035029.176,3526.8539,S,14905.2683,E,1,08,1.1,610.7,M,12.8,M,0.0,0000*62
$GPGSA,A,3,14,22,03,01,11,19,25,15,,,,,2.1,1.1,1.9*35
$GPGSV,3,1,10,14,76,152,40,15,50,045,41,01,47,310,38,22,45,119,40*7E
$GPGSV,3,2,10,19,36,279,43,03,25,314,35,25,20,005,40,11,17,226,30*7C
$GPGSV,3,3,10,18,15,100,00,09,08,141,00*71
$GPRMC,035029.176,A,3526.8539,S,14905.2683,E,0.00,0.00,131104,,*16
$GPGGA,035030.176,3526.8540,S,14905.2682,E,1,08,1.1,611.3,M,12.8,M,0.0,0000*60
$GPGSA,A,3,14,22,03,01,11,19,25,15,,,,,2.1,1.1,1.9*35
$GPGSV,3,1,10,14,76,152,39,15,50,045,42,01,47,310,38,22,45,119,40*73
$GPGSV,3,2,10,19,36,279,43,03,25,314,33,25,20,005,41,11,17,226,29*73
$GPGSV,3,3,10,18,15,100,00,09,08,141,00*71
$GPRMC,035030.176,A,3526.8540,S,14905.2682,E,0.00,0.00,131104,,*11
$GPGGA,035031.176,3526.8541,S,14905.2681,E,1,08,1.1,611.9,M,12.8,M,0.0,0000*69
$GPGSA,A,3,14,22,03,01,11,19,25,15,,,,,2.1,1.1,1.9*35
$GPGSV,3,1,10,14,76,152,39,15,50,045,41,01,47,310,38,22,45,119,40*70
$GPGSV,3,2,10,19,36,279,42,03,25,314,36,25,20,005,40,11,17,226,32*7C
$GPGSV,3,3,10,18,15,100,00,09,08,141,00*71
$GPRMC,035031.176,A,3526.8541,S,14905.2681,E,0.00,0.00,131104,,*12
$GPGGA,035032.176,3526.8543,S,14905.2680,E,1,08,1.1,612.3,M,12.8,M,0.0,0000*60
$GPGSA,A,3,14,22,03,01,11,19,25,15,,,,,2.1,1.1,1.9*35
$GPGSV,3,1,10,14,76,152,39,15,50,045,42,01,47,310,37,22,45,119,40*7C
$GPGSV,3,2,10,19,36,279,43,03,25,314,35,25,20,005,40,11,17,226,32*7E
$GPGSV,3,3,10,18,15,100,00,09,08,141,00*71
$GPRMC,035032.176,A,3526.8543,S,14905.2680,E,0.00,0.00,131104,,*12
$GPGGA,035033.176,3526.8544,S,14905.2679,E,1,08,1.1,612.9,M,12.8,M,0.0,0000*6A
$GPGSA,A,3,14,22,03,01,11,19,25,15,,,,,2.1,1.1,1.9*35
$GPGSV,3,1,10,14,76,152,39,15,50,045,41,01,47,310,39,22,45,119,40*71
$GPGSV,3,2,10,19,36,279,42,03,25,314,35,25,20,005,40,11,17,226,31*7C
$GPGSV,3,3,10,18,15,100,00,09,08,141,00*71
$GPRMC,035033.176,A,3526.8544,S,14905.2679,E,0.00,0.00,131104,,*12
$GPGGA,035034.176,3526.8545,S,14905.2679,E,1,08,1.1,613.4,M,12.8,M,0.0,0000*60
$GPGSA,A,3,14,22,03,01,11,19,25,15,,,,,2.1,1.1,1.9*35
$GPGSV,3,1,10,14,76,152,39,15,50,045,41,01,47,310,38,22,45,119,40*70
$GPGSV,3,2,10,19,36,279,43,03,25,314,35,25,20,005,39,11,17,226,32*70
$GPGSV,3,3,10,18,15,100,00,09,08,141,00*71
$GPRMC,035034.176,A,3526.8545,S,14905.2679,E,0.00,0.00,131104,,*14
$GPGGA,035035.176,3526.8546,S,14905.2678,E,1,08,1.1,613.9,M,12.8,M,0.0,0000*6E
$GPGSA,A,3,14,22,03,01,11,19,25,15,,,,,2.1,1.1,1.9*35
$GPGSV,3,1,10,14,76,152,39,15,50,045,41,01,47,310,38,22,45,119,40*70
$GPGSV,3,2,10,19,36,279,42,03,25,314,34,25,20,005,40,11,17,226,30*7C
$GPGSV,3,3,10,18,15,100,00,09,08,141,00*71
$GPRMC,035035.176,A,3526.8546,S,14905.2678,E,0.00,0.00,131104,,*17
$GPGGA,035036.176,3526.8547,S,14905.2677,E,1,08,1.1,614.4,M,12.8,M,0.0,0000*69
$GPGSA,A,3,14,22,03,01,11,19,25,15,,,,,2.1,1.1,1.9*35
$GPGSV,3,1,10,14,76,152,39,15,50,045,41,01,47,310,38,22,45,119,40*70
$GPGSV,3,2,10,19,36,279,42,03,25,314,33,25,20,005,40,11,17,226,33*78
$GPGSV,3,3,10,18,15,100,00,09,08,141,00*71
$GPRMC,035036.176,A,3526.8547,S,14905.2677,E,0.00,0.00,131104,,*1A
$GPGGA,035037.176,3526.8547,S,14905.2677,E,1,08,1.1,614.9,M,12.8,M,0.0,0000*65
$GPGSA,A,3,14,22,03,01,11,19,25,15,,,,,2.1,1.1,1.9*35
$GPGSV,3,1,10,14,76,152,39,15,50,045,40,01,47,310,39,22,45,119,40*70
$GPGSV,3,2,10,19,36,279,42,03,25,314,34,25,20,005,40,11,17,226,30*7C
$GPGSV,3,3,10,18,15,100,00,09,08,141,00*71
$GPRMC,035037.176,A,3526.8547,S,14905.2677,E,0.00,0.00,131104,,*1B
$GPGGA,035038.176,3526.8547,S,14905.2677,E,1,08,1.1,615.4,M,12.8,M,0.0,0000*66
$GPGSA,A,3,14,22,03,01,11,19,25,15,,,,,2.1,1.1,1.9*35
$GPGSV,3,1,10,14,76,152,38,15,50,045,40,01,47,310,38,22,45,119,40*70
$GPGSV,3,2,10,19,36,279,43,03,25,314,34,25,20,005,40,11,17,226,31*7C
$GPGSV,3,3,10,18,15,100,00,09,08,141,00*71
$GPRMC,035038.176,A,3526.8547,S,14905.2677,E,0.00,0.00,131104,,*14
$GPGGA,035039.176,3526.8548,S,14905.2677,E,1,08,1.1,615.8,M,12.8,M,0.0,0000*64
$GPGSA,A,3,14,22,03,01,11,19,25,15,,,,,2.1,1.1,1.9*35
$GPGSV,3,1,10,14,76,152,38,15,50,045,41,01,47,310,38,22,45,119,40*71
$GPGSV,3,2,10,19,36,279,43,03,25,314,35,25,20,005,40,11,17,226,32*7E
$GPGSV,3,3,10,18,15,100,00,09,08,141,00*71
$GPRMC,035039.176,A,3526.8548,S,14905.2677,E,0.00,0.00,131104,,*1A
$GPGGA,035040.176,3526.8548,S,14905.2677,E,1,08,1.1,616.1,M,12.8,M,0.0,0000*60
$GPGSA,A,3,14,22,03,01,11,19,25,15,,,,,2.1,1.1,1.9*35
$GPGSV,3,1,10,14,76,152,38,15,50,045,41,01,47,310,39,22,45,119,40*70
$GPGSV,3,2,10,19,36,279,43,03,25,314,35,25,20,005,40,11,17,226,29*74
$GPGSV,3,3,10,18,15,100,00,09,08,141,00*71
$GPRMC,035040.176,A,3526.8548,S,14905.2677,E,0.00,0.00,131104,,*14
$GPGGA,035041.176,3526.8549,S,14905.2677,E,1,08,1.1,616.4,M,12.8,M,0.0,0000*65
$GPGSA,A,3,14,22,03,01,11,19,25,15,,,,,2.1,1.1,1.9*35
$GPGSV,3,1,10,14,76,152,38,15,50,045,41,01,47,310,39,22,45,119,40*70
$GPGSV,3,2,10,19,36,279,43,03,25,314,34,25,20,005,40,11,17,226,31*7C
$GPGSV,3,3,10,18,15,100,00,09,08,141,00*71
$GPRMC,035041.176,A,3526.8549,S,14905.2677,E,0.00,0.00,131104,,*14
$GPGGA,035042.176,3526.8549,S,14905.2677,E,1,08,1.1,616.6,M,12.8,M,0.0,0000*64
$GPGSA,A,3,14,22,03,01,11,19,25,15,,,,,2.1,1.1,1.9*35
$GPGSV,3,1,10,14,76,152,38,15,50,045,41,01,47,310,39,22,45,119,39*7E
$GPGSV,3,2,10,19,36,279,43,03,25,314,35,25,20,005,40,11,17,226,31*7D
$GPGSV,3,3,10,18,15,100,00,09,08,141,00*71
$GPRMC,035042.176,A,3526.8549,S,14905.2677,E,0.00,0.00,131104,,*17
$GPGGA,035043.176,3526.8550,S,14905.2677,E,1,08,1.1,616.8,M,12.8,M,0.0,0000*63
$GPGSA,A,3,14,22,03,01,11,19,25,15,,,,,2.1,1.1,1.9*35
$GPGSV,3,1,10,14,76,152,38,15,50,045,41,01,47,310,39,22,45,119,39*7E
$GPGSV,3,2,10,19,36,279,43,03,25,314,35,25,20,005,40,11,17,226,30*7C
$GPGSV,3,3,10,18,15,100,00,09,08,141,00*71
$GPRMC,035043.176,A,3526.8550,S,14905.2677,E,0.00,0.00,131104,,*1E
$GPGGA,035044.176,3526.8551,S,14905.2678,E,1,08,1.1,617.0,M,12.8,M,0.0,0000*63
$GPGSA,A,3,14,22,03,01,11,19,25,15,,,,,2.1,1.1,1.9*35
$GPGSV,3,1,10,14,76,152,38,15,50,045,42,01,47,310,39,22,45,119,39*7D
$GPGSV,3,2,10,19,36,279,43,03,25,314,34,25,20,005,40,11,17,226,29*75
$GPGSV,3,3,10,18,15,100,00,09,08,141,00*71
$GPRMC,035044.176,A,3526.8551,S,14905.2678,E,0.00,0.00,131104,,*17
$GPGGA,035045.176,3526.8552,S,14905.2679,E,1,08,1.1,617.2,M,12.8,M,0.0,0000*62
$GPGSA,A,3,14,22,03,01,11,19,25,15,,,,,2.1,1.1,1.9*35
$GPGSV,3,1,10,14,76,152,38,15,50,045,42,01,47,310,39,22,45,119,39*7D
$GPGSV,3,2,10,19,36,279,43,03,25,314,33,25,20,005,40,11,17,226,30*7A
$GPGSV,3,3,10,18,15,100,00,09,08,141,00*71
$GPRMC,035045.176,A,3526.8552,S,14905.2679,E,0.00,0.00,131104,,*14
$GPGGA,035046.175,3526.8552,S,14905.2679,E,1,08,1.1,617.3,M,12.8,M,0.0,0000*63
$GPGSA,A,3,14,22,03,01,11,19,25,15,,,,,2.1,1.1,1.9*35
$GPGSV,3,1,10,14,76,152,38,15,50,045,42,01,47,310,38,22,45,119,40*72
$GPGSV,3,2,10,19,36,279,43,03,25,314,32,25,20,005,41,11,17,226,32*78
$GPGSV,3,3,10,18,15,100,00,09,08,141,00*71
$GPRMC,035046.175,A,3526.8552,S,14905.2679,E,0.00,0.00,131104,,*14
$GPGGA,035047.175,3526.8552,S,14905.2679,E,1,08,1.1,617.5,M,12.8,M,0.0,0000*64
$GPGSA,A,3,14,22,03,01,11,19,25,15,,,,,2.1,1.1,1.9*35
$GPGSV,3,1,10,14,76,152,37,15,50,045,41,01,47,310,38,22,45,119,40*7E
$GPGSV,3,2,10,19,36,279,43,03,25,314,33,25,20,005,41,11,17,226,32*79
$GPGSV,3,3,10,18,15,100,00,09,08,141,00*71
$GPRMC,035047.175,A,3526.8552,S,14905.2679,E,0.00,0.00,131104,,*15
$GPGGA,035048.175,3526.8552,S,14905.2679,E,1,08,1.1,617.6,M,12.8,M,0.0,0000*68
$GPGSA,A,3,14,22,03,01,11,19,25,15,,,,,2.1,1.1,1.9*35
$GPGSV,3,1,10,14,76,152,37,15,49,045,41,01,47,310,38,22,45,119,39*78
$GPGSV,3,2,10,19,35,279,43,03,25,314,33,25,20,005,41,11,17,226,32*7A
$GPGSV,3,3,10,18,15,100,00,09,08,141,00*71
$GPRMC,035048.175,A,3526.8552,S,14905.2679,E,0.00,0.00,131104,,*1A
$GPGGA,035049.175,3526.8552,S,14905.2679,E,1,08,1.1,617.8,M,12.8,M,0.0,0000*67
$GPGSA,A,3,14,22,03,01,11,19,25,15,,,,,2.1,1.1,1.9*35
$GPGSV,3,1,10,14,76,152,38,15,49,045,41,01,47,310,38,22,45,119,40*79
$GPGSV,3,2,10,19,35,279,43,03,25,314,33,25,20,005,40,11,17,226,31*78
$GPGSV,3,3,10,18,15,100,00,09,08,141,00*71
$GPRMC,035049.175,A,3526.8552,S,14905.2679,E,0.00,0.00,131104,,*1B
$GPGGA,035050.175,3526.8552,S,14905.2680,E,1,08,1.1,617.8,M,12.8,M,0.0,0000*69
$GPGSA,A,3,14,22,03,01,11,19,25,15,,,,,2.1,1.1,1.9*35
$GPGSV,3,1,10,14,76,152,37,15,49,045,41,01,47,310,39,22,45,119,40*77
$GPGSV,3,2,10,19,35,279,43,03,25,314,33,25,20,005,40,11,17,226,31*78
$GPGSV,3,3,10,18,15,100,00,09,08,141,00*71
$GPRMC,035050.175,A,3526.8552,S,14905.2680,E,0.00,0.00,131104,,*15
$GPGGA,035051.175,3526.8552,S,14905.2681,E,1,08,1.1,617.9,M,12.8,M,0.0,0000*68
$GPGSA,A,3,14,22,03,01,11,19,25,15,,,,,2.1,1.1,1.9*35
$GPGSV,3,1,10,14,76,152,38,15,49,045,41,01,47,310,39,22,45,119,40*78
$GPGSV,3,2,10,19,35,279,43,03,25,314,32,25,20,005,40,11,17,226,33*7B
$GPGSV,3,3,10,18,15,100,00,09,08,141,00*71
$GPRMC,035051.175,A,3526.8552,S,14905.2681,E,0.00,0.00,131104,,*15
$GPGGA,035052.175,3526.8552,S,14905.2681,E,1,08,1.1,617.8,M,12.8,M,0.0,0000*6A
$GPGSA,A,3,14,22,03,01,11,19,25,15,,,,,2.1,1.1,1.9*35
$GPGSV,3,1,10,14,76,152,37,15,49,045,41,01,47,310,39,22,45,119,40*77
$GPGSV,3,2,10,19,35,279,43,03,25,314,34,25,20,005,39,11,17,226,30*70
$GPGSV,3,3,10,18,15,100,00,09,08,141,00*71
$GPRMC,035052.175,A,3526.8552,S,14905.2681,E,0.00,0.00,131104,,*16
$GPGGA,035053.175,3526.8553,S,14905.2683,E,1,08,1.1,617.6,M,12.8,M,0.0,0000*66
$GPGSA,A,3,14,22,03,01,11,19,25,15,,,,,2.1,1.1,1.9*35
$GPGSV,3,1,10,14,76,152,38,15,49,045,41,01,47,310,38,22,45,119,40*79
$GPGSV,3,2,10,19,35,279,43,03,25,314,33,25,20,005,40,11,17,226,32*7B
$GPGSV,3,3,10,18,15,100,00,09,08,141,00*71
$GPRMC,035053.175,A,3526.8553,S,14905.2683,E,0.00,0.00,131104,,*14
$GPGGA,035054.175,3526.8554,S,14905.2685,E,1,08,1.1,617.2,M,12.8,M,0.0,0000*64
$GPGSA,A,3,14,22,03,01,11,19,25,15,,,,,2.1,1.1,1.9*35
$GPGSV,3,1,10,14,76,152,38,15,49,045,41,01,47,310,39,22,45,119,39*76
$GPGSV,3,2,10,19,35,279,43,03,25,314,34,25,20,005,40,11,17,226,31*7F
$GPGSV,3,3,10,18,15,100,00,09,08,141,00*71
$GPRMC,035054.175,A,3526.8554,S,14905.2685,E,0.00,0.00,131104,,*12
$GPGGA,035055.175,3526.8556,S,14905.2687,E,1,08,1.1,616.7,M,12.8,M,0.0,0000*61
$GPGSA,A,3,14,22,03,01,11,19,25,15,,,,,2.1,1.1,1.9*35
$GPGSV,3,1,10,14,76,152,38,15,49,045,40,01,47,310,38,22,45,119,39*76
$GPGSV,3,2,10,19,35,279,43,03,25,314,35,25,20,005,40,11,17,226,32*7D
$GPGSV,3,3,10,18,15,100,00,09,08,141,00*71
$GPRMC,035055.175,A,3526.8556,S,14905.2687,E,0.00,0.00,131104,,*13
$GPGGA,035056.175,3526.8556,S,14905.2689,E,1,08,1.1,616.0,M,12.8,M,0.0,0000*6B
$GPGSA,A,3,14,22,03,01,11,19,25,15,,,,,2.1,1.1,1.9*35
$GPGSV,3,1,10,14,76,152,38,15,49,045,41,01,47,310,38,22,45,119,39*77
$GPGSV,3,2,10,19,35,279,43,03,25,314,33,25,20,005,40,11,17,226,31*78
$GPGSV,3,3,10,18,15,100,00,09,08,141,00*71
$GPRMC,035056.175,A,3526.8556,S,14905.2689,E,0.00,0.00,131104,,*1E
$GPGGA,035057.175,3526.8557,S,14905.2690,E,1,08,1.1,615.4,M,12.8,M,0.0,0000*64
$GPGSA,A,3,14,22,03,01,11,19,25,15,,,,,2.1,1.1,1.9*35
$GPGSV,3,1,10,14,76,152,38,15,49,045,41,01,47,310,39,22,45,119,39*76
$GPGSV,3,2,10,19,35,279,43,03,25,314,35,25,20,005,40,11,17,226,32*7D
$GPGSV,3,3,10,18,15,100,00,09,08,141,00*71
$GPRMC,035057.175,A,3526.8557,S,14905.2690,E,0.00,0.00,131104,,*16
$GPGGA,035058.175,3526.8557,S,14905.2691,E,1,08,1.1,614.8,M,12.8,M,0.0,0000*67
$GPGSA,A,3,14,22,03,01,11,19,25,15,,,,,2.1,1.1,1.9*35
$GPGSV,3,1,10,14,76,152,38,15,49,045,42,01,47,310,38,22,45,119,38*75
$GPGSV,3,2,10,19,35,279,43,03,25,314,34,25,20,005,40,11,17,226,31*7F
$GPGSV,3,3,10,18,15,100,00,09,08,141,00*71
$GPRMC,035058.175,A,3526.8557,S,14905.2691,E,0.00,0.00,131104,,*18
$GPGGA,035059.175,3526.8558,S,14905.2693,E,1,08,1.1,614.4,M,12.8,M,0.0,0000*67
$GPGSA,A,3,14,22,03,01,11,19,25,15,,,,,2.1,1.1,1.9*35
$GPGSV,3,1,10,14,76,152,38,15,49,045,42,01,47,310,38,22,45,119,38*75
$GPGSV,3,2,10,19,35,279,44,03,25,314,34,25,20,005,40,11,17,226,31*78
$GPGSV,3,3,10,18,15,100,00,09,08,141,00*71
$GPRMC,035059.175,A,3526.8558,S,14905.2693,E,0.00,0.00,131104,,*14
$GPGGA,035100.175,3526.8558,S,14905.2694,E,1,08,1.1,614.0,M,12.8,M,0.0,0000*69
$GPGSA,A,3,14,22,03,01,11,19,25,15,,,,,2.1,1.1,1.9*35
$GPGSV,3,1,10,14,76,152,38,15,49,045,42,01,47,310,38,22,45,119,39*74
$GPGSV,3,2,10,19,35,279,43,03,25,314,32,25,20,005,40,11,17,226,28*71
$GPGSV,3,3,10,18,15,100,00,09,08,141,00*71
$GPRMC,035100.175,A,3526.8558,S,14905.2694,E,0.00,0.00,131104,,*1E
$GPGGA,035101.175,3526.8558,S,14905.2694,E,1,08,1.1,613.5,M,12.8,M,0.0,0000*6A
$GPGSA,A,3,14,22,03,01,11,19,25,15,,,,,2.1,1.1,1.9*35
$GPGSV,3,1,10,14,76,152,38,15,49,045,42,01,47,310,39,22,45,119,39*75
$GPGSV,3,2,10,19,35,279,44,03,25,314,33,25,20,005,40,11,17,226,27*78
$GPGSV,3,3,10,18,15,100,00,09,08,141,00*71
$GPRMC,035101.175,A,3526.8558,S,14905.2694,E,0.00,0.00,131104,,*1F
$GPGGA,035102.175,3526.8558,S,14905.2694,E,1,08,1.1,612.9,M,12.8,M,0.0,0000*64
$GPGSA,A,3,14,22,03,01,11,19,25,15,,,,,2.1,1.1,1.9*35
$GPGSV,3,1,10,14,76,152,38,15,49,045,42,01,47,310,38,22,45,119,38*75
$GPGSV,3,2,10,19,35,279,43,03,25,314,32,25,20,005,40,11,17,226,32*7A
$GPGSV,3,3,10,18,15,100,00,09,08,141,00*71
$GPRMC,035102.175,A,3526.8558,S,14905.2694,E,0.00,0.00,131104,,*1C
$GPGGA,035103.175,3526.8558,S,14905.2695,E,1,08,1.1,612.1,M,12.8,M,0.0,0000*6C
$GPGSA,A,3,14,22,03,01,11,19,25,15,,,,,2.1,1.1,1.9*35
$GPGSV,3,1,10,14,76,152,38,15,49,045,42,01,47,310,39,22,45,119,38*74
$GPGSV,3,2,10,19,35,279,44,03,25,314,34,25,20,005,40,11,17,226,32*7B
$GPGSV,3,3,10,18,15,100,00,09,08,141,00*71
$GPRMC,035103.175,A,3526.8558,S,14905.2695,E,0.00,0.00,131104,,*1C
$GPGGA,035104.174,3526.8558,S,14905.2694,E,1,08,1.1,611.4,M,12.8,M,0.0,0000*6D
$GPGSA,A,3,14,22,03,01,11,19,25,15,,,,,2.1,1.1,1.9*35
$GPGSV,3,1,10,14,76,152,38,15,49,045,42,01,47,310,39,22,45,119,39*75
$GPGSV,3,2,10,19,35,279,44,03,25,314,34,25,20,005,40,11,17,226,32*7B
$GPGSV,3,3,10,18,15,100,00,09,08,141,00*71
$GPRMC,035104.174,A,3526.8558,S,14905.2694,E,0.00,0.00,131104,,*1B
$GPGGA,035105.174,3526.8557,S,14905.2694,E,1,08,1.1,610.8,M,12.8,M,0.0,0000*6E
$GPGSA,A,3,14,22,03,01,11,19,25,15,,,,,2.1,1.1,1.9*35
$GPGSV,3,1,10,14,76,152,38,15,49,045,41,01,47,310,39,22,45,119,38*77
$GPGSV,3,2,10,19,35,279,43,03,25,314,34,25,20,005,40,11,17,226,32*7C
$GPGSV,3,3,10,18,15,100,00,09,08,141,00*71
$GPRMC,035105.174,A,3526.8557,S,14905.2694,E,0.00,0.00,131104,,*15
$GPGGA,035106.174,3526.8556,S,14905.2694,E,1,08,1.1,610.4,M,12.8,M,0.0,0000*60
$GPGSA,A,3,14,22,03,01,11,19,25,15,,,,,2.1,1.1,1.9*35
$GPGSV,3,1,10,14,76,152,37,15,49,045,41,01,47,310,38,22,45,119,39*78
$GPGSV,3,2,10,19,35,279,43,03,25,314,32,25,20,005,40,11,17,226,31*79
$GPGSV,3,3,10,18,15,100,00,09,08,141,00*71
$GPRMC,035106.174,A,3526.8556,S,14905.2694,E,0.00,0.00,131104,,*17
$GPGGA,035107.174,3526.8555,S,14905.2693,E,1,08,1.1,610.3,M,12.8,M,0.0,0000*62
$GPGSA,A,3,14,22,03,01,11,19,25,15,,,,,2.1,1.1,1.9*35
$GPGSV,3,1,10,14,76,152,38,15,49,045,41,01,47,310,39,22,45,119,39*76
$GPGSV,3,2,10,19,35,279,44,03,25,314,33,25,20,005,40,11,17,226,31*7F
$GPGSV,3,3,10,18,15,100,00,09,08,141,00*71
$GPRMC,035107.174,A,3526.8555,S,14905.2693,E,0.00,0.00,131104,,*12
$GPGGA,035108.174,3526.8554,S,14905.2693,E,1,08,1.1,610.2,M,12.8,M,0.0,0000*6D
$GPGSA,A,3,14,22,03,01,11,19,25,15,,,,,2.1,1.1,1.9*35
$GPGSV,3,1,10,14,76,152,38,15,49,045,41,01,47,310,39,22,45,119,39*76
$GPGSV,3,2,10,19,35,279,43,03,25,314,33,25,20,005,39,11,17,226,32*75
$GPGSV,3,3,10,18,15,100,00,09,08,141,00*71
$GPRMC,035108.174,A,3526.8554,S,14905.2693,E,0.00,0.00,131104,,*1C
$GPGGA,035109.174,3526.8554,S,14905.2693,E,1,08,1.1,610.1,M,12.8,M,0.0,0000*6F
$GPGSA,A,3,14,22,03,01,11,19,25,15,,,,,2.1,1.1,1.9*35
$GPGSV,3,1,10,14,76,152,38,15,49,045,41,01,47,310,40,22,45,119,39*78
$GPGSV,3,2,10,19,35,279,44,03,25,314,34,25,20,005,39,11,17,226,32*75
$GPGSV,3,3,10,18,15,100,00,09,08,141,00*71
$GPRMC,035109.174,A,3526.8554,S,14905.2693,E,0.00,0.00,131104,,*1D
$GPGGA,035110.174,3526.8553,S,14905.2693,E,1,08,1.1,610.1,M,12.8,M,0.0,0000*60
$GPGSA,A,3,14,22,03,01,11,19,25,15,,,,,2.1,1.1,1.9*35
$GPGSV,3,1,10,14,76,152,38,15,49,045,40,01,47,310,39,22,45,119,39*77
$GPGSV,3,2,10,19,35,279,43,03,25,314,33,25,20,005,39,11,17,226,32*75
$GPGSV,3,3,10,18,15,100,00,09,08,141,00*71
$GPRMC,035110.174,A,3526.8553,S,14905.2693,E,0.00,0.00,131104,,*12
$GPGGA,035111.174,3526.8553,S,14905.2693,E,1,08,1.1,609.9,M,12.8,M,0.0,0000*61
$GPGSA,A,3,14,22,03,01,11,19,25,15,,,,,2.1,1.1,1.9*35
$GPGSV,3,1,10,14,76,152,38,15,49,045,41,01,47,310,38,22,45,119,38*76
$GPGSV,3,2,10,19,35,279,43,03,25,314,35,25,20,005,39,11,17,226,33*72
$GPGSV,3,3,10,18,15,100,00,09,08,141,00*71
$GPRMC,035111.174,A,3526.8553,S,14905.2693,E,0.00,0.00,131104,,*13
$GPGGA,035112.174,3526.8552,S,14905.2693,E,1,08,1.1,609.9,M,12.8,M,0.0,0000*63
